~Version Information
#-------------------
Vers.        2.0: CWLS log ASCII Standart - VERSION 2.0
WRAP.         NO: One line per depth step
~Well Information Block
#----------------------
#MNEM.UNIT  VALUE: DESCRIPTION
#----.---- -------: -------------
STRT.M     90.00: 
STOP.M    460.00: 
STEP.M      0.20:  
NULL.  -9999.990:  
COMP.           : 
WELL.           : 115
FLD .           : Тэдинская
LOC .           : 
CNTY.           : 
SRVC.           : 
DATE.           : 21-03-04
UWI .           : 
~Parameter Information
#---------------------
#MNEM.UNIT  VALUE: DESCRIPTION
#----.---- -------: ---------------
~Curve Information Block
#-----------------------
#MNEM.UNIT       : CURVE DESCRIPTION
#----.----       : -----------------
DEPT.M          : 
Aя  .           : Амплитуда - волна по колонне 
Tя  .мкс        : Время пробега - волна по породе
Aъ  .           : Амплитуда - волна по породе
DK  .дБ         : Затухание
akz .           : контакт цемент-колонна
~Other Information
#-----------------
~Ascii Log Data
# ...
       186     83.684   1507.661          0     62.292          4 
     186.2     56.722   1511.353          0     62.292          4 
     186.4     24.424   1552.036          0     62.292          4 
     186.6     26.132   1539.346          0     62.292          4 
     186.8     29.335   1529.176          0     62.292          4 
       187     23.973   1549.682          0     62.292          4 
     187.2     20.548   1534.245          0     62.292          4 
     187.4     17.123   1540.554          0     62.292          4 
     187.6     18.119   1515.064          0     62.292          4 
     187.8     60.409    1471.17          0     62.292          4 
       188     99.363   1457.368          0     62.292          4 
     188.2    123.878   1456.268          0     62.292          4 
     188.4    139.094   1454.668          0     62.292          4 
     188.6    152.446   1451.298          0     62.292          4 
     188.8    159.755    1443.44          0     62.292          4 
       189    147.586   1434.515          0     62.292          4 
     189.2    127.917   1434.807          0     62.292          4 
     189.4     98.337   1440.131          0     62.292          4 
     189.6     59.583   1486.442          0     62.292          4 
     189.8     64.883   1561.783          0     62.292          4 
       190    104.672   1582.186          0     62.292          4 
     190.2    110.813   1548.533     14.042     51.462          4 
     190.4     75.109   1546.064     43.625     29.521          4 
     190.6     35.815   1597.103     49.625       28.4          4 
     190.8     61.644   1601.827     38.083     31.219          4 
       191      51.37   1597.455     16.694     43.643          4 
     191.2     47.945   1631.695          0     62.292          4 
     191.4     47.945   1609.599          0     62.292          4 
     191.6     54.819    1588.65          0     62.292          4 
     191.8     22.542   1592.181          0     62.292          4 
       192     47.945   1568.598          0     62.292          4 
     192.2      51.37   1506.899     30.017     40.246          4 
     192.4      51.37   1522.529     15.008     51.269          4 
     192.6     34.247   1531.496          0     62.292          4 
     192.8     17.616   1506.868          0     62.292          4 
       193     40.414   1504.119     15.361     44.125          4 
     193.2     45.784   1498.874      7.681     53.209          4 
     193.4     46.279   1519.954          0     62.292          4 
     193.6     66.938   1492.066      0.681     60.226          4 
     193.8     84.385   1476.726      0.681     60.226          4 
       194    102.079   1485.408          0     62.292          4 
     194.2    126.371   1493.668          0     62.292          4 
     194.4    144.217   1496.092      1.339     58.266          4 
     194.6    144.798   1494.986      2.679     54.239          4 
     194.8    147.201   1495.288          0     62.292          4 
       195    158.591   1493.158     33.417     39.625          4 
     195.2     172.37   1491.194     16.708     50.959          4 
     195.4    177.925   1494.154          0     62.292          4 
     195.6    163.953   1498.731          0     62.292          4 
     195.8    148.184   1499.298          0     62.292          4 
       196    150.539   1503.613          0     62.292          4 
     196.2    162.973   1505.774          0     62.292          4 
     196.4    166.069   1497.844          0     62.292          4 
     196.6     158.16   1495.436          0     62.292          4 
     196.8    152.781   1495.609      8.342     62.292          4 
       197      146.1   1497.446          0     62.292          4 
     197.2    118.008   1496.913          0     62.292          4 
     197.4     78.238   1531.174          0     62.292          4 
     197.6     45.337   1614.334          0     62.292          4 
     197.8     14.636   1645.024          0     62.292          4 
       198     41.096   1656.165          0     62.292          4 
     198.2     23.973   1649.668          0     62.292          4 
     198.4     23.973   1552.571          0     62.292          4 
     198.6      5.928   1559.242          0     62.292          4 
     198.8     30.822   1611.182          0     62.292          4 
       199     37.671   1568.466          0     62.292          4 
     199.2     41.096   1379.708      6.028     49.542          4 
     199.4     22.733   1451.589      3.014     55.917          4 
     199.6     54.795   1533.174          0     62.292          4 
     199.8     47.945   1559.936          0     62.292          4 
       200     27.397   1603.739          0     62.292          4 
     200.2     27.397   1590.829          0     62.292          4 
     200.4     17.123   1566.824          0     62.292          4 
     200.6     62.759   1595.388          0     62.292          4 
     200.8     94.036   1596.677          0     62.292          4 
       201    167.007   1591.368      3.769     52.931          4 
     201.2    200.145   1591.632      8.233     43.981          4 
     201.4    146.553   1568.077       2.75     56.183          4 
     201.6     60.834   1392.678      2.815     62.292          4 
     201.8     26.741   1004.715         21     50.297          4 
       202     40.993    791.988     46.375     30.847          4 
     202.2     80.708    798.705      5.192     53.663          4 
     202.4     84.772    941.741      1.982      56.73          4 
     202.6     59.506    936.325      1.583     57.283          4 
     202.8     38.774    825.486      2.375     62.292          4 
       203     21.564    862.955      2.375     62.292          4 
     203.2     19.333   1053.977          0     62.292          4 
     203.4     11.793   1299.879          0     62.292          4 
     203.6      8.711   1463.595          0     62.292          4 
     203.8     22.684   1536.729          0     62.292          4 
       204     22.128   1569.333          0     62.292          4 
     204.2      7.262    1592.28          0     62.292          4 
     204.4     25.553   1550.164          0     62.292          4 
     204.6     76.109   1474.824          0     62.292          4 
     204.8     87.501   1472.836          0     62.292          4 
       205     61.152   1524.725          0     62.292          4 
     205.2     41.387   1603.936          0     62.292          4 
     205.4     30.771   1655.753          0     62.292          4 
     205.6      25.39   1619.949          0     62.292          4 
     205.8     20.548   1610.405          0     62.292          4 
       206     20.548    1630.88          0     62.292          4 
     206.2     20.548   1602.467          0     62.292          4 
     206.4     30.822   1578.661          0     62.292          4 
     206.6     20.014   1592.533          0     62.292          4 
     206.8     80.138   1630.816          0     62.292          4 
       207    108.541   1657.683          0     62.292          4 
     207.2     68.263   1666.174          0     62.292          4 
     207.4     15.614   1624.598      1.042     58.993          4 
     207.6     33.757   1542.734      2.083     55.694          4 
     207.8    106.743   1462.173          0     62.292          4 
       208    161.639   1445.609          0     62.292          4 
     208.2    176.155   1446.457          0     62.292          4 
     208.4    176.364   1447.778          0     62.292          4 
     208.6    161.977   1443.812          0     62.292          4 
     208.8    120.483   1442.561          0     62.292          4 
       209     78.064   1445.459          0     62.292          4 
     209.2     36.636   1474.993          0     62.292          4 
     209.4     41.096   1532.172          0     62.292          4 
     209.6     41.096   1510.854          0     62.292          4 
     209.8     41.096   1498.348          0     62.292          4 
