~Version information
  VERS.                            1.20: CWLS LAS  -  VERSION 1.20
  WRAP.                              NO: One line per depth step
~Well information
# MNEM.UNIT
# ====.================================:===================
  STRT.M                        3140.00: First depth in file
  STOP.M                        3450.00: Last depth in file
  STEP.M                           0.20: Depth increment
  NULL.                            9999: Null values
  COMP.                         COMPANY: 
  WELL.                            WELL: 115 
  FLD .                           FIELD: íùÑàçëäÄü
  CNTY.                          COUNTY: 
  STAT.                           STATE: 
  DATE.                        LOG DATE: 30-04-04
  SRVC.                 SERVICE COMPANY: 
  UWI.           Unique Well Identifier: 
~Parametr information block
# MNEM.UNIT
# ====.================================:===================
~Other information
# ------------------------- REMARKS  AREA ------------------
~Curve information
# MNEM.UNIT
# ====.================================:===================
  DEPT.M                               : Depth curve
GZ5.OHMM                               : äÄÜ. ëéèêéíàÇãÖçàÖ áéçÑÄ A8.0M1.0N
GZ4.OHMM                               : äÄÜ. ëéèêéíàÇãÖçàÖ áéçÑÄ A4.0M0.5N
GZ3.OHMM                               : äÄÜ. ëéèêéíàÇãÖçàÖ áéçÑÄ A2.0M0.5N
GZ2.OHMM                               : äÄÜ. ëéèêéíàÇãÖçàÖ áéçÑÄ A1.0M0.1N
GZ1.OHMM                               : äÄÜ.ëéèêéíàÇãÖçàÖ áéçÑÄ A0.4M0.1N
PZ.OHMM                                : äÄÜ.ëéèê.èé èéíÖçñàÄãáéçÑì Ä0.5å6.5N
RRB.OHMM                               : ëéèêéíàÇã.èêéåõÇéóç.ÜàÑäéëíà èÖêÇàó.
CALI.MM                                : ëìååÄêçõâ ÑàÄåÖíê äÄÇÖêçéåÖêÄ
CILA.MMHO                              : áéçÑ àä 7à1.6,Ääí.ëàÉçÄã/àä-è/Äàä-5
SP.MV                                  : ÖëíÖëíÇÖççÄü ëÄåéèéãüêàáÄñàü èé èë
BS.                                    : Ñ≠-216¨¨
GR.UR/H                                : ÖëíÖëíÇÖççÄü ÉÄååÄ-ÄäíàÇçéëíú èé Éä
GZB.OHMM                               : GZB
~ASCII Log Data
# ...
  3383.80    25.5518    58.8983    65.6585    35.9696    10.1681    30.3632     0.7697   211.1285    53.0822   312.1216   215.9000     1.0792    27.7522
  3384.00    26.2992    60.7549    68.5715    37.1703    10.4451    29.1416     0.7840   211.0440    56.5313   313.6992   215.9000     0.9462    26.0626
  3384.20    27.2456    63.9261    72.2312    40.2643    11.3319    27.4157     0.7851   212.0771    59.9993   311.6158   215.9000     0.8755    24.9239
  3384.40    27.8176    66.8080    74.3495    39.9979    11.5205    25.3593     0.7868   210.6741    62.5178   310.0540   215.9000     0.9003    24.7816
  3384.60    27.9667    66.5254    72.4354    38.3302    11.1423    23.4838     0.7835   209.2444    68.0727   307.1414   215.9000     0.8516    25.8092
  3384.80    27.6608    64.2713    68.5079    36.5656    10.6118    21.5822     0.7730   209.1086    75.9055   306.9039   215.9000     0.8831    27.1402
  3385.00    26.5640    61.1805    63.8670    34.6131    10.1258    19.7472     0.7726   209.2540    84.1008   304.0480   215.9000     0.9238    28.5963
  3385.20    24.8402    56.9608    58.4125    32.1417     9.5769    18.3209     0.7656   209.2540    92.5551   304.4044   215.9000     0.9262    29.9247
  3385.40    22.9816    51.7079    51.8773    28.9883     8.8916    17.4958     0.7756   209.2540    97.0679   305.7850   215.9000     1.0521    32.0889
  3385.60    19.9769    44.8030    44.5636    24.5746     7.7743    17.4154     0.7682   209.2521    99.8827   306.6572   215.9000     0.8594    35.1656
  3385.80    17.8202    38.7198    38.8650    20.6731     6.9219    17.8021     0.7705   209.2179   103.0658   307.5688   215.9000     0.7725    37.4345
  3386.00    16.1491    34.5748    35.3128    19.2381     6.8581    18.5582     0.7607   209.2540   106.9521   304.8918   215.9000     0.7865    38.8269
  3386.20    14.9835    32.3398    33.0756    18.9914     7.1568    19.5763     0.7555   209.2509   106.3848   303.9098   215.9000     0.8499    39.1044
  3386.40    14.4257    31.0375    31.3307    18.9460     7.3840    20.4821     0.7474   209.1815   103.5933   303.8254   215.9000     0.7944    39.0085
  3386.60    14.1094    30.1367    29.6500    19.0921     7.4741    21.3905     0.7745   208.9976    98.0605   305.4739   215.9000     0.8388    38.8097
  3386.80    13.9977    29.4290    28.4715    20.4823     7.7794    22.0326     0.7646   208.9310    93.4326   304.2607   215.9000     0.8094    38.0195
  3387.00    13.9100    29.4641    28.1674    22.0845     8.1557    22.4882     0.7583   209.2977    91.1187   306.4550   215.9000     0.7053    36.3214
  3387.20    13.8033    30.1403    29.1407    24.4552     8.7229    22.2194     0.7825   210.1461    89.0344   305.2599   215.9000     0.7684    33.7353
  3387.40    13.5623    30.2807    30.8942    28.1396     9.8511    21.6962     0.7735   210.4542    85.7620   304.5750   215.9000     0.7995    31.7696
  3387.60    13.1695    29.1010    31.3861    27.5611     9.5973    20.9724     0.7649   210.1077    81.1554   304.5174   215.9000     0.9055    31.9410
  3387.80    12.7856    26.5292    30.1210    25.6382     8.6825    20.4972     0.7631   209.5468    80.8208   303.5841   215.9000     0.9512    33.6106
  3388.00    12.1458    24.1496    29.1777    23.6994     7.7804    20.7218     0.7637   208.7659    85.1378   306.3145   215.9000     0.9222    35.0229
  3388.20    11.6899    22.5065    29.3662    22.9344     7.4672    21.3265     0.7577   208.8366    92.0453   306.9445   215.9000     1.0201    34.8503
  3388.40    11.4110    21.7276    31.0118    23.4662     7.8852    21.7358     0.7516   209.1530    96.9760   308.2202   215.9000     0.9764    33.3345
  3388.60    11.2236    21.5341    33.0137    24.4109     8.5660    22.1136     0.7641   209.1982    96.0120   307.0813   215.9000     0.8299    31.4482
  3388.80    11.2633    21.2388    34.3240    24.2838     8.7930    22.1148     0.7660   209.3443    90.0392   308.1917   215.9000     0.7849    30.3951
  3389.00    11.4210    20.6277    34.8220    24.7983     8.7842    21.9017     0.7670   209.5022    84.3098   309.6977   215.9000     0.7045    29.3514
  3389.20    11.4210    20.3157    35.6792    25.3761     8.6437    21.5070     0.7663   209.1587    81.1513   309.5559   215.9000     0.6790    27.8190
  3389.40    11.4189    20.6542    36.7918    27.6011     9.1845    20.9277     0.7731   209.4370    81.3945   309.5864   215.9000     0.7413    25.9874
  3389.60    11.3712    20.6765    36.8301    28.2249     9.4284    20.3393     0.7740   210.1078    86.2919   311.6029   215.9000     0.8220    25.4951
  3389.80    11.2104    20.3146    35.0351    26.2662     8.8279    19.7267     0.7742   209.5220    86.7117   311.2470   215.9000     0.7975    25.7367
  3390.00    10.9707    20.0990    33.7257    25.1767     8.4422    19.1804     0.7774   210.0312    86.5834   313.2940   215.9000     0.6928    25.9534
  3390.20    10.6131    20.0990    33.3434    24.9299     8.3581    19.0121     0.7653   210.2924    89.8645   315.0102   215.9000     0.6755    26.2375
  3390.40    10.4215    20.0891    33.0430    23.9183     8.1447    18.8965     0.7715   209.7713    93.7006   315.1129   215.9000     0.7589    27.2591
  3390.60    10.3665    19.9095    32.5911    22.7527     8.0137    18.8480     0.7814   209.8652    96.1053   314.8271   215.9000     0.7185    28.8361
  3390.80    10.2240    20.0997    32.3305    22.2500     7.8233    18.8289     0.7886   210.4860    98.3192   314.8423   215.9000     0.7106    29.9369
  3391.00    10.2240    20.6574    32.7515    23.7016     8.3110    18.4450     0.7821   210.6327    99.0816   314.8272   215.9000     0.7515    30.7020
  3391.20    10.2207    20.8570    32.9263    24.5181     8.7949    17.9972     0.7842   210.5024    98.6509   316.5982   215.9000     0.9276    32.4652
  3391.40    10.1514    20.1073    31.9901    23.5338     8.5854    17.3866     0.7885   209.9451    97.5873   316.9893   215.9000     0.8419    36.3013
  3391.60    10.0150    18.7910    29.8810    22.8137     8.2255    16.8789     0.7793   210.0488   100.3363   317.5015   215.9000     0.7793    41.8999
  3391.80     9.8250    17.4792    27.9589    21.8024     7.7274    16.7819     0.7869   210.1826   104.2141   317.6591   215.9000     0.7239    47.7753
  3392.00     9.8350    16.6843    26.3825    21.0197     7.4773    16.7980     0.8050   209.8968   106.8353   316.3633   215.9000     0.6471    54.8163
  3392.20    10.0250    15.8903    24.8872    19.6296     7.2481    17.1905     0.8231   209.6956   109.5122   313.6939   215.9000     0.6881    63.3549
  3392.40    10.0441    15.0975    22.9385    17.4279     6.7407    18.1924     0.8078   209.9220   105.9755   313.0083   215.9000     0.7174    73.4717
  3392.60    10.4069    14.3561    21.1794    15.8446     6.1031    19.4397     0.8429   210.0627   102.6870   311.9552   215.9000     0.8671    79.9850
  3392.80    10.8141    14.1546    20.4248    16.4781     6.3975    21.0716     0.8602   210.2475    96.7867   312.9262   215.9000     0.6709    83.7428
  3393.00    11.3781    14.2479    20.3591    16.4006     6.5385    23.0423     0.8650   211.2823    90.6775   315.4468   215.9000     0.5305    86.3120
  3393.20    12.0067    14.3659    20.2670    16.3848     6.4998    25.0112     0.8629   210.5743    80.6812   315.6224   215.9000     0.7872    88.6884
  3393.40    12.7480    14.8696    20.3251    17.3948     6.6858    27.3761     0.8419   210.7146    69.8243   315.7117   215.9000     0.7917    89.3708
  3393.60    13.6245    15.8785    21.5278    19.0777     7.0679    29.4045     0.8391   210.3875    59.5001   314.4012   215.9000     0.8281    87.6652
  3393.80    14.4539    16.8427    23.5056    21.2488     7.5426    31.5375     0.8220   210.4556    52.4103   314.6076   215.9000     0.9090    85.5321
  3394.00    15.2498    18.0763    25.8975    23.0254     7.9539    33.3372     0.8223   210.4960    45.8932   316.4178   215.9000     0.9462    83.4243
  3394.20    16.0088    19.3165    28.3535    25.1470     8.3579    34.9269     0.8272   210.8209    40.4571   319.1599   215.9000     0.9332    80.3597
