~Version information
  VERS.                            1.20: CWLS LAS  -  VERSION 1.20
  WRAP.                              NO: One line per depth step
~Well information
# MNEM.UNIT
# ====.================================:===================
  STRT.M                        3148.00: First depth in file
  STOP.M                        3438.00: Last depth in file
  STEP.M                           0.20: Depth increment
  NULL.                            9999: Null values
  COMP.                         COMPANY: 
  WELL.                            WELL: 115 
  FLD .                           FIELD: íÌ§®≠·™†Ô
  CNTY.                          COUNTY: 
  STAT.                           STATE: 
  DATE.                        LOG DATE: 28-04-04
  SRVC.                 SERVICE COMPANY: 
  UWI.           Unique Well Identifier: 
~Parametr information block
# MNEM.UNIT
# ====.================================:===================
~Other information
# ------------------------- REMARKS  AREA ------------------
~Curve information
# MNEM.UNIT
# ====.================================:===================
  DEPT.M                               : Depth curve
IZ2.DEG                                : îÄáÄ1(ÉêÄÑ)
IZ3.DEG                                : îÄáÄ2(ÉêÄÑ)
IZ4.DEG                                : îÄáÄ3(ÉêÄÑ)
IZ5.DEG                                : îÄáÄ4(ÉêÄÑ)
IZ1.DEG                                : îÄáÄ5(ÉêÄÑ)
VIK1.OHMM                              : É0.4à0.1à(éåå)
VIK5.OHMM                              : É0.57à0.14à(éåå)
VIK4.OHMM                              : É0.8à0.2à(éåå)
VIK3.OHMM                              : É1.13à0.28à(éåå)
VIK2.OHMM                              : É1.6à0.4à(éåå)
~ASCII Log Data
  3148.00     8.8400    10.1800     7.6350     6.4850     6.4750    14.1650    11.2950    17.0650    22.2750    22.4800
  3148.20     9.1850    10.3200     7.8900     6.6250     6.5400    12.9550    10.8450    16.3850    21.3000    21.9100
  3148.40     9.6300    10.6850     8.3550     7.0150     6.8900    11.7450    10.1300    14.9350    19.1750    20.2650
  3148.60    12.4650    12.1700     9.4000     7.8450     7.3900     8.6700     7.9350    12.3700    16.3650    18.1250
  3148.80    12.3250    12.2100     9.6550     8.3550     7.9350     9.1550     8.6450    12.7550    15.3350    16.3500
  3149.00    11.5800    12.0500     9.5100     8.3150     8.2300     8.4100     8.8050    12.6950    14.8750    15.5100
  3149.20    11.5300    12.6950    10.2350     8.8450     8.5600     7.9050     7.8450    10.8400    13.4600    14.5400
  3149.40    13.0950    13.9850    11.2200     9.5950     9.1100     7.5350     6.9650     9.5000    12.1150    13.2200
  3149.60    17.4850    16.7350    13.0150    10.7300     9.8200     4.8800     4.9700     7.3450    10.1650    11.8450
  3149.80    13.3550    14.1800    12.0200    10.4900     9.8950     9.2000     8.5350     9.9350    11.5750    12.2500
  3150.00     9.0400    11.0750     9.8100     8.8400     8.9550    13.0050    10.7050    12.4700    14.2500    14.3700
  3150.20    11.0100    12.4300    10.3550     8.8850     8.6100    10.4100     8.0900    10.5750    13.2900    14.4600
  3150.40    15.2300    14.2450    11.9700    10.2750     9.3550     6.4900     5.9200     8.1050    10.8600    12.4950
  3150.60    14.4750    14.3150    12.5600    10.9800    10.0050     6.7250     6.6350     8.2500    10.1150    11.4300
  3150.80    14.5500    15.0800    12.5150    10.9500    10.1400     6.1450     6.3800     8.3350    10.0350    11.3100
  3151.00    14.5600    15.6600    12.7250    10.8500    10.0700    15.9050     7.8850     8.7450    10.7050    11.6450
  3151.20     9.6000    11.8300    10.3850     9.2950     9.3600    21.2500    11.7350    12.7650    14.3250    13.5400
  3151.40     8.8750    10.2050     8.8350     8.1600     8.5350    13.2450    10.8700    13.7250    15.6850    14.9100
  3151.60    10.9950    12.2450    10.2600     9.0050     8.9650     9.2400     8.2050    10.6600    13.1300    13.3800
  3151.80    15.3850    15.2350    12.5450    10.8950    10.3500     5.0400     5.5600     7.6400     9.7700    10.6350
  3152.00    17.5750    17.8450    14.9700    13.0950    11.9700     4.7400     4.6400     5.8500     7.2050     8.4050
  3152.20    23.0100    23.1150    17.9250    14.7700    13.4700     4.7850     3.6900     4.6400     6.1350     7.1000
  3152.40    20.7700    21.1850    16.4400    14.2850    13.7200     6.0650     4.6100     6.4150     7.3000     7.2050
  3152.60    11.4800    14.0800    12.3950    11.8900    12.2750    16.2950     7.6750     9.1000     9.8100     8.7450
  3152.80    17.3550    16.7000    13.4050    11.5350    11.6300    14.0700     6.0050     7.2900     9.2650     9.0000
  3153.00    21.8100    18.3650    15.6350    13.7700    12.9700     3.6050     3.8300     5.2050     6.6800     7.2700
  3153.20    22.4950    20.6450    18.6850    16.5200    14.8100     4.1050     3.6300     4.2950     5.0950     5.9100
  3153.40    26.5100    21.9900    19.0450    17.0750    15.7100     3.5800     3.2800     4.1500     5.0650     5.6350
  3153.60    21.5300    18.3300    16.2800    15.5650    14.8650     4.8000     4.8700     5.7450     6.1300     6.3300
  3153.80    12.9400    13.3050    13.2000    13.2250    13.1750     8.8150     8.8400     8.4150     8.0850     7.7550
  3154.00    12.0650    12.5150    12.1850    11.9350    12.1850     8.0050     8.6500     8.4100     8.7000     8.5450
  3154.20    13.0800    15.4950    13.7650    12.6600    12.3900     5.8250     5.8350     6.6500     7.7550     8.0600
  3154.40    16.1600    17.5200    15.3100    13.7500    13.1900     4.8750     4.7350     5.6600     6.8950     7.3050
  3154.60    18.6450    18.6300    16.3550    14.5550    13.9450     4.2400     4.1750     5.1700     6.2750     6.7000
  3154.80    14.6550    16.7500    15.5300    14.4100    14.1650     5.2150     5.4050     5.8850     6.4350     6.5450
  3155.00    20.5800    19.4500    16.5350    14.5850    14.1700     4.6350     4.7000     5.2950     6.3250     6.6650
  3155.20    20.5950    17.8850    15.5450    14.0650    13.9800     4.6600     5.4650     6.0850     7.0750     6.9000
  3155.40    18.4800    16.3950    14.7600    13.5450    13.6200     4.1100     5.3900     6.2150     7.1800     6.9800
  3155.60    20.5000    19.3900    16.9600    14.7950    14.1800     4.7750     4.2900     5.0150     5.9900     6.4700
  3155.80    18.6100    19.7450    17.0350    15.2050    14.8500     6.9450     5.1150     5.2350     5.9100     6.1450
  3156.00    22.9200    18.9950    17.3950    15.2000    14.8800     5.3200     4.1050     4.6100     5.9350     6.1450
  3156.20    22.9550    17.6350    17.4550    15.2050    14.6850     6.5550     3.6650     4.7300     6.3050     6.3600
  3156.40    12.8200    12.3650    12.6700    13.1000    13.2650    15.2150    13.6450    11.0700     8.7800     7.7950
  3156.60    11.2200    11.2850    11.3000    11.6850    11.9150    12.1650    13.8800    11.1550     8.9750     8.6700
  3156.80    20.1600    20.4400    16.9100    14.2400    13.0250    12.6650     3.7900     4.9550     6.2950     7.3500
  3157.00    21.6200    18.2400    16.3150    15.0100    14.1200    12.3850     3.8050     5.4950     6.2750     6.6300
  3157.20    15.2200    14.0650    14.3850    13.5450    13.1000    77.8250    11.0300     7.2450     7.6800     7.9000
  3157.40     9.1850    11.2700    11.5350    10.9400    11.3250    81.3450    18.4050    11.4650    11.7050    10.3200
  3157.60    11.2250     9.3700     9.6850     9.4350    10.1500     7.1350    12.6400    11.2750    12.3900    11.4250
  3157.80    15.6500    18.2650    14.3650    11.8050    10.7500    24.8600     5.2750     7.0100     8.8500    10.3200
  3158.00    12.6400    15.1350    11.3800    10.6650    10.8750    29.1000     9.8300    13.3750    13.3500    10.9800
  3158.20     8.7150     8.9950     7.8900     8.3200     9.2350    12.1750    12.1600    16.0800    16.6300    13.5950
  3158.40    10.2000    11.7000     9.8200     8.5700     8.6450    11.9700     9.4500    11.8800    14.4150    14.2150
  3158.60    10.5550    11.4950     9.6450     8.7350     8.9950    11.4000     9.4950    12.2600    14.1100    13.4600
  3158.80    11.9150    12.1900     9.8750     9.1300     9.2950     8.0100     8.0850    11.2450    12.9900    12.7300
  3159.00    12.9000    13.5700    10.9800     9.8700     9.8550     6.5150     7.1200     9.7050    11.5250    11.7650
  3159.20    12.1250    13.1850    11.1350    10.0800    10.1750     6.5900     7.0550     9.5350    11.2250    11.2300
  3159.40    14.3500    17.6400    12.8400    10.8150    10.5400    17.1250     5.6300     8.1550    10.2900    10.7200
  3159.60    13.3650    15.9650    11.4000    10.4250    10.6600    19.1150     7.4100    10.3800    11.9700    10.6900
  3159.80    12.2050    11.5850    10.1050     9.7450    10.2600     7.3500     8.0200    10.7150    12.1250    10.9050
  3160.00    18.3600    16.9600    14.7050    12.3350    11.3300     3.6000     4.3600     5.8950     7.7900     9.1150
  3160.20    20.5050    21.9950    17.6850    14.6100    12.8850     7.7250     4.2650     5.1200     6.3800     7.6000
  3160.40    18.0400    18.5400    14.7050    12.7750    12.3900     8.9050     5.5400     6.9800     8.6050     8.8350
  3160.60    12.8000    11.9250    11.1000    10.5650    10.8200     7.7000     8.8700     9.6250    10.9100    10.7700
  3160.80     9.1250    11.1700    10.7600    10.0300     9.8950    10.6650    10.4700    10.8150    11.6350    11.8450
  3161.00    14.1500    14.7700    12.0800    10.7350    10.4000     7.3900     6.5350     8.3900    10.0300    10.8150
  3161.20    17.3900    20.1900    15.5850    13.0950    11.9500    15.1950     3.7600     6.0050     7.5700     8.6550
