~Version information
  VERS.                            1.20: CWLS LAS  -  VERSION 1.20
  WRAP.                              NO: One line per depth step
~Well information
# MNEM.UNIT
# ====.================================:===================
  STRT.M                        3140.00: First depth in file
  STOP.M                        3450.00: Last depth in file
  STEP.M                           0.20: Depth increment
  NULL.                            9999: Null values
  COMP.                         COMPANY: 
  WELL.                            WELL: 115 
  FLD .                           FIELD: íùÑàçëäÄü
  CNTY.                          COUNTY: 
  STAT.                           STATE: 
  DATE.                        LOG DATE: 30-04-04
  SRVC.                 SERVICE COMPANY: 
  UWI.           Unique Well Identifier: 
~Parametr information block
# MNEM.UNIT
# ====.================================:===================
~Other information
# ------------------------- REMARKS  AREA ------------------
~Curve information
# MNEM.UNIT
# ====.================================:===================
  DEPT.M                               : Depth curve
MINV.OHMM                              : äÄÜ.ëéèê.èé åàäêéÉêÄÑàÖçí áéçÑì
MNOR.OHMM                              : äÄÜ.ëéèêéíàÇãÖçàÖ å/èéíÖçñàÄã áéçÑÄ
MLL.OHMM                               : äÄÜ.ëéèê/åàäêéÅéäéÇéâ äÄêéíÄÜ/åä-ìñ
MCAL.MM                                : ÑàÄåÖíê äÄÇÖêçéåÖêÄ åä-ìñ
LL3.OHMM                               : äÄÜ.ëéèêéíàÇãÖçàÖ áéçÑÄ Åä-3 /ÄÅäí
CILA.MMHO                              : áéçÑ àä 7à1.6,Ääí.ëàÉçÄã/àä-è/Äàä-5
BS.                                    : Ñ≠Æ¨=215,9¨¨
GR.UR/H                                : ÖëíÖëíÇÖççÄü ÉÄååÄ-ÄäíàÇçéëíú èé Éä
~ASCII Log Data
# ...
  3238.40     6.0000     3.7770    30.4910   214.5000   427.0261    10.1176   215.9000     1.5947
  3238.60     5.3480     3.3020    29.1480   214.5000   217.0803    10.5548   215.9000     1.5259
  3238.80     3.1650     3.0430    34.7560   213.5000   118.7592    11.1106   215.9000     1.4251
  3239.00     2.9650     3.0680    32.4330   213.5000   102.5894    12.0492   215.9000     1.3456
  3239.20     3.0100     3.0000    31.5750   213.5000   126.6932    13.4402   215.9000     1.2564
  3239.40     3.0120     3.0460    41.2330   213.5000   156.2224    14.1136   215.9000     1.1597
  3239.60     3.0040     3.0570    37.4780   213.5000   194.6436    13.1068   215.9000     0.9916
  3239.80     3.3050     2.9120    43.9610   213.5000   195.7169    12.9069   215.9000     0.7703
  3240.00     3.4660     2.9660    40.4670   213.5000   162.2107    12.7448   215.9000     0.6805
  3240.20     3.5270     3.0860    32.8600   213.5000   149.1804    12.2616   215.9000     0.6531
  3240.40     4.2130     3.3010    28.9850   214.5000   128.7081    13.2898   215.9000     0.6748
  3240.60     6.8170     3.9990    17.7370   214.7500   112.0465    13.4159   215.9000     0.7121
  3240.80     5.6460     4.1510    20.2050   214.7270   343.5018    12.2921   215.9000     0.7549
  3241.00     6.2260     3.6850    23.7400   214.7270   465.8340    12.1616   215.9000     0.7886
  3241.20     4.8420     2.9560    25.8150   214.7500   290.7836    10.0022   215.9000     0.7583
  3241.40     6.6840     4.1640    14.8970   214.7500   161.3300     9.9601   215.9000     0.7084
  3241.60     5.8140     4.6590    18.2430   214.5910   261.0520    11.3029   215.9000     0.7172
  3241.80     4.1940     3.6030    24.4310   214.5000   257.9149    11.8481   215.9000     0.7437
  3242.00     5.5600     3.7960    15.5530   214.5000   176.7726    11.7806   215.9000     0.8350
  3242.20     8.3700     4.3500    11.3520   214.7500   233.4996    12.3179   215.9000     0.8890
  3242.40    10.1630     4.7460    15.5530   214.7500   215.6304    12.9543   215.9000     0.8278
  3242.60     8.9550     4.3130    16.5190   214.7500    48.7726    13.2758   215.9000     0.7442
  3242.80     5.5150     3.1140     4.7260   214.7500    85.1555    15.2799   215.9000     0.6960
  3243.00     7.7810     3.8080    18.4200   214.7500   399.0138    15.1721   215.9000     0.7887
  3243.20     4.6160     3.9230    22.0980   214.5000   330.1741    15.2077   215.9000     1.1336
  3243.40     8.9390     4.5650    17.0680   215.0000    48.9317    13.0748   215.9000     2.0401
  3243.60     6.5530     3.9510     6.3240   216.5000    55.3821    15.5049   215.9000     2.8177
  3243.80    10.3360     4.7290    17.8930   216.5000   209.3956    13.7503   215.9000     2.7383
  3244.00     9.7510     4.8200    15.0920   216.5000   375.2192    13.8592   215.9000     2.0343
  3244.20    10.1270     4.8000    18.5200   216.5000   402.4292    10.6791   215.9000     1.9509
  3244.40    10.1590     4.7110    23.4270   216.5000    78.6859     9.4319   215.9000     2.4465
  3244.60     6.4030     3.6310    12.9590   216.5000   145.5916    10.2311   215.9000     2.5018
  3244.80     8.2290     4.2940    28.6910   216.5000   467.4259     9.8927   215.9000     1.8855
  3245.00     8.0260     4.1660    31.2370   216.5000   619.9149     9.5083   215.9000     1.4530
  3245.20     7.4800     4.1420    30.4840   216.5000   372.1925     8.7834   215.9000     1.7545
  3245.40     7.3660     4.2190    32.1760   216.5000   306.1071     7.9494   215.9000     2.0820
  3245.60     6.7420     3.7160    24.4840   216.5000   226.2643     8.9213   215.9000     1.9646
  3245.80     5.6460     3.8680    29.7470   216.5000   162.2535     8.8548   215.9000     1.5315
  3246.00     4.5290     3.3070    14.3510   216.5000   195.0046     9.6758   215.9000     1.3965
  3246.20     5.7380     4.0580    43.2590   216.5000   291.6160     9.8428   215.9000     1.5438
  3246.40     6.5700     4.4320    35.5740   216.5000   160.8452    10.2265   215.9000     1.6352
  3246.60     4.5040     3.6490    23.9080   216.5000   108.8366    10.7224   215.9000     1.6574
  3246.80     6.2740     3.5310    25.5000   215.1820   383.2159    10.1924   215.9000     1.6414
  3247.00     7.3870     4.3820    33.9480   214.7500   925.9917     9.7379   215.9000     1.5468
  3247.20     7.2800     4.0400    40.0080   216.0990   338.7640    10.0302   215.9000     1.4378
  3247.40     6.2850     3.6840    12.4010   214.7500   127.5441    10.5938   215.9000     1.6010
  3247.60     8.7500     4.2800    23.2650   214.7500   431.0162    11.1992   215.9000     1.8910
  3247.80     6.4870     3.9430    14.2870   214.7500   813.7571    12.6875   215.9000     1.9763
  3248.00     7.7460     4.9800    12.2440   214.7500   831.3969    12.7122   215.9000     1.8163
  3248.20     8.5910     4.2980    17.1110   214.7500   493.2115    12.3569   215.9000     1.9253
  3248.40     7.3440     4.0680    16.7380   214.7500   209.7095    13.4997   215.9000     2.0642
  3248.60     7.5800     4.5500    22.5940   214.7500   172.9234    14.4945   215.9000     2.0651
  3248.80     6.1550     3.2310    19.7850   214.7500    27.8593    18.1805   215.9000     2.0089
  3249.00     4.4270     3.0860     4.5870   215.0000    45.3118    21.9804   215.9000     2.3737
  3249.20     5.7730     3.5710    17.3630   214.7500   163.2829    22.1829   215.9000     2.8515
  3249.40     4.8160     3.4470    63.4810   216.7050   657.3752    22.1741   215.9000     3.0269
  3249.60     4.5190     3.3080    52.1310   216.6810  1348.5637    20.2644   215.9000     3.2874
  3249.80     4.9060     3.2280    73.5330   217.6250   712.5775    21.1999   215.9000     3.5579
  3250.00     5.8230     3.5630    20.4790   213.9740   257.1469    22.3996   215.9000     3.4566
  3250.20     7.0150     3.6260    10.0570   212.1900    60.5518    25.8842   215.9000     2.5984
  3250.40     7.0840     3.8790    13.7660   217.3860    81.3041    28.4603   215.9000     1.5724
  3250.60     6.4240     3.8790    16.6680   218.5000    91.6535    30.7598   215.9000     1.0425
  3250.80     6.3640     4.0770    20.1490   218.5000    97.4032    30.7387   215.9000     0.9676
  3251.00     6.8730     4.0030    11.7720   218.5000    36.6873    32.0247   215.9000     1.5554
  3251.20     4.4250     2.8850     5.1910   218.5000    14.2444    35.5345   215.9000     2.4323
  3251.40     3.4390     2.3650     3.4560   218.5000    11.6315    40.6373   215.9000     3.0753
  3251.60     2.4630     2.1640     2.7340   218.5000    15.1565    47.8734   215.9000     3.2982
  3251.80     3.9390     2.4910     3.4420   217.8250    60.7738    47.6162   215.9000     3.9202
  3252.00     5.7680     4.1100    80.7390   217.7500   318.1355    38.7671   215.9000     5.6648
  3252.20     6.2700     3.8670    60.6550   217.7500   338.4833    27.4538   215.9000     8.1331
  3252.40     7.3610     4.4040    38.5610   217.7500   379.6044    17.6532   215.9000     9.9855
  3252.60     6.5480     4.0590    37.9860   217.7500   148.9361    13.4668   215.9000     9.6407
  3252.80     7.9760     4.9690    19.0350   217.7500   274.2937    13.6339   215.9000     7.0560
  3253.00    15.3750     6.0320    28.3500   217.7500   300.2807    13.7214   215.9000     3.7936
  3253.20    14.5810     6.5450    19.6390   217.7500   265.3787    15.1339   215.9000     1.7047
  3253.40    13.6990     6.4280    15.8350   217.7500   219.3656    16.2336   215.9000     1.1494
  3253.60    14.4580     7.0500    13.1340   217.7500   222.0114    17.4256   215.9000     1.1511
  3253.80    14.0170     6.9730    12.5440   217.7500   243.9799    19.3635   215.9000     1.0470
  3254.00    13.5700     6.6400    11.5100   217.7500   167.5854    20.6564   215.9000     0.8361
  3254.20    13.0190     6.4050     8.3000   217.7500   252.1589    21.9932   215.9000     0.7883
  3254.40    14.1320     7.1030    13.6030   217.7500   215.1948    23.2312   215.9000     0.9363
  3254.60    12.6970     6.2860    11.3990   217.7500    41.8324    26.6164   215.9000     1.0990
