~Version information
  VERS.                            1.20: CWLS LAS  -  VERSION 1.20
  WRAP.                              NO: One line per depth step
~Well information
# MNEM.UNIT
# ====.================================:===================
  STRT.M                        3148.00: First depth in file
  STOP.M                        3438.00: Last depth in file
  STEP.M                           0.20: Depth increment
  NULL.                            9999: Null values
  COMP.                         COMPANY: 
  WELL.                            WELL: 115 
  FLD .                           FIELD: íÌ§®≠·™†Ô
  CNTY.                          COUNTY: 
  STAT.                           STATE: 
  DATE.                        LOG DATE: 28-04-04
  SRVC.                 SERVICE COMPANY: 
  UWI.           Unique Well Identifier: 
~Parametr information block
# MNEM.UNIT
# ====.================================:===================
~Other information
# ------------------------- REMARKS  AREA ------------------
~Curve information
# MNEM.UNIT
# ====.================================:===================
  DEPT.M                               : Depth curve
IZ2.DEG                                : îÄáÄ1(ÉêÄÑ)
IZ3.DEG                                : îÄáÄ2(ÉêÄÑ)
IZ4.DEG                                : îÄáÄ3(ÉêÄÑ)
IZ5.DEG                                : îÄáÄ4(ÉêÄÑ)
IZ1.DEG                                : îÄáÄ5(ÉêÄÑ)
VIK1.OHMM                              : É0.4à0.1à(éåå)
VIK5.OHMM                              : É0.57à0.14à(éåå)
VIK4.OHMM                              : É0.8à0.2à(éåå)
VIK3.OHMM                              : É1.13à0.28à(éåå)
VIK2.OHMM                              : É1.6à0.4à(éåå)
~ASCII Log Data
# ...
  3161.40    13.6800    14.7900    13.0500    12.5300    12.3700    17.0200     6.8000     9.6450     9.1150     8.3300
  3161.60    18.7500    13.8250    12.6300    12.3600    12.1550     4.6900     6.6050     8.9100     8.5850     8.2850
  3161.80    26.2650    21.6900    18.1150    15.1700    13.8500     2.0650     2.9600     4.0700     5.4100     6.6750
  3162.00    21.3350    21.1050    17.9400    15.6750    14.9000    11.2900     4.6950     5.4400     5.9300     6.3150
  3162.20    14.6400    13.4800    12.8750    12.6950    13.6400    12.8550     7.2550     8.8350     9.1100     7.6750
  3162.40     8.8750    10.1050    10.2500    10.0000    11.2550   106.5550    15.8350    13.4750    12.6700    10.5050
  3162.60     5.3500     8.7650     7.9400     7.6500     8.9250   116.1100    22.9500    21.3300    19.0850    14.7350
  3162.80     6.9900     7.3500     6.4950     6.6400     8.0800    18.8850    16.8900    20.4100    20.1350    16.1250
  3163.00    10.4800    10.8650     9.1650     8.5900     8.7650    10.2200     9.4300    12.2400    13.7800    13.6150
  3163.20    15.2050    14.3250    11.6950    10.5800    10.2650     5.9800     6.2200     8.6600    10.1800    10.8250
  3163.40    14.9000    14.9800    12.4250    11.5250    11.0850     6.3250     6.3850     8.3650     9.4000     9.8850
  3163.60    13.0900    14.0700    11.7950    11.0500    10.8150     7.2450     6.8850     9.0500    10.1100    10.4150
  3163.80    17.2450    15.8100    12.6250    10.8700    10.5250     4.7850     5.0800     7.5550     9.8250    10.6900
  3164.00    15.5650    17.6600    13.6650    11.0700    10.2450    10.3800     6.3300     7.8850    10.3400    11.5100
  3164.20     8.3750    12.8100    10.0800     8.5050     8.7150    22.9150    13.7000    16.6800    20.0900    16.8900
  3164.40     6.5300     7.6200     6.2850     5.6500     6.5400    22.3750    17.0150    22.6050    28.5500    24.6150
  3164.60     7.6250     8.1950     6.7500     5.5400     5.5100    16.5850    15.5450    20.3800    26.9800    28.0000
  3164.80     7.4400     8.3150     6.6950     5.6550     5.4700    18.2100    16.2800    22.4100    27.1100    28.3800
  3165.00     7.1450     8.1150     6.0650     5.2900     5.2800    19.2250    16.6450    26.0100    30.4600    30.5500
  3165.20     7.6500     7.7350     5.5300     4.8400     4.8600    17.3800    17.5250    28.7050    34.9750    34.0300
  3165.40     6.6700     7.1050     4.7350     4.2100     4.3750    25.3650    22.3150    38.8600    44.0200    38.9050
  3165.60     5.1100     5.9400     3.8600     3.3400     3.8950    32.8050    27.4550    52.6700    61.2200    46.0300
  3165.80     5.3450     5.6250     3.5400     2.8450     3.5000    28.2500    26.3850    52.8400    69.2350    52.2850
  3166.00     5.5900     5.9300     3.4700     2.6650     3.2450    27.8450    25.2550    51.9050    72.3150    57.6200
  3166.20     5.2150     5.8150     3.3000     2.4150     3.0350    29.9450    25.9100    56.6250    82.5100    64.4300
  3166.40     5.2900     5.4900     3.1500     2.2050     2.7950    29.3450    26.5550    60.5900    94.4650    71.3450
  3166.60     5.2650     5.3400     2.8550     1.9750     2.5450    30.4500    27.8800    63.7150   104.8000    78.9350
  3166.80     5.1050     5.4850     2.7700     1.7650     2.3050    31.3200    28.5650    64.7500   113.5000    86.5600
  3167.00     5.0900     5.3800     2.8900     1.6900     2.1900    30.9500    29.1550    67.0450   118.9100    93.9800
  3167.20     5.2400     5.4100     2.9000     1.6750     2.0700    30.2300    28.6150    66.0100   122.4950   101.6650
  3167.40     5.4000     5.4100     2.8900     1.7250     1.9800    28.8700    28.1500    63.5600   124.5200   104.6650
  3167.60     5.5700     5.5150     2.9250     1.8000     1.9900    27.1500    27.4100    63.9550   119.2400   104.0700
  3167.80     5.9550     5.8400     3.0550     1.8000     1.9500    24.0100    25.0550    61.0100   112.5550   104.0700
  3168.00     5.9400     6.1200     3.2800     1.9200     2.0050    25.5200    25.0200    55.5250   103.6350   100.8450
  3168.20     5.8700     6.0750     3.3950     1.9700     2.0950    26.0150    24.8750    51.6200    99.7050    97.2300
  3168.40     6.2200     6.3850     3.6750     2.1600     2.1400    22.8900    22.1950    45.8350    89.9500    92.9300
  3168.60     6.4000     6.8500     4.0650     2.5250     2.3600    22.5600    20.7200    41.6650    74.1900    83.0600
  3168.80     6.9850     7.3650     4.4950     2.8750     2.6400    19.4850    18.0950    36.2300    62.6650    71.3050
  3169.00     7.5650     8.2000     5.2150     3.4650     3.0000    16.0650    15.3800    29.2600    50.5000    60.6950
  3169.20     8.1200     8.9100     5.8050     3.9200     3.3500    15.0450    13.9000    25.6500    43.3350    52.6650
  3169.40     9.3200     9.6700     6.1900     4.1850     3.6050    13.7550    12.2250    23.5100    40.0900    48.9550
  3169.60     8.5550     8.9000     5.9250     4.1400     3.6000    15.9450    14.4400    26.5150    42.6300    50.1650
  3169.80     7.4400     8.1000     5.5650     3.8350     3.3800    17.4400    15.9800    28.1900    45.4100    53.6200
  3170.00     8.5350     9.0200     5.9750     4.0550     3.4700    14.2750    13.4450    24.3250    41.0850    51.9950
  3170.20     8.0500     8.9850     5.9500     4.2300     3.6400    18.6150    14.8200    26.5850    41.8300    49.8150
  3170.40     6.6350     7.7350     5.1750     3.7250     3.4000    22.9900    17.6450    31.9350    49.6750    54.4550
  3170.60     6.7350     7.3800     5.0350     3.5850     3.2100    19.3600    17.3750    31.3200    48.8450    55.8550
  3170.80     6.9600     8.0050     5.5250     4.0100     3.4600    20.4100    16.6400    28.9000    43.2600    50.6750
  3171.00     6.7400     7.8950     5.3550     4.0550     3.7200    22.8800    17.3200    30.1300    44.2200    47.1400
  3171.20     6.6400     7.4850     5.0350     3.9350     3.8250    21.5200    18.1450    30.9850    44.5100    46.1200
  3171.40     7.0650     7.6800     5.2850     4.1200     3.9200    19.1750    16.9300    28.7350    40.7650    43.7100
  3171.60     8.1550     8.6500     5.9700     4.5550     4.2450    15.5250    14.0250    24.2450    34.8850    38.7400
  3171.80     9.8800     9.9250     6.8550     5.2800     4.7350    11.7700    11.4050    19.5750    29.0500    33.3500
  3172.00    10.6200    10.3000     7.2850     5.6750     5.0450    10.2600    10.6150    18.5250    27.2500    31.4250
  3172.20     9.7300     9.9900     6.9700     5.3800     4.9050    13.3800    11.8250    20.9600    30.2000    33.8050
  3172.40     7.9050     8.5200     5.9300     4.6350     4.4150    18.0050    15.2250    26.9800    37.4500    39.7150
  3172.60     6.8100     7.7950     5.4050     4.1150     3.9950    19.3050    16.4250    28.9550    41.3300    44.6050
  3172.80     7.6550     8.6900     5.9150     4.3400     3.9700    16.7600    14.2950    24.4600    37.4900    43.1650
  3173.00     8.0700     8.9500     6.3400     4.7700     4.2600    16.0450    13.8300    22.3550    33.3900    38.5900
  3173.20     7.8750     8.8750     6.4400     4.9650     4.5550    16.6000    14.0800    22.4050    31.8200    36.5800
  3173.40     8.4500     9.3300     6.7300     5.2100     4.7700    15.1800    12.9350    21.2400    29.9950    34.8200
  3173.60     9.4250     9.9600     7.0500     5.5200     4.9550    13.2350    11.4950    19.5600    27.5250    32.1350
  3173.80    10.5000    10.6100     7.3800     5.7350     5.1050    10.7400    10.2500    18.1250    25.8950    30.4850
  3174.00    10.5150    10.6350     7.4800     5.7700     5.1200    10.2550    10.2100    17.7800    26.4100    30.7750
  3174.20    10.6300    11.0550     7.6800     5.6900     5.0450    10.6850    10.0100    17.4150    26.8150    31.9450
  3174.40    10.6300    10.9850     7.5950     5.5250     4.9050    12.6500    10.8500    18.6350    28.9900    34.0700
  3174.60     8.4250     8.8150     6.2750     4.7950     4.4050    17.3500    15.2400    25.2650    36.7900    40.7250
