~Version information
  VERS.                            1.20: CWLS LAS  -  VERSION 1.20
  WRAP.                              NO: One line per depth step
~Well information
# MNEM.UNIT
# ====.================================:===================
  STRT.M                        3140.00: First depth in file
  STOP.M                        3450.00: Last depth in file
  STEP.M                           0.20: Depth increment
  NULL.                            9999: Null values
  COMP.                         COMPANY: 
  WELL.                            WELL: 115 
  FLD .                           FIELD: íùÑàçëäÄü
  CNTY.                          COUNTY: 
  STAT.                           STATE: 
  DATE.                        LOG DATE: 30-04-04
  SRVC.                 SERVICE COMPANY: 
  UWI.           Unique Well Identifier: 
~Parametr information block
# MNEM.UNIT
# ====.================================:===================
~Other information
# ------------------------- REMARKS  AREA ------------------
~Curve information
# MNEM.UNIT
# ====.================================:===================
  DEPT.M                               : Depth curve
MINV.OHMM                              : äÄÜ.ëéèê.èé åàäêéÉêÄÑàÖçí áéçÑì
MNOR.OHMM                              : äÄÜ.ëéèêéíàÇãÖçàÖ å/èéíÖçñàÄã áéçÑÄ
MLL.OHMM                               : äÄÜ.ëéèê/åàäêéÅéäéÇéâ äÄêéíÄÜ/åä-ìñ
MCAL.MM                                : ÑàÄåÖíê äÄÇÖêçéåÖêÄ åä-ìñ
LL3.OHMM                               : äÄÜ.ëéèêéíàÇãÖçàÖ áéçÑÄ Åä-3 /ÄÅäí
CILA.MMHO                              : áéçÑ àä 7à1.6,Ääí.ëàÉçÄã/àä-è/Äàä-5
BS.                                    : Ñ≠Æ¨=215,9¨¨
GR.UR/H                                : ÖëíÖëíÇÖççÄü ÉÄååÄ-ÄäíàÇçéëíú èé Éä
~ASCII Log Data
# ...
  3254.80     7.2140     4.4760     4.6430   217.7500    29.4757    29.6782   215.9000     1.1758
  3255.00     6.7470     3.4550     4.8930   217.7500    42.4214    33.4160   215.9000     1.1894
  3255.20     8.3370     4.2060     7.6030   217.7500    39.2002    37.9292   215.9000     1.1975
  3255.40     6.4730     3.5220     6.0990   217.7500    28.8204    37.7268   215.9000     1.6105
  3255.60     6.2750     3.2230     5.6720   217.8540    29.9319    36.7118   215.9000     2.4404
  3255.80     6.0380     3.1350     6.3110   218.0000    27.5569    36.9911   215.9000     3.2459
  3256.00     5.8310     3.0400     5.6160   218.0000    30.2664    37.3064   215.9000     3.5863
  3256.20     5.2910     2.8640     6.2860   217.9250    34.0135    36.9772   215.9000     3.6042
  3256.40     4.2190     3.2620     7.2380   217.5490    44.9867    33.6649   215.9000     3.8298
  3256.60     5.3250     3.2920    11.1550   216.5000    35.5856    30.9155   215.9000     4.0594
  3256.80     4.2350     2.2940     3.1440   216.5000    44.9514    30.0730   215.9000     4.1809
  3257.00     4.5140     3.4840    12.7640   216.5000    96.2402    25.3510   215.9000     4.1747
  3257.20     5.2080     3.6650    15.5300   215.7950   101.5008    23.1903   215.9000     4.0886
  3257.40     5.5790     3.1680    11.6070   216.5000   117.8913    20.1665   215.9000     3.9837
  3257.60     6.8100     4.0310    20.4790   216.5000   221.9483    15.4089   215.9000     3.9435
  3257.80     7.9530     4.0090    18.2630   216.3120   140.4622    17.5238   215.9000     3.6198
  3258.00     6.1100     3.6830    14.5120   216.5000   102.9028    15.4866   215.9000     3.0517
  3258.20     6.5220     3.1360    11.6880   216.5000    51.2529    15.1863   215.9000     2.4213
  3258.40     5.3470     2.9560     9.9670   215.6810   109.1488    16.8328   215.9000     2.1155
  3258.60     5.9540     4.0160    20.3540   215.0000   168.2664    16.6729   215.9000     1.9886
  3258.80    10.0060     3.3810    23.7110   214.8250    42.0996    18.3646   215.9000     1.9401
  3259.00    10.8180     2.2610     8.9570   214.8750    57.3816    17.2817   215.9000     2.2407
  3259.20     4.6520     3.3540     7.9840   214.7500   114.9921    16.2776   215.9000     2.4939
  3259.40    13.2350     6.1310    13.2130   214.7500   302.3898    14.6031   215.9000     2.3454
  3259.60    11.7850     5.2970    18.9320   214.7500   472.9296    13.5330   215.9000     2.1018
  3259.80    13.7730     6.6690    11.4820   214.7500   112.0197    11.9396   215.9000     2.4082
  3260.00    15.1810     5.4970     7.8400   214.7500   106.4159    12.3431   215.9000     2.8655
  3260.20     8.6570     3.7460     9.4560   214.7500   116.5468    11.8253   215.9000     2.7868
  3260.40    10.9100     4.7350    20.6580   216.2280   386.7430    11.7562   215.9000     2.1676
  3260.60     8.6410     4.0840    24.1720   217.0670   211.6008    12.5514   215.9000     1.6643
  3260.80     4.3390     3.0140    15.1650   216.5000   120.5876    13.5499   215.9000     1.6184
  3261.00     6.3040     3.9840    15.0590   216.5000   108.5046    13.9853   215.9000     1.7407
  3261.20     6.2230     3.7400    16.1900   216.5000   159.8436    14.4041   215.9000     1.7634
  3261.40     6.6340     3.9940    20.8360   216.5000   157.1652    15.4306   215.9000     1.5765
  3261.60     4.7760     3.7680    17.5210   216.5000   135.8044    16.1100   215.9000     1.4977
  3261.80     6.0920     3.7890    29.4610   216.5000    95.5608    15.8961   215.9000     1.6363
  3262.00     5.2850     3.8700    11.7290   216.5000    68.5533    17.6926   215.9000     1.8755
  3262.20     5.3800     3.6070    16.0470   216.5000    85.4984    19.2787   215.9000     1.9809
  3262.40     5.0020     3.8770    18.6280   216.5000    59.7673    19.2485   215.9000     2.0164
  3262.60     4.3250     3.2800     9.0210   216.5000    69.7888    19.9180   215.9000     2.0078
  3262.80     5.4430     3.1280    18.7380   216.5000   106.3151    20.5016   215.9000     2.0648
  3263.00     4.6470     3.2290    15.8610   216.5000    96.8630    19.6285   215.9000     2.1467
  3263.20     4.3460     3.2550    18.7360   216.5000    49.5268    18.8167   215.9000     2.3593
  3263.40     2.9330     2.3000     6.0270   216.5000    40.3883    20.4956   215.9000     2.5371
  3263.60     4.1310     2.1950     8.3370   216.5000    66.4633    19.6080   215.9000     2.5357
  3263.80     5.8990     3.9490    35.3400   216.5000   157.6044    19.0935   215.9000     2.4549
  3264.00     4.8150     3.6600    20.5660   216.5000    64.0514    18.1684   215.9000     2.4918
  3264.20     5.1750     3.2250    12.6520   216.5000    65.7866    14.8324   215.9000     2.8936
  3264.40     4.5530     2.9390    12.1800   216.5000    61.3362    14.8898   215.9000     3.3879
  3264.60     4.0200     3.2560     8.3970   216.5000   108.0784    15.5265   215.9000     3.5230
  3264.80     5.9620     4.1490    28.6350   216.5000   255.0773    16.4596   215.9000     3.2165
  3265.00     4.7800     3.2300    30.1780   216.5000   415.0370    15.1021   215.9000     2.8003
  3265.20     4.8260     4.0320    39.9590   216.5000   690.9575    12.4896   215.9000     2.6351
  3265.40     4.8280     3.8840    42.7560   216.5000   758.7531    10.8734   215.9000     2.6346
  3265.60     4.3190     3.5380    44.8570   216.5000   653.0228    12.0813   215.9000     2.5728
  3265.80     4.3890     3.3670    38.8870   216.5000   778.7308    12.5661   215.9000     2.2438
  3266.00     5.6170     3.6020    50.7390   216.5000  1009.9517    13.8456   215.9000     1.8422
  3266.20     4.8320     3.4550    57.1130   216.5000   562.9520    15.8088   215.9000     1.4970
  3266.40     4.6470     2.9290    30.9030   216.5000   276.7123    17.5975   215.9000     1.3392
  3266.60     5.9370     3.7200    57.0000   216.5000   552.5331    19.7210   215.9000     1.2470
  3266.80     5.4190     3.6090    57.1480   216.5000   171.7691    23.3913   215.9000     1.2096
  3267.00     3.7160     4.4230    23.7400   216.5000    72.7509    23.2180   215.9000     1.2307
  3267.20     4.4620     3.2760    20.4320   216.4250    51.7101    25.3793   215.9000     1.4467
  3267.40     3.1880     3.2560    19.4340   214.7500    40.0752    28.1761   215.9000     1.7225
  3267.60     3.0200     3.3390    16.1950   214.7500    33.3690    34.7561   215.9000     2.0401
  3267.80     3.1640     3.0290    13.2890   214.7500    32.4977    37.0544   215.9000     2.1251
  3268.00     3.2150     2.9380    15.3540   214.7500    39.0429    37.6531   215.9000     1.8725
  3268.20     3.6990     3.1060    15.8750   214.7500    67.2676    36.3894   215.9000     1.3635
  3268.40     4.0390     3.4620    23.7220   216.5000    76.8379    31.8706   215.9000     0.8886
  3268.60     4.0840     3.3290    21.9240   216.5000    68.4196    25.8387   215.9000     0.7309
  3268.80     6.8040     3.7000    18.6380   216.6000    53.1971    22.0967   215.9000     0.7729
  3269.00     8.1740     4.6520    13.5160   216.7500    83.6481    19.9053   215.9000     0.8675
  3269.20     7.4400     4.1810    26.5220   216.7500   164.0219    16.8916   215.9000     0.8735
  3269.40     7.5280     4.3610    31.2540   216.7500   100.9673    14.3306   215.9000     0.8020
  3269.60     8.1990     4.2660    19.1120   217.5000    75.2739    13.1250   215.9000     0.7043
  3269.80     7.6460     4.0630    15.7960   217.6590    78.7866    13.1317   215.9000     0.6575
  3270.00     8.9460     4.6320    20.2060   217.6360    90.0489    13.6309   215.9000     0.7522
  3270.20     6.1760     3.9550    23.1290   217.7500   139.2921    13.3907   215.9000     0.9323
  3270.40     7.4530     4.5310    43.8280   217.6360   263.4740    12.0579   215.9000     1.0314
  3270.60     5.2870     3.9810    55.5220   217.2290   250.2286    11.3117   215.9000     0.9961
  3270.80     5.3630     3.6610    46.2190   216.5000   373.5020     9.7980   215.9000     0.8988
  3271.00     5.1230     4.2230    38.3060   216.5000   297.7754     9.2740   215.9000     0.8356
