~Version information
  VERS.                            1.20: CWLS LAS  -  VERSION 1.20
  WRAP.                              NO: One line per depth step
~Well information
# MNEM.UNIT
# ====.================================:===================
  STRT.M                        3148.00: First depth in file
  STOP.M                        3449.00: Last depth in file
  STEP.M                           0.20: Depth increment
  NULL.                            9999: Null values
  COMP.                         COMPANY: 
  WELL.                            WELL: 115 
  FLD .                           FIELD: íÌ§®≠·™†Ô
  CNTY.                          COUNTY: 
  STAT.                           STATE: 
  DATE.                        LOG DATE: 29-04-04
  SRVC.                 SERVICE COMPANY: 
  UWI.           Unique Well Identifier: 
~Parametr information block
# MNEM.UNIT
# ====.================================:===================
~Other information
# ------------------------- REMARKS  AREA ------------------
~Curve information
# MNEM.UNIT
# ====.================================:===================
  DEPT.M                               : Depth curve
SFND.1/CM                              : SFND
SFFD.1/CM                              : SFFD
TCND.                                  : àçíÖÉêÄãúçõâ ëóÖí, åÄãõâ áéçÑ / àçä
TCFD.                                  : àçíÖÉêÄãúçõâ ëóÖí, Å. áéçÑ / àçä
TCNC.                                  : äéåè.àçíÖÉê. ëóÖí, åÄãõâ áéçÑ / àçä
TCFC.                                  : äéåè.àçíÖÉêÄãúçõâ ëóÖí,Å.áéçÑ / àçä
~ASCII Log Data
# ...
  3232.80    11.0200     8.5770  4047.0000  1615.0000  4069.0000  3461.0000
  3233.00    13.1060     8.5010  4340.0000  1618.0000  4589.0000  3945.0000
  3233.20    11.8130     8.7200  4173.0000  1599.0000  4453.0000  3841.0000
  3233.40    11.4030     9.2670  3780.0000  1154.0000  3709.0000  2813.0000
  3233.60    12.1710     8.9930  4987.0000  1265.0000  4933.0000  2947.0000
  3233.80    11.6960     8.7850  4551.0000  1390.0000  4683.0000  3048.0000
  3234.00    11.7720     9.3260  4803.0000  1924.0000  5053.0000  4399.0000
  3234.20    12.0430    10.1560  4803.0000  1924.0000  5053.0000  4399.0000
  3234.40    12.5120     9.9500  5877.0000  1984.0000  6295.0000  4852.0000
  3234.60    11.5340     8.9230  3888.0000  1229.0000  4055.0000  2762.0000
  3234.80    12.1740     8.7080  4442.0000  1442.0000  4550.0000  3287.0000
  3235.00    11.1600     8.8440  3989.0000  1618.0000  4024.0000  3589.0000
  3235.20    11.9600     9.6370  3456.0000  1522.0000  3549.0000  3450.0000
  3235.40    11.7130     9.6370  4513.0000  1527.0000  4627.0000  3646.0000
  3235.60    11.3520     9.4600  4129.0000  1290.0000  4122.0000  3055.0000
  3235.80    12.1030     9.7320  5152.0000  1588.0000  5639.0000  3994.0000
  3236.00    10.6190     8.6460  3875.0000  1455.0000  4164.0000  3280.0000
  3236.20    11.0080     9.1950  3632.0000  1359.0000  3750.0000  3119.0000
  3236.40    11.5000     8.5600  4111.0000  1437.0000  4172.0000  3325.0000
  3236.60    12.8340     8.0060  4646.0000  1484.0000  4720.0000  3634.0000
  3236.80    12.2340     8.4500  3585.0000  1372.0000  3698.0000  3251.0000
  3237.00    11.5150     8.6530  3286.0000  1209.0000  3453.0000  3013.0000
  3237.20    12.9590     9.4760  3441.0000  1429.0000  3643.0000  3340.0000
  3237.40    13.7630    10.2890  2482.0000  1112.0000  2638.0000  2742.0000
  3237.60    11.8990    10.0630  3365.0000  1151.0000  3685.0000  3162.0000
  3237.80    13.5760    10.4710  3830.0000   931.0000  4117.0000  2790.0000
  3238.00    12.9760    10.4210  3748.0000  1081.0000  3961.0000  2825.0000
  3238.20    12.2590    10.3070  4281.0000  1416.0000  4557.0000  3607.0000
  3238.40    12.5330    10.4600  3636.0000  1296.0000  3723.0000  3305.0000
  3238.60    12.2270    10.3060  3616.0000  1212.0000  4126.0000  3140.0000
  3238.80    12.4080    10.7270  3465.0000  1090.0000  3554.0000  2948.0000
  3239.00    11.9530    10.1270  4528.0000  1260.0000  4715.0000  3289.0000
  3239.20    11.8840     9.5040  4528.0000  1260.0000  4715.0000  3289.0000
  3239.40    11.1340     8.9190  4444.0000  1278.0000  4526.0000  3126.0000
  3239.60    11.8710     8.5350  4184.0000  1030.0000  4135.0000  2376.0000
  3239.80    13.4380     8.1810  7340.0000  1368.0000  8137.0000  3067.0000
  3240.00    12.4830     8.7290  6467.0000  1003.0000  6975.0000  2265.0000
  3240.20    11.1770     9.0570  5666.0000   859.0000  5621.0000  2042.0000
  3240.40    11.7810    10.0020  7031.0000  1039.0000  7276.0000  2391.0000
  3240.60    11.9120     9.1290  6375.0000   854.0000  6921.0000  2019.0000
  3240.80    12.3880     8.7160  7685.0000  1133.0000  7850.0000  2655.0000
  3241.00    12.3410     9.4700  8722.0000  1245.0000  9264.0000  2816.0000
  3241.20    11.8740     9.7100  4784.0000   851.0000  4779.0000  2009.0000
  3241.40    11.6370     9.7110  5128.0000  1070.0000  5236.0000  2314.0000
  3241.60    10.0350     9.2970  4903.0000  1305.0000  5098.0000  2760.0000
  3241.80    11.4870     9.5900  4286.0000  1345.0000  4350.0000  3132.0000
  3242.00    11.7500     9.0730  4958.0000  1776.0000  4990.0000  4197.0000
  3242.20    11.5790     8.5470  3921.0000  1619.0000  4063.0000  3758.0000
  3242.40    12.4710     8.0180  4185.0000  1298.0000  4169.0000  2943.0000
  3242.60    12.4830     8.6270  6157.0000  1266.0000  6519.0000  2723.0000
  3242.80    11.8950     8.5310  5983.0000  1128.0000  6374.0000  2487.0000
  3243.00    12.7600     8.4500  6340.0000  1272.0000  6605.0000  2892.0000
  3243.20    12.2920     8.4160  3840.0000  1206.0000  3944.0000  2750.0000
  3243.40    12.4420     9.3290  3945.0000  1644.0000  4095.0000  4035.0000
  3243.60    12.0420    10.5230  2477.0000  1422.0000  2690.0000  3627.0000
  3243.80    11.7280    10.8290  2932.0000   734.0000  3042.0000  1928.0000
  3244.00    11.6530    11.3190  5027.0000   751.0000  5058.0000  1949.0000
  3244.20    11.0420    10.7500  5027.0000   751.0000  5058.0000  1949.0000
  3244.40    12.3570     9.7660  4331.0000   951.0000  4520.0000  2171.0000
  3244.60    12.8060    10.3770  3275.0000  1373.0000  3648.0000  3122.0000
  3244.80    12.4460    10.2330  3423.0000  1259.0000  3740.0000  3313.0000
  3245.00    12.2800    10.4940  3406.0000   814.0000  3828.0000  2348.0000
  3245.20    11.6450     9.9050  3482.0000   982.0000  3537.0000  2625.0000
  3245.40    11.7270    11.2000  3190.0000  1091.0000  3311.0000  2846.0000
  3245.60    12.0100    11.3990  3998.0000  1701.0000  4394.0000  4221.0000
  3245.80    11.2980    10.6380  3511.0000  1173.0000  3515.0000  3077.0000
  3246.00    12.3150    10.7890  4552.0000  1201.0000  4701.0000  3409.0000
  3246.20    11.4350     9.5850  3642.0000  1297.0000  3765.0000  3351.0000
  3246.40    11.6220     9.5020  3564.0000  1556.0000  3699.0000  3740.0000
  3246.60    12.5000     9.6930  3231.0000  1380.0000  3407.0000  3433.0000
  3246.80    12.5410    10.3150  3491.0000  1275.0000  3743.0000  3621.0000
  3247.00    13.7850    10.3010  3625.0000  1448.0000  3901.0000  3747.0000
  3247.20    12.4670    10.4410  3499.0000  1128.0000  3641.0000  3142.0000
  3247.40    12.3980    10.5330  3428.0000  1147.0000  3716.0000  3100.0000
  3247.60    12.8200    10.0860  2868.0000  1144.0000  3065.0000  2913.0000
  3247.80    11.7850     9.7060  3533.0000   959.0000  3696.0000  2492.0000
  3248.00    11.2110     9.6940  4218.0000  1000.0000  4392.0000  2779.0000
  3248.20    12.6210    10.3580  6451.0000  1878.0000  7727.0000  4949.0000
  3248.40    12.8850    10.1220  3888.0000  1140.0000  4168.0000  2998.0000
  3248.60    12.2000     9.6750  6906.0000  1186.0000  7576.0000  2865.0000
  3248.80    12.5200     9.8380  5278.0000  1009.0000  5378.0000  2425.0000
  3249.00    13.1880    10.2780  3983.0000  1015.0000  4295.0000  2369.0000
  3249.20    13.0550    10.2330  3983.0000  1015.0000  4295.0000  2369.0000
  3249.40    13.1260    10.0880  3177.0000   985.0000  3433.0000  2527.0000
  3249.60    13.0680    10.8020  3175.0000  1033.0000  3599.0000  2673.0000
  3249.80    13.5980    11.7870  2208.0000   926.0000  2437.0000  2422.0000
  3250.00    11.9240    12.4550  1764.0000   901.0000  2055.0000  2603.0000
  3250.20    12.3670    12.3490  2831.0000   630.0000  3196.0000  2066.0000
  3250.40    12.1860    10.0830  3701.0000   612.0000  3716.0000  1889.0000
  3250.60    11.5660     9.0880  4260.0000  1059.0000  4441.0000  2703.0000
  3250.80    11.5770     9.0120  4110.0000  1505.0000  4166.0000  3686.0000
  3251.00    12.6230     9.0940  4440.0000  1871.0000  5191.0000  4740.0000
  3251.20    14.6040    10.5190  3060.0000  1651.0000  3457.0000  4148.0000
  3251.40    15.2570    11.0570  2702.0000  1242.0000  3105.0000  3515.0000
  3251.60    17.5570    11.3310  2668.0000   766.0000  3079.0000  2539.0000
  3251.80    17.5250    12.9990  2204.0000   558.0000  2577.0000  2072.0000
  3252.00    18.9170    14.1080  1798.0000   633.0000  2026.0000  2240.0000
  3252.20    20.0780    14.7830   704.0000   370.0000   824.0000  1553.0000
  3252.40    26.5340    15.8360   419.0000   221.0000   541.0000  1096.0000
  3252.60    17.1910    21.7340   847.0000   136.0000  1025.0000   763.0000
  3252.80    16.5760    18.3290  3130.0000   190.0000  3444.0000   960.0000
  3253.00    13.1950    10.4180  4563.0000   423.0000  5065.0000  1575.0000
  3253.20    12.3740    11.2110  4045.0000   868.0000  4305.0000  2531.0000
  3253.40    14.0900    10.0080  4959.0000  1511.0000  5283.0000  3994.0000
  3253.60    12.8550    10.2220  4662.0000  1576.0000  5059.0000  4124.0000
  3253.80    12.0950    10.1070  4662.0000  1576.0000  5059.0000  4124.0000
