~Version information
  VERS.                            1.20: CWLS LAS  -  VERSION 1.20
  WRAP.                              NO: One line per depth step
~Well information
# MNEM.UNIT
# ====.================================:===================
  STRT.M                        3148.00: First depth in file
  STOP.M                        3449.00: Last depth in file
  STEP.M                           0.20: Depth increment
  NULL.                            9999: Null values
  COMP.                         COMPANY: 
  WELL.                            WELL: 115 
  FLD .                           FIELD: íÌ§®≠·™†Ô
  CNTY.                          COUNTY: 
  STAT.                           STATE: 
  DATE.                        LOG DATE: 29-04-04
  SRVC.                 SERVICE COMPANY: 
  UWI.           Unique Well Identifier: 
~Parametr information block
# MNEM.UNIT
# ====.================================:===================
~Other information
# ------------------------- REMARKS  AREA ------------------
~Curve information
# MNEM.UNIT
# ====.================================:===================
  DEPT.M                               : Depth curve
SFND.1/CM                              : SFND
SFFD.1/CM                              : SFFD
TCND.                                  : àçíÖÉêÄãúçõâ ëóÖí, åÄãõâ áéçÑ / àçä
TCFD.                                  : àçíÖÉêÄãúçõâ ëóÖí, Å. áéçÑ / àçä
TCNC.                                  : äéåè.àçíÖÉê. ëóÖí, åÄãõâ áéçÑ / àçä
TCFC.                                  : äéåè.àçíÖÉêÄãúçõâ ëóÖí,Å.áéçÑ / àçä
~ASCII Log Data
  3148.00       9999       9999       9999       9999       9999       9999
  3148.20       9999       9999       9999       9999       9999       9999
  3148.40       9999       9999       9999       9999       9999       9999
  3148.60    21.6580    18.5380  1151.0000   280.0000  1342.0000  1330.0000
  3148.80    18.6350    17.5430  1327.0000   189.0000  1602.0000  1092.0000
  3149.00    19.7730    17.4850  2139.0000   357.0000  2476.0000  1646.0000
  3149.20    18.3760    18.0520  1740.0000   357.0000  1959.0000  1601.0000
  3149.40    19.2660    16.3890  1412.0000   374.0000  1709.0000  1611.0000
  3149.60    17.8740    16.5300   899.0000   246.0000  1041.0000  1098.0000
  3149.80    18.4330    16.4020   871.0000   198.0000  1027.0000   998.0000
  3150.00    20.3630    15.8120  1042.0000   233.0000  1257.0000  1169.0000
  3150.20    20.3410    17.9740  1087.0000   169.0000  1265.0000  1138.0000
  3150.40    20.6590    21.7470   829.0000   179.0000   976.0000  1098.0000
  3150.60    25.6970    19.4900   666.0000   131.0000   853.0000   953.0000
  3150.80    25.6540    22.8900   798.0000    95.0000  1035.0000   755.0000
  3151.00    22.2540    21.6100  1086.0000   154.0000  1323.0000   858.0000
  3151.20    22.9380    18.3840  1035.0000   147.0000  1321.0000   983.0000
  3151.40    23.0760    17.9320  1035.0000   147.0000  1321.0000   983.0000
  3151.60    23.6710    17.7600  1014.0000   214.0000  1251.0000  1284.0000
  3151.80    22.0310    19.7350   894.0000   216.0000  1150.0000  1081.0000
  3152.00    21.1470    16.8950   778.0000   137.0000  1001.0000   815.0000
  3152.20    22.2410    20.3310   929.0000   138.0000  1106.0000   925.0000
  3152.40    22.3810    18.4420  1350.0000   158.0000  1592.0000   963.0000
  3152.60    19.8160    17.9850  1321.0000   197.0000  1515.0000  1205.0000
  3152.80    23.9500    20.9360   866.0000   221.0000  1057.0000  1021.0000
  3153.00    25.2990    21.6380   716.0000   201.0000   863.0000  1183.0000
  3153.20    25.5700    23.6290   663.0000   132.0000   813.0000   888.0000
  3153.40    29.0270    22.3640   556.0000    86.0000   709.0000   595.0000
  3153.60    27.7450    23.9630   580.0000    72.0000   727.0000   510.0000
  3153.80    29.3110    24.5520   696.0000    86.0000   890.0000   622.0000
  3154.00    25.7870    22.5880   616.0000    86.0000   758.0000   678.0000
  3154.20    23.4840    18.3970   599.0000    82.0000   729.0000   585.0000
  3154.40    26.4870    23.8990   509.0000    60.0000   632.0000   482.0000
  3154.60    26.3250    28.1240   519.0000    71.0000   642.0000   522.0000
  3154.80    24.2220    29.7640   573.0000    58.0000   733.0000   498.0000
  3155.00    23.6250    25.1770   530.0000    63.0000   651.0000   507.0000
  3155.20    21.9910    24.7200   561.0000    66.0000   664.0000   616.0000
  3155.40    26.5760    30.7220   339.0000    35.0000   430.0000   334.0000
  3155.60    27.6120    28.6400   537.0000    54.0000   639.0000   486.0000
  3155.80    26.2260    27.1310   496.0000    53.0000   586.0000   482.0000
  3156.00    24.7340    26.0430   564.0000    54.0000   675.0000   482.0000
  3156.20    22.2090    25.1520   593.0000    58.0000   699.0000   520.0000
  3156.40    22.0370    24.6130   593.0000    58.0000   699.0000   520.0000
  3156.60    24.3280    25.2130   602.0000    63.0000   756.0000   619.0000
  3156.80    22.8240    25.3160   626.0000    49.0000   742.0000   538.0000
  3157.00    23.4410    22.5950   492.0000    62.0000   602.0000   452.0000
  3157.20    22.7910    20.3680   479.0000    59.0000   585.0000   452.0000
  3157.40    25.6550    20.3640   571.0000    70.0000   737.0000   519.0000
  3157.60    25.2840    22.7240   685.0000    77.0000   855.0000   531.0000
  3157.80    23.8390    23.7810   619.0000    84.0000   779.0000   630.0000
  3158.00    23.1150    23.1830   748.0000    73.0000   895.0000   658.0000
  3158.20    27.4580    23.7540   647.0000    79.0000   800.0000   568.0000
  3158.40    26.6570    27.0400   701.0000    88.0000   856.0000   673.0000
  3158.60    21.5090    25.7950   732.0000    90.0000   854.0000   690.0000
  3158.80    21.7310    21.2140   622.0000    97.0000   775.0000   705.0000
  3159.00    20.4110    23.2710   682.0000    85.0000   807.0000   634.0000
  3159.20    19.8350    23.3890   917.0000    94.0000  1128.0000   779.0000
  3159.40    20.5450    22.0290   927.0000   150.0000  1117.0000   870.0000
  3159.60    20.1430    19.2130  1126.0000   182.0000  1339.0000  1074.0000
  3159.80    21.3530    17.8470   913.0000   159.0000  1168.0000   925.0000
  3160.00    20.6160    21.9490   533.0000   139.0000   661.0000   731.0000
  3160.20    22.6360    22.0040   683.0000   118.0000   847.0000   776.0000
  3160.40    23.5040    21.5090   748.0000   112.0000   877.0000   753.0000
  3160.60    21.1050    23.3880   697.0000   107.0000   886.0000   682.0000
  3160.80    23.1530    25.4150   697.0000   107.0000   886.0000   682.0000
  3161.00    26.0370    25.8220   768.0000   109.0000   957.0000   849.0000
  3161.20    24.5300    24.3110   564.0000   103.0000   671.0000   633.0000
  3161.40    26.2330    23.7960   702.0000    93.0000   866.0000   736.0000
  3161.60    22.7760    26.0630   493.0000    59.0000   645.0000   530.0000
  3161.80    25.8470    25.2470   583.0000    74.0000   700.0000   504.0000
  3162.00    25.2530    25.8380   760.0000    70.0000   917.0000   665.0000
  3162.20    24.9960    23.0830   703.0000    94.0000   824.0000   742.0000
  3162.40    26.5480    26.4730   610.0000    88.0000   740.0000   641.0000
  3162.60    28.0580    26.4650   501.0000    66.0000   601.0000   525.0000
  3162.80    25.3650    28.2770   558.0000    75.0000   719.0000   597.0000
  3163.00    23.3370    27.1090   560.0000    64.0000   643.0000   506.0000
  3163.20    24.8010    23.7570   606.0000    90.0000   777.0000   660.0000
  3163.40    25.1690    24.5250   682.0000    72.0000   840.0000   587.0000
  3163.60    20.1930    18.9220  1435.0000   140.0000  1693.0000   928.0000
  3163.80    17.7650    17.2070  1994.0000   190.0000  2183.0000  1100.0000
  3164.00    20.6500    17.6710  1421.0000   293.0000  1694.0000  1227.0000
  3164.20    23.4170    15.8580   650.0000   230.0000   824.0000  1141.0000
  3164.40    22.1280    16.7540   671.0000   222.0000   813.0000  1151.0000
  3164.60    25.3790    20.0460   659.0000    99.0000   818.0000   814.0000
  3164.80    27.7990    21.5090   649.0000   102.0000   777.0000   767.0000
  3165.00    20.7910    21.4670   768.0000    92.0000   904.0000   691.0000
  3165.20    21.8510    19.4260  1153.0000    95.0000  1365.0000   649.0000
  3165.40    16.7470    18.5350  2042.0000   218.0000  2282.0000   998.0000
  3165.60    14.2370    13.5630  2076.0000   377.0000  2333.0000  1529.0000
  3165.80    14.4330    13.7040  2076.0000   377.0000  2333.0000  1529.0000
  3166.00    16.0470    12.4380  2262.0000   572.0000  2639.0000  1988.0000
  3166.20    14.8360    14.2990  2008.0000   520.0000  2192.0000  1870.0000
  3166.40    13.5770    14.2700  2900.0000   708.0000  3345.0000  2534.0000
  3166.60    12.7830    11.8720  3442.0000   645.0000  3632.0000  2242.0000
  3166.80    11.6960    10.7180  4365.0000   989.0000  4439.0000  2782.0000
  3167.00    11.3950     9.6690  2836.0000   970.0000  2854.0000  2231.0000
  3167.20    11.3280     9.1090  3184.0000   953.0000  3238.0000  2086.0000
  3167.40    11.8850     8.9680  4093.0000  1056.0000  4132.0000  2411.0000
  3167.60    11.1570     9.0720  3984.0000  1133.0000  3962.0000  2640.0000
  3167.80    12.3920     9.4970  4128.0000  1045.0000  4151.0000  2365.0000
  3168.00    12.7920     9.5650  4108.0000  1176.0000  4341.0000  2847.0000
  3168.20    13.2670    10.1950 11171.0000  1842.0000 15189.0000  5169.0000
  3168.40    12.8760     9.6080  3841.0000  1159.0000  4012.0000  2719.0000
  3168.60    11.8550     9.7520  4239.0000  1346.0000  4282.0000  3370.0000
  3168.80    12.7660    10.2980  3324.0000  1140.0000  3616.0000  2855.0000
  3169.00    13.7330    10.2180  3662.0000  1272.0000  4184.0000  3405.0000
