~Version information
  VERS.                            1.20: CWLS LAS  -  VERSION 1.20
  WRAP.                              NO: One line per depth step
~Well information
# MNEM.UNIT
# ====.================================:===================
  STRT.M                        3140.00: First depth in file
  STOP.M                        3450.00: Last depth in file
  STEP.M                           0.20: Depth increment
  NULL.                            9999: Null values
  COMP.                         COMPANY: 
  WELL.                            WELL: 115 
  FLD .                           FIELD: íùÑàçëäÄü
  CNTY.                          COUNTY: 
  STAT.                           STATE: 
  DATE.                        LOG DATE: 30-04-04
  SRVC.                 SERVICE COMPANY: 
  UWI.           Unique Well Identifier: 
~Parametr information block
# MNEM.UNIT
# ====.================================:===================
~Other information
# ------------------------- REMARKS  AREA ------------------
~Curve information
# MNEM.UNIT
# ====.================================:===================
  DEPT.M                               : Depth curve
MINV.OHMM                              : äÄÜ.ëéèê.èé åàäêéÉêÄÑàÖçí áéçÑì
MNOR.OHMM                              : äÄÜ.ëéèêéíàÇãÖçàÖ å/èéíÖçñàÄã áéçÑÄ
MLL.OHMM                               : äÄÜ.ëéèê/åàäêéÅéäéÇéâ äÄêéíÄÜ/åä-ìñ
MCAL.MM                                : ÑàÄåÖíê äÄÇÖêçéåÖêÄ åä-ìñ
LL3.OHMM                               : äÄÜ.ëéèêéíàÇãÖçàÖ áéçÑÄ Åä-3 /ÄÅäí
CILA.MMHO                              : áéçÑ àä 7à1.6,Ääí.ëàÉçÄã/àä-è/Äàä-5
BS.                                    : Ñ≠Æ¨=215,9¨¨
GR.UR/H                                : ÖëíÖëíÇÖççÄü ÉÄååÄ-ÄäíàÇçéëíú èé Éä
~ASCII Log Data
# ...
  3418.80     2.6590     2.4550     3.2530   211.5000     4.9247   196.5961   215.9000     0.8725
  3419.00     2.6040     2.2320     1.8130   211.5000     4.0611   199.8382   215.9000     0.7746
  3419.20     2.3920     2.2070     2.0950   211.5000     5.4123   200.0556   215.9000     0.9044
  3419.40     2.6220     2.2840     4.2990   211.5000     5.0286   206.9355   215.9000     1.0055
  3419.60     2.4900     2.2400     2.3020   211.5000     4.5532   205.6263   215.9000     0.9591
  3419.80     2.4170     2.2820     3.1220   211.5000     5.5318   211.4940   215.9000     0.9755
  3420.00     2.6410     2.4370     3.2210   211.5000     7.6274   200.9478   215.9000     0.8867
  3420.20     2.6170     2.5170     4.7830   211.5000    10.8439   180.5957   215.9000     0.8127
  3420.40     2.5350     2.4080     7.3120   211.2500    13.7149   156.0569   215.9000     0.9374
  3420.60     2.4240     2.4960     6.0300   211.5000    14.5641   127.2745   215.9000     0.8748
  3420.80     2.3580     2.3970     6.8390   211.2500    14.9749   110.3093   215.9000     0.9550
  3421.00     2.5690     2.5560     6.9230   211.2750    10.3052   108.7288   215.9000     0.7695
  3421.20     2.3030     2.4030     3.1870   211.5000     7.5932   109.5118   215.9000     0.8450
  3421.40     2.4180     2.4930     3.8800   210.7040     9.3011   114.2637   215.9000     0.9953
  3421.60     2.7330     2.8950    13.8940   213.4810    22.0905   111.5307   215.9000     0.9545
  3421.80     3.0390     3.2720    30.8790   215.0000    48.2478    89.7304   215.9000     0.7900
  3422.00     2.9200     2.7260    26.0360   215.0000    50.3874    56.0023   215.9000     0.7445
  3422.20     2.7090     2.8630    27.1200   214.9770    34.7978    39.9491   215.9000     0.5901
  3422.40     3.0250     2.9670    18.8710   214.9780    35.3376    34.1712   215.9000     0.7421
  3422.60     3.2220     2.6870    19.8260   215.1880    45.8479    35.1600   215.9000     0.7050
  3422.80     3.2340     3.0660    23.3250   214.7500    62.1930    34.6535   215.9000     0.6847
  3423.00     3.3820     3.0850    31.1840   214.7500    48.1593    32.5652   215.9000     0.6457
  3423.20     3.6390     3.0980    27.7020   214.8250    79.1026    31.5123   215.9000     0.7171
  3423.40     3.3460     2.8010    31.8440   214.7500    46.3403    34.8905   215.9000     0.7432
  3423.60     3.9860     2.9200    17.8380   214.7500    32.2252    34.4115   215.9000     0.8422
  3423.80     3.3140     3.0360    20.6470   214.7290    30.4792    35.4296   215.9000     0.8340
  3424.00     3.2280     2.8520    11.8990   214.5000    26.7767    39.3424   215.9000     0.9685
  3424.20     3.5290     3.0160    26.6990   214.7500    31.9967    44.6606   215.9000     0.9646
  3424.40     3.1440     3.0030    12.0400   214.7500    22.0845    47.2181   215.9000     0.7277
  3424.60     2.2780     2.2050    13.3190   215.8170    24.7971    50.6069   215.9000     0.7114
  3424.80     2.9900     2.8120    11.9540   215.0000    17.1726    46.9412   215.9000     0.8674
  3425.00     2.9940     2.8610    10.6250   215.1820    21.8825    51.1171   215.9000     0.7984
  3425.20     2.9150     2.8530    12.4120   215.0230    32.2352    53.9206   215.9000     0.7512
  3425.40     3.2320     2.8790    19.0670   216.3880    41.9260    48.1866   215.9000     0.4477
  3425.60     3.0330     2.8520    16.8600   216.5000    52.5594    46.1796   215.9000     0.4073
  3425.80     3.6950     3.4100    16.6360   216.5000    63.8825    52.0891   215.9000     0.4720
  3426.00     2.6220     2.6230    20.4530   216.0910    63.1642    56.2794   215.9000     0.5110
  3426.20     4.9530     2.9670    29.0920   216.8760    80.8451    64.1956   215.9000     0.5353
  3426.40     3.2740     2.3810    31.9190   220.1780    90.3610    67.4196   215.9000     0.6188
  3426.60     3.2580     3.0570    17.4110   222.5210    97.6886    72.4998   215.9000     0.6547
  3426.80     3.9480     2.9490    42.7920   221.6250   111.6001    79.2618   215.9000     0.6768
  3427.00     3.0990     3.0680    25.3770   214.6470    40.5191    79.2487   215.9000     0.8181
  3427.20     2.6480     2.3590     7.0590   213.0000     9.1356    79.1926   215.9000     0.6994
  3427.40     2.0840     1.5750     2.2770   213.2500     4.1347    88.8675   215.9000     0.5563
  3427.60     1.9540     1.5600     1.8920   213.3870     3.7972    99.6778   215.9000     0.5762
  3427.80     1.7270     1.1770     1.9910   213.5000     2.8777   109.6954   215.9000     0.4906
  3428.00     1.7040     1.0950     1.7960   213.2500     2.7032   126.5434   215.9000     0.5816
  3428.20     1.7880     1.4050     2.0350   213.3000     3.1075   142.7518   215.9000     0.6533
  3428.40     1.6690     1.3750     2.2430   213.2750     3.1013   161.6277   215.9000     0.7283
  3428.60     1.7130     1.3790     1.6960   213.5000     2.8255   180.0573   215.9000     0.5811
  3428.80     1.7810     1.4180     1.4730   213.5000     2.8910   190.3112   215.9000     0.5649
  3429.00     1.6980     1.1690     1.6240   213.5000     2.9006   198.7686   215.9000     0.6006
  3429.20     1.9540     1.4360     1.6290   213.3250     3.4826   213.7050   215.9000     0.6082
  3429.40     2.1190     1.8490     1.5980   213.3750     4.5711   231.2823   215.9000     0.5411
  3429.60     1.8490     1.8130     1.7570   213.5000     4.4356   239.5134   215.9000     0.6196
  3429.80     1.9460     1.6750     1.9890   213.5000     4.0082   244.2964   215.9000     0.6592
  3430.00     1.9510     1.6470     1.9380   213.4750     4.3918   246.3493   215.9000     0.8102
  3430.20     1.9050     1.6580     2.6340   213.4790     6.0052   248.0553   215.9000     0.7413
  3430.40     2.4320     2.5330    13.2250   213.2500    16.5858   240.0120   215.9000     0.8168
  3430.60     2.7620     2.6820    16.4280   213.2500    31.9424   205.0150   215.9000     0.7046
  3430.80     2.6120     2.6160    13.1920   213.2500    37.4106   159.5015   215.9000     0.8136
  3431.00     2.5980     2.5450    14.6740   213.2500    27.3354   117.6610   215.9000     0.8487
  3431.20     2.5940     2.3540     5.5730   213.3250    11.5749   114.6093   215.9000     0.9145
  3431.40     2.1920     1.8510     3.0710   213.5000     6.1995   124.6224   215.9000     0.8277
  3431.60     2.1100     1.8080     2.7320   213.5000     6.0580   162.6791   215.9000     0.8030
  3431.80     2.2500     2.2610     5.1990   213.2500     8.4828   190.4520   215.9000     0.7785
  3432.00     2.2130     2.0580     3.5010   213.5000     6.2388   226.3186   215.9000     0.6949
  3432.20     1.9010     1.9050     4.3870   213.6500     8.2169   217.0334   215.9000     0.7177
  3432.40     1.7900     1.9120    19.6400   215.1590    17.7121   198.7131   215.9000     0.8206
  3432.60     1.4110     1.7590    16.8830   214.6360    17.8153   173.5296   215.9000     0.7239
  3432.80     1.3560     1.7440     4.7840   206.9480    14.7409   143.2744   215.9000     0.8357
  3433.00     1.2390     1.6880     4.3440   195.8160    29.4174   113.5667   215.9000     0.8129
  3433.20     1.2920     1.6350     3.9760   192.7500    27.8248   103.5284   215.9000     0.8288
  3433.40     1.3390     1.8320     4.0040   192.7500    27.6507    90.4182   215.9000     0.7976
  3433.60     1.4720     1.8500     2.7720   191.5000    18.8204    81.9375   215.9000     0.6481
  3433.80     1.6040     1.8110     2.7780   191.5000     8.4382    82.2388   215.9000     0.8151
  3434.00     1.5920     1.8260     2.9490   191.4250    12.8413    99.4604   215.9000     0.7269
  3434.20     1.7500     1.9360     2.8300   192.5000    13.5409   115.8875   215.9000     0.8447
  3434.40     1.8050     1.9110     2.7160   193.1310    17.0281   129.0226   215.9000     0.9450
  3434.60     2.0600     1.9910     3.2410   199.5000    31.8160   122.5171   215.9000     0.7932
  3434.80     2.2650     2.1240     3.3060   198.2730    34.0721   108.7868   215.9000     0.7911
  3435.00     2.1340     2.2780     2.6850   193.9480    33.9737    94.5043   215.9000     0.6659
