~Version information
  VERS.                            1.20: CWLS LAS  -  VERSION 1.20
  WRAP.                              NO: One line per depth step
~Well information
# MNEM.UNIT
# ====.================================:===================
  STRT.M                        3148.00: First depth in file
  STOP.M                        3449.00: Last depth in file
  STEP.M                           0.20: Depth increment
  NULL.                            9999: Null values
  COMP.                         COMPANY: 
  WELL.                            WELL: 115 
  FLD .                           FIELD: íÌ§®≠·™†Ô
  CNTY.                          COUNTY: 
  STAT.                           STATE: 
  DATE.                        LOG DATE: 29-04-04
  SRVC.                 SERVICE COMPANY: 
  UWI.           Unique Well Identifier: 
~Parametr information block
# MNEM.UNIT
# ====.================================:===================
~Other information
# ------------------------- REMARKS  AREA ------------------
~Curve information
# MNEM.UNIT
# ====.================================:===================
  DEPT.M                               : Depth curve
SFND.1/CM                              : SFND
SFFD.1/CM                              : SFFD
TCND.                                  : àçíÖÉêÄãúçõâ ëóÖí, åÄãõâ áéçÑ / àçä
TCFD.                                  : àçíÖÉêÄãúçõâ ëóÖí, Å. áéçÑ / àçä
TCNC.                                  : äéåè.àçíÖÉê. ëóÖí, åÄãõâ áéçÑ / àçä
TCFC.                                  : äéåè.àçíÖÉêÄãúçõâ ëóÖí,Å.áéçÑ / àçä
~ASCII Log Data
# ...
  3275.20    10.4890     7.4600  4641.0000  1574.0000  4583.0000  3422.0000
  3275.40    10.9630     7.8970  4226.0000  1663.0000  4086.0000  3419.0000
  3275.60    10.9700     8.3040  4318.0000  1607.0000  4271.0000  3605.0000
  3275.80    11.7360     8.7730  3965.0000  1599.0000  3927.0000  3395.0000
  3276.00    10.1350     9.6100  3467.0000  1406.0000  3615.0000  3109.0000
  3276.20    11.7860     8.4080  3565.0000  1376.0000  3637.0000  3084.0000
  3276.40    12.5190     8.9370  3930.0000  1566.0000  3977.0000  3595.0000
  3276.60    11.3740     8.6200  3513.0000  1322.0000  3481.0000  2963.0000
  3276.80    13.1060     8.2910  5104.0000  1735.0000  5545.0000  4059.0000
  3277.00    11.4140     8.4540  2860.0000  1191.0000  2828.0000  2721.0000
  3277.20    12.3840     8.9210  4344.0000  1553.0000  4354.0000  3377.0000
  3277.40    11.4750     9.0810  4662.0000  1805.0000  4659.0000  4022.0000
  3277.60    11.2480     8.3140  5336.0000  1625.0000  5573.0000  3793.0000
  3277.80    11.2130     8.3750  3902.0000  1037.0000  4129.0000  2262.0000
  3278.00    11.6440     9.7900  4615.0000   932.0000  4725.0000  2041.0000
  3278.20    12.3930     8.8960  3773.0000   677.0000  3862.0000  1562.0000
  3278.40    13.2600     8.5470  5175.0000   854.0000  5507.0000  2011.0000
  3278.60    13.2120     9.6140  5175.0000   854.0000  5507.0000  2011.0000
  3278.80    12.8000    10.3760  7558.0000   943.0000  9667.0000  2387.0000
  3279.00    11.2870     9.6650  6011.0000   822.0000  6345.0000  2071.0000
  3279.20    13.4320     9.6220  6339.0000   823.0000  6673.0000  2000.0000
  3279.40    12.9520     9.6070  5931.0000   791.0000  6257.0000  1937.0000
  3279.60    12.9240     9.7520  5806.0000   794.0000  6226.0000  1925.0000
  3279.80    13.6140    10.5810  6732.0000   798.0000  7716.0000  1987.0000
  3280.00    12.5360    10.7260  4963.0000   848.0000  5186.0000  2010.0000
  3280.20    12.4300     9.6490  4227.0000   835.0000  4468.0000  2071.0000
  3280.40    12.0200     9.4440  3997.0000  1036.0000  4207.0000  2432.0000
  3280.60    10.7140     9.6730  5674.0000  1701.0000  5927.0000  3900.0000
  3280.80    10.8140     8.4900  4247.0000  1511.0000  4305.0000  3489.0000
  3281.00    10.1640     7.7520  4016.0000  1467.0000  3991.0000  3427.0000
  3281.20    11.0950     9.0610  3848.0000  1420.0000  3959.0000  3187.0000
  3281.40    11.0730     8.9700  4971.0000  1532.0000  5326.0000  3451.0000
  3281.60    11.7080     8.9330  5290.0000  1349.0000  5361.0000  2839.0000
  3281.80    12.0080     8.3580  6896.0000  1554.0000  7436.0000  3474.0000
  3282.00    11.4420     8.3330  3171.0000  1037.0000  3091.0000  2188.0000
  3282.20    11.8690     9.1110  5205.0000  1636.0000  5918.0000  3707.0000
  3282.40    12.0170     8.9510  4728.0000  1269.0000  4713.0000  2844.0000
  3282.60    12.8550     9.1230  6910.0000  1730.0000  7278.0000  3973.0000
  3282.80    11.9950     8.9120  4902.0000  1239.0000  4899.0000  2733.0000
  3283.00    12.1310     9.0670  5717.0000  1354.0000  6183.0000  2850.0000
  3283.20    11.9610     9.6270  5365.0000  1098.0000  5522.0000  2464.0000
  3283.40    12.1220     9.0730  5365.0000  1098.0000  5522.0000  2464.0000
  3283.60    12.2820     8.3570  7335.0000  1374.0000  8015.0000  3129.0000
  3283.80    12.1780     8.5630  5575.0000  1103.0000  5660.0000  2356.0000
  3284.00    13.2750     8.6730  8889.0000  1183.0000 10026.0000  2744.0000
  3284.20    11.7870     9.0840  6183.0000  1005.0000  6588.0000  2209.0000
  3284.40    12.8900     9.7510  5981.0000   948.0000  6151.0000  2200.0000
  3284.60    13.0090    10.6480  5569.0000   815.0000  5847.0000  1958.0000
  3284.80    13.5770    12.1090  6499.0000   842.0000  7504.0000  2092.0000
  3285.00    12.9940     9.8510  6114.0000   860.0000  6335.0000  1988.0000
  3285.20    13.4570     8.9740  6028.0000   842.0000  6364.0000  1967.0000
  3285.40    12.4610     8.9010  4789.0000   783.0000  5043.0000  1813.0000
  3285.60    12.4640     9.6300  5220.0000   763.0000  5435.0000  1894.0000
  3285.80    13.6350    11.4670  5499.0000   768.0000  5950.0000  1878.0000
  3286.00    13.2090    10.4370  7462.0000   833.0000  8382.0000  2203.0000
  3286.20    13.6490     9.3660  6945.0000   933.0000  7799.0000  2379.0000
  3286.40    12.5710     9.3350  4805.0000   972.0000  4998.0000  2206.0000
  3286.60    11.1440     8.9940  5878.0000  1227.0000  5966.0000  3018.0000
  3286.80    12.3880     8.8350  6176.0000  1381.0000  6217.0000  3015.0000
  3287.00    13.1720     8.8300  4902.0000  1006.0000  5407.0000  2214.0000
  3287.20    12.8250     8.8630  6428.0000  1126.0000  6789.0000  2491.0000
  3287.40    13.2650     9.0580  5129.0000   881.0000  5550.0000  2002.0000
  3287.60    12.7130     9.2720  5549.0000   839.0000  5738.0000  2033.0000
  3287.80    13.0090     9.3360  5889.0000   855.0000  6133.0000  2053.0000
  3288.00    12.6170     8.7420  5314.0000   747.0000  5436.0000  1863.0000
  3288.20    14.1640    10.2650  5637.0000  1336.0000  5735.0000  3666.0000
  3288.40    13.7230    10.5730  5635.0000  1336.0000  5748.0000  3666.0000
  3288.60    10.6860    10.0310  5960.0000   862.0000  6035.0000  2069.0000
  3288.80    12.5440     9.8220  5582.0000   777.0000  6140.0000  2024.0000
  3289.00    12.5980    10.2110  5421.0000   698.0000  5770.0000  1779.0000
  3289.20    13.0220    11.1130  5706.0000   836.0000  5944.0000  2026.0000
  3289.40    12.8370    10.2140  6209.0000   890.0000  6782.0000  2185.0000
  3289.60    12.9390     9.8360  6810.0000   849.0000  7164.0000  2120.0000
  3289.80    12.4370     9.8220  7541.0000   892.0000  8531.0000  2212.0000
  3290.00    13.1760     9.9030  6454.0000   786.0000  8305.0000  2013.0000
  3290.20    13.0580    10.3480  9079.0000  1008.0000  9679.0000  2529.0000
  3290.40    13.4730    10.3130  4832.0000   620.0000  5349.0000  1583.0000
  3290.60    13.5170    11.0700  6234.0000   806.0000  6878.0000  2083.0000
  3290.80    13.2840    11.2650  4749.0000   666.0000  4897.0000  1634.0000
  3291.00    13.3360    10.4090  6733.0000   844.0000  7548.0000  2139.0000
  3291.20    13.1510    10.1640  4106.0000   656.0000  4151.0000  1562.0000
  3291.40    12.0000    10.2210  5621.0000   738.0000  6016.0000  1866.0000
  3291.60    12.7540     9.6500  6521.0000   833.0000  6919.0000  2138.0000
  3291.80    13.7060    10.0540  6624.0000   778.0000  7347.0000  2017.0000
  3292.00    13.3270     9.1080  6345.0000   957.0000  7094.0000  2356.0000
  3292.20    12.8280     9.8720  5523.0000   818.0000  5959.0000  2014.0000
  3292.40    13.2480    10.0070  5840.0000   907.0000  6650.0000  2209.0000
  3292.60    13.7700    10.5390  6242.0000  1000.0000  6631.0000  2297.0000
  3292.80    14.5900    10.4200  6506.0000   874.0000  7204.0000  2214.0000
  3293.00    13.4170    10.7000  4481.0000   660.0000  4627.0000  1594.0000
  3293.20    13.5260    10.3940  4481.0000   660.0000  4627.0000  1594.0000
  3293.40    12.6960    10.0760  5251.0000   724.0000  5453.0000  1763.0000
  3293.60    13.3030     9.8550  6292.0000   841.0000  7006.0000  2082.0000
  3293.80    13.6930    10.8520  5317.0000   744.0000  5513.0000  1874.0000
  3294.00    13.0000    10.7430  4899.0000   668.0000  5125.0000  1578.0000
  3294.20    12.4890    10.1290  5419.0000   747.0000  5446.0000  1771.0000
  3294.40    13.7820    10.1370  7591.0000   860.0000  8180.0000  2165.0000
  3294.60    13.0590    10.6470  6657.0000   865.0000  7272.0000  2093.0000
  3294.80    13.3580    10.3960  5837.0000   847.0000  6120.0000  2033.0000
  3295.00    12.6090     9.4370  6428.0000   913.0000  6836.0000  2201.0000
  3295.20    13.2870     9.7970  7631.0000  1075.0000  8167.0000  2668.0000
  3295.40    12.9310     9.6960  3689.0000   589.0000  3691.0000  1437.0000
  3295.60    14.1030     9.2340  6083.0000   820.0000  6357.0000  2009.0000
  3295.80    13.8840     9.3210  4485.0000   744.0000  4731.0000  1719.0000
  3296.00    13.2880    11.0060  5491.0000   787.0000  5829.0000  1862.0000
  3296.20    12.9700     9.6250  6511.0000   928.0000  7063.0000  2084.0000
