~Version information
  VERS.                            1.20: CWLS LAS  -  VERSION 1.20
  WRAP.                              NO: One line per depth step
~Well information
# MNEM.UNIT
# ====.================================:===================
  STRT.M                        3148.00: First depth in file
  STOP.M                        3449.00: Last depth in file
  STEP.M                           0.20: Depth increment
  NULL.                            9999: Null values
  COMP.                         COMPANY: 
  WELL.                            WELL: 115 
  FLD .                           FIELD: íÌ§®≠·™†Ô
  CNTY.                          COUNTY: 
  STAT.                           STATE: 
  DATE.                        LOG DATE: 29-04-04
  SRVC.                 SERVICE COMPANY: 
  UWI.           Unique Well Identifier: 
~Parametr information block
# MNEM.UNIT
# ====.================================:===================
~Other information
# ------------------------- REMARKS  AREA ------------------
~Curve information
# MNEM.UNIT
# ====.================================:===================
  DEPT.M                               : Depth curve
SFND.1/CM                              : SFND
SFFD.1/CM                              : SFFD
TCND.                                  : àçíÖÉêÄãúçõâ ëóÖí, åÄãõâ áéçÑ / àçä
TCFD.                                  : àçíÖÉêÄãúçõâ ëóÖí, Å. áéçÑ / àçä
TCNC.                                  : äéåè.àçíÖÉê. ëóÖí, åÄãõâ áéçÑ / àçä
TCFC.                                  : äéåè.àçíÖÉêÄãúçõâ ëóÖí,Å.áéçÑ / àçä
~ASCII Log Data
# ...
  3381.20    11.9440     8.8610  4035.0000  1119.0000  3895.0000  2404.0000
  3381.40    11.2520     9.6600  5473.0000  1279.0000  5492.0000  2867.0000
  3381.60    12.9460     9.8100  6572.0000  1268.0000  6891.0000  2854.0000
  3381.80    11.4460     9.7450  5968.0000  1274.0000  6507.0000  2644.0000
  3382.00    11.5260     9.5650  5063.0000  1119.0000  4966.0000  2566.0000
  3382.20    12.5320     9.2550  5266.0000  1374.0000  5251.0000  2790.0000
  3382.40    12.1920     8.9980  5934.0000  1486.0000  5937.0000  3059.0000
  3382.60    11.5010     8.1110  5360.0000  1317.0000  5304.0000  2870.0000
  3382.80    12.0350     8.1890  4749.0000  1118.0000  4731.0000  2341.0000
  3383.00    11.0860     9.1620  3892.0000   969.0000  4003.0000  2111.0000
  3383.20    11.7370     9.4010  4015.0000  1239.0000  4103.0000  2619.0000
  3383.40    10.8630     9.5970  3451.0000  1115.0000  3584.0000  2464.0000
  3383.60    11.9430    10.2510  4349.0000  1388.0000  4355.0000  3078.0000
  3383.80    12.6600     9.4380  5447.0000  1461.0000  5763.0000  3469.0000
  3384.00    12.3320     8.8610  5220.0000  1409.0000  5179.0000  3252.0000
  3384.20    11.7630     9.2040  5245.0000  1259.0000  5237.0000  2907.0000
  3384.40    11.7680     9.0540  5063.0000  1251.0000  5241.0000  2703.0000
  3384.60    11.7060     8.8240  5548.0000  1240.0000  5881.0000  2741.0000
  3384.80    11.8170     8.8120  4230.0000  1086.0000  4263.0000  2229.0000
  3385.00    12.0660     8.5130  4459.0000  1307.0000  4490.0000  2837.0000
  3385.20    11.8990     9.6460  5661.0000  1565.0000  5911.0000  3462.0000
  3385.40    11.6780     9.7260  4044.0000  1213.0000  4227.0000  2616.0000
  3385.60    11.2630     9.2050  4044.0000  1213.0000  4227.0000  2616.0000
  3385.80    12.0260     8.5010  5369.0000  1275.0000  5363.0000  2821.0000
  3386.00    11.1530     8.8800  5957.0000  1229.0000  5966.0000  2663.0000
  3386.20    11.4890     9.2390  5050.0000  1073.0000  5055.0000  2449.0000
  3386.40    11.8070     8.9950  6210.0000  1248.0000  6719.0000  2728.0000
  3386.60    12.3380     8.8760  4363.0000   961.0000  4466.0000  2112.0000
  3386.80    12.3590     9.1310  4090.0000   773.0000  4232.0000  1809.0000
  3387.00    12.9490    10.2440  4287.0000   935.0000  4237.0000  2259.0000
  3387.20    11.2930     9.2570  4820.0000   994.0000  4876.0000  2177.0000
  3387.40    11.1870     9.1900  4676.0000   916.0000  4665.0000  2133.0000
  3387.60    11.3480     9.7060  4592.0000   963.0000  4621.0000  2084.0000
  3387.80    12.3570     9.5650  5314.0000  1116.0000  5299.0000  2435.0000
  3388.00    12.5570     9.5020  4797.0000  1049.0000  4949.0000  2286.0000
  3388.20    13.1000     8.8470  7245.0000  1450.0000  7756.0000  3197.0000
  3388.40    12.7010     9.8480  8568.0000  1534.0000  9105.0000  3638.0000
  3388.60    11.9290     9.2510  4383.0000  1218.0000  4435.0000  2492.0000
  3388.80    10.9890     8.4560  5475.0000  1228.0000  5545.0000  2718.0000
  3389.00    11.5880     8.4130  4467.0000  1027.0000  4464.0000  2070.0000
  3389.20    12.3440     8.5490  4617.0000   982.0000  4729.0000  2177.0000
  3389.40    11.1110     8.1830  5434.0000  1057.0000  5638.0000  2425.0000
  3389.60    12.1020     8.8120  4930.0000   985.0000  5161.0000  2160.0000
  3389.80    11.9090     9.5390  4768.0000  1109.0000  4825.0000  2454.0000
  3390.00    11.7580     8.9690  4747.0000  1294.0000  4726.0000  2581.0000
  3390.20    13.0950     8.9930  4946.0000  1079.0000  4750.0000  2411.0000
  3390.40    13.1260     9.4210  4946.0000  1079.0000  4750.0000  2411.0000
  3390.60    12.1050     9.3900  6984.0000  1402.0000  7493.0000  3120.0000
  3390.80    11.7080     9.0580  6821.0000  1445.0000  7066.0000  3226.0000
  3391.00    11.6430     9.1350  5626.0000  1236.0000  5679.0000  2801.0000
  3391.20    11.2440     9.2810  4162.0000   988.0000  3927.0000  2000.0000
  3391.40    10.9900     9.3030  6558.0000  1411.0000  6647.0000  3103.0000
  3391.60    11.1090     9.4770  6163.0000  1259.0000  6158.0000  2897.0000
  3391.80    13.1500     9.1860  6332.0000  1284.0000  6853.0000  2934.0000
  3392.00    12.7280     9.2720  4260.0000  1009.0000  4450.0000  2255.0000
  3392.20    13.4210     9.1970  5929.0000  1159.0000  6356.0000  2619.0000
  3392.40    12.4590     9.0880  7031.0000  1362.0000  7277.0000  3102.0000
  3392.60    11.3700     8.9800  6365.0000  1280.0000  6335.0000  2837.0000
  3392.80    12.1240     9.7940  5621.0000  1140.0000  6037.0000  2569.0000
  3393.00    11.8190     9.9080  5945.0000  1064.0000  6210.0000  2506.0000
  3393.20    12.4780     9.2350  5965.0000  1116.0000  6072.0000  2620.0000
  3393.40    12.1820     9.3560  5234.0000   956.0000  5319.0000  2347.0000
  3393.60    12.4040     9.5450  4230.0000   909.0000  4370.0000  2059.0000
  3393.80    11.8160     9.1430  5531.0000  1089.0000  5887.0000  2552.0000
  3394.00    11.2890     9.4700  6810.0000  1390.0000  6950.0000  3137.0000
  3394.20    12.0670     9.2200  5845.0000  1206.0000  6251.0000  2606.0000
  3394.40    11.9480     9.7860  7290.0000  1383.0000  8411.0000  3053.0000
  3394.60    12.5140     8.9970  5610.0000  1208.0000  5872.0000  2641.0000
  3394.80    12.2460     8.9900  5615.0000  1385.0000  5638.0000  3026.0000
  3395.00    12.2270     9.3080  6425.0000  1415.0000  6834.0000  3080.0000
  3395.20    11.8400     9.0860  6425.0000  1415.0000  6834.0000  3080.0000
  3395.40     9.9810     8.5980  4668.0000  1208.0000  4659.0000  2484.0000
  3395.60    11.8020     8.3150  3728.0000  1101.0000  3751.0000  2313.0000
  3395.80    11.9160     8.4190  4907.0000  1551.0000  4951.0000  3478.0000
  3396.00    10.4060     9.3090  4260.0000  1424.0000  4240.0000  3371.0000
  3396.20    12.0270     9.5160  3438.0000  1313.0000  3408.0000  2895.0000
  3396.40    13.0650     9.1230  4850.0000  1570.0000  4924.0000  3731.0000
  3396.60    12.9820     9.2760  4716.0000  1455.0000  4998.0000  3356.0000
  3396.80    12.1360     9.1280  4670.0000  1307.0000  4932.0000  3178.0000
  3397.00    12.0720     9.6410  3913.0000  1171.0000  4074.0000  2882.0000
  3397.20    12.4850     9.5290  3795.0000  1146.0000  3943.0000  2749.0000
  3397.40    12.2070    10.3600  3989.0000  1188.0000  4139.0000  2833.0000
  3397.60    12.2770     9.7720  3584.0000   959.0000  3602.0000  2324.0000
  3397.80    11.3500     9.3200  6719.0000  1533.0000  7123.0000  3468.0000
  3398.00    12.5540     9.3020  5964.0000  1456.0000  5872.0000  3172.0000
  3398.20    11.9990     9.1300  5470.0000  1218.0000  5297.0000  2486.0000
  3398.40    11.3220     8.9330  6634.0000  1409.0000  6854.0000  3004.0000
  3398.60    10.4630     8.1430  5466.0000  1309.0000  5378.0000  2747.0000
  3398.80    10.9820     7.9600  5588.0000  1357.0000  5937.0000  2724.0000
  3399.00    11.2770     8.3830  4555.0000  1070.0000  4742.0000  2277.0000
  3399.20    11.0560     8.6460  5697.0000  1251.0000  5629.0000  2670.0000
  3399.40    12.1820     9.3480  6681.0000  1471.0000  7409.0000  3174.0000
  3399.60    11.9630     9.6720  4389.0000  1136.0000  4359.0000  2339.0000
  3399.80    12.0450     9.2360  4978.0000  1193.0000  5168.0000  2666.0000
  3400.00    12.9490     8.7670  5110.0000  1295.0000  5795.0000  3012.0000
  3400.20    11.6920     8.6170  5110.0000  1295.0000  5795.0000  3012.0000
  3400.40    10.7870     8.7510  4141.0000  1051.0000  4269.0000  2272.0000
  3400.60    11.4360     9.1500  4817.0000  1157.0000  4904.0000  2570.0000
  3400.80    13.0820     9.0660  4304.0000  1153.0000  4497.0000  2647.0000
  3401.00    12.1040     9.6610  4336.0000  1167.0000  4397.0000  2641.0000
  3401.20    12.1000     9.7170  4805.0000  1211.0000  5175.0000  3078.0000
  3401.40    11.8320     9.5040  3882.0000  1132.0000  4115.0000  2732.0000
  3401.60    12.8600     9.5990  3839.0000  1066.0000  3967.0000  2581.0000
  3401.80    13.2580     9.9650  3450.0000   959.0000  3549.0000  2485.0000
  3402.00    13.1790    10.1170  5329.0000  1338.0000  5882.0000  3268.0000
  3402.20    11.6430     9.5080  3983.0000  1160.0000  4309.0000  2744.0000
