~Version information
  VERS.                            1.20: CWLS LAS  -  VERSION 1.20
  WRAP.                              NO: One line per depth step
~Well information
# MNEM.UNIT
# ====.================================:===================
  STRT.M                        3140.00: First depth in file
  STOP.M                        3450.00: Last depth in file
  STEP.M                           0.20: Depth increment
  NULL.                            9999: Null values
  COMP.                         COMPANY: 
  WELL.                            WELL: 115 
  FLD .                           FIELD: íùÑàçëäÄü
  CNTY.                          COUNTY: 
  STAT.                           STATE: 
  DATE.                        LOG DATE: 30-04-04
  SRVC.                 SERVICE COMPANY: 
  UWI.           Unique Well Identifier: 
~Parametr information block
# MNEM.UNIT
# ====.================================:===================
~Other information
# ------------------------- REMARKS  AREA ------------------
~Curve information
# MNEM.UNIT
# ====.================================:===================
  DEPT.M                               : Depth curve
MINV.OHMM                              : äÄÜ.ëéèê.èé åàäêéÉêÄÑàÖçí áéçÑì
MNOR.OHMM                              : äÄÜ.ëéèêéíàÇãÖçàÖ å/èéíÖçñàÄã áéçÑÄ
MLL.OHMM                               : äÄÜ.ëéèê/åàäêéÅéäéÇéâ äÄêéíÄÜ/åä-ìñ
MCAL.MM                                : ÑàÄåÖíê äÄÇÖêçéåÖêÄ åä-ìñ
LL3.OHMM                               : äÄÜ.ëéèêéíàÇãÖçàÖ áéçÑÄ Åä-3 /ÄÅäí
CILA.MMHO                              : áéçÑ àä 7à1.6,Ääí.ëàÉçÄã/àä-è/Äàä-5
BS.                                    : Ñ≠Æ¨=215,9¨¨
GR.UR/H                                : ÖëíÖëíÇÖççÄü ÉÄååÄ-ÄäíàÇçéëíú èé Éä
~ASCII Log Data
# ...
  3287.60     3.5870     3.3390    17.7780   214.7500    50.9762    23.5180   215.9000     0.8450
  3287.80     3.6140     3.2990    16.2770   215.0000    45.0138    24.4224   215.9000     0.9829
  3288.00     3.6140     3.3360    14.0900   215.3500    50.8753    24.9787   215.9000     1.0961
  3288.20     3.5850     3.2560    19.3810   215.2500    60.2560    24.9345   215.9000     1.1400
  3288.40     3.3860     3.4080    19.4390   215.2910    69.8107    24.8993   215.9000     1.2368
  3288.60     3.6920     3.3930    21.4510   215.7500    83.3712    24.3560   215.9000     1.2496
  3288.80     3.6570     3.2460    24.0420   215.5750    73.1114    23.6732   215.9000     1.1751
  3289.00     3.5180     3.3360    22.1950   215.5000    55.9218    23.7889   215.9000     0.9858
  3289.20     3.3640     3.2060    16.5830   215.5000    46.0919    25.6821   215.9000     0.9464
  3289.40     3.4600     3.1760    15.4830   215.5000    38.3057    27.8017   215.9000     0.9941
  3289.60     3.4770     3.1350    12.3610   215.5000    35.8036    28.7664   215.9000     1.0156
  3289.80     3.2070     3.1420    11.9540   215.5000    41.1056    29.8742   215.9000     1.0048
  3290.00     3.4110     3.2290    17.3700   215.5000    42.2341    29.7721   215.9000     0.9622
  3290.20     3.3420     3.1530    15.0890   215.5000    47.1783    28.3967   215.9000     0.9293
  3290.40     3.4540     3.2210    18.5580   215.5000    54.3932    26.6934   215.9000     0.9377
  3290.60     3.2100     3.1680    20.0420   215.5000    67.4467    24.7315   215.9000     1.0115
  3290.80     3.5050     3.1780    24.4000   215.5000    72.4805    23.7320   215.9000     1.0807
  3291.00     3.3950     3.2290    20.0400   215.5000    73.9482    22.9874   215.9000     1.1381
  3291.20     3.7160     3.1990    27.0830   215.7500    78.9912    23.3301   215.9000     1.2575
  3291.40     3.1490     3.3440    21.9680   215.0670    59.6260    24.3153   215.9000     1.3046
  3291.60     3.2050     3.2820    19.2260   214.7750    53.1923    25.4047   215.9000     1.2935
  3291.80     3.1610     3.1990    16.9810   214.7500    50.6146    27.2318   215.9000     1.2283
  3292.00     3.3580     3.1310    17.8760   214.7500    53.9636    27.4411   215.9000     1.2535
  3292.20     3.5440     3.1590    19.1730   215.0000    55.1619    28.2595   215.9000     1.2849
  3292.40     3.2760     3.2100    17.4670   215.7500    45.7153    29.0865   215.9000     1.3415
  3292.60     3.3240     3.1420    15.5890   215.7500    41.7694    31.2782   215.9000     1.3683
  3292.80     3.3240     3.2420    17.0420   215.7500    42.9146    31.6195   215.9000     1.3161
  3293.00     3.3900     3.3100    16.0000   215.7500    44.4014    32.6705   215.9000     1.3183
  3293.20     3.5240     3.2700    15.6790   215.7500    45.7704    33.2352   215.9000     1.3041
  3293.40     3.7560     3.3600    17.7460   215.7500    46.7073    31.5518   215.9000     1.2606
  3293.60     3.5740     3.1160    19.7350   215.8640    45.8878    32.3314   215.9000     1.0933
  3293.80     3.4110     3.2060    19.7910   215.2500    44.1781    32.0495   215.9000     0.9694
  3294.00     3.4800     3.2330    29.0290   215.5000    42.2275    31.9234   215.9000     1.0583
  3294.20     3.6860     3.2590    14.2660   215.5000    37.9960    31.0722   215.9000     1.1612
  3294.40     3.5850     3.2560    15.5090   215.7500    38.4158    29.5855   215.9000     1.1998
  3294.60     3.6140     3.3130    16.4010   215.7500    40.7210    29.7725   215.9000     1.1344
  3294.80     3.4030     3.2490    15.2700   215.7500    43.7344    29.5075   215.9000     1.0247
  3295.00     3.3380     3.2350    18.0430   215.7500    57.0375    28.4739   215.9000     0.9414
  3295.20     3.6610     3.4220    26.5540   215.7500    72.3782    25.5921   215.9000     0.9003
  3295.40     3.7750     3.1940    27.1490   215.7500    70.5149    24.8492   215.9000     1.0461
  3295.60     3.9540     3.2560    20.2920   215.7500    69.6885    21.4827   215.9000     1.1822
  3295.80     3.3030     3.2240    23.0470   215.7500    62.0411    20.9612   215.9000     1.1954
  3296.00     3.3990     3.2750    21.2260   215.7500    56.0134    20.9764   215.9000     1.0032
  3296.20     3.4770     3.2300    19.0100   215.7500    51.4583    22.3050   215.9000     0.8173
  3296.40     3.6430     3.1950    17.2720   215.7500    50.4448    22.9440   215.9000     0.8292
  3296.60     3.3950     3.3170    18.9200   215.7500    59.8181    24.1933   215.9000     0.9327
  3296.80     3.5140     3.3650    21.1900   216.0000    65.5671    22.9997   215.9000     1.0186
  3297.00     3.9450     3.5520    37.7060   216.0250    99.1668    22.1609   215.9000     0.9506
  3297.20     3.9040     3.6970    67.8060   216.0000   162.8947    21.1580   215.9000     0.8698
  3297.40     3.8400     3.4270    46.3420   216.2280   114.7035    21.2969   215.9000     0.9092
  3297.60     3.9860     3.5230    23.7890   215.7500    74.1658    21.7967   215.9000     0.9946
  3297.80     3.5170     3.2320    22.4600   215.7500    59.0532    21.9865   215.9000     1.1020
  3298.00     3.4830     3.4130    20.1690   215.7500    54.1103    22.6297   215.9000     1.1400
  3298.20     3.6750     3.2560    18.2790   215.7500    58.3127    25.8320   215.9000     1.1399
  3298.40     3.5270     3.3130    25.8510   215.7500    65.1369    23.0119   215.9000     1.1351
  3298.60     3.4980     3.1990    23.5190   215.7500    65.2206    25.3116   215.9000     1.0799
  3298.80     3.5530     3.4370    27.9090   215.0000    63.3763    23.9457   215.9000     1.0551
  3299.00     3.6720     3.1930    19.0250   215.0000    58.7198    24.9251   215.9000     0.9789
  3299.20     3.5310     3.1840    24.6290   215.0000    49.6663    25.9769   215.9000     0.9607
  3299.40     3.3500     3.1940    16.7960   215.0000    44.6124    26.0237   215.9000     1.0328
  3299.60     3.1280     2.9930    15.3850   215.1250    40.3481    24.9710   215.9000     1.0861
  3299.80     3.2410     3.1680    14.0310   215.2500    44.0689    28.1119   215.9000     1.1034
  3300.00     3.4690     3.1280    15.3740   215.2500    44.6957    26.8328   215.9000     1.0538
  3300.20     3.2940     3.1330    15.2910   215.2500    44.9766    27.8645   215.9000     1.0312
  3300.40     3.0960     3.0030    17.5320   215.2500    42.7729    28.3482   215.9000     1.0149
  3300.60     3.3240     3.1000    15.6220   215.6250    41.9575    26.7367   215.9000     0.9917
  3300.80     3.5560     3.1990    15.1150   216.0000    52.1335    23.8575   215.9000     0.9436
  3301.00     3.5140     3.2740    23.3120   215.9540    71.6126    24.1719   215.9000     0.8755
  3301.20     3.4100     3.2560    21.0630   215.7500    56.4550    25.1681   215.9000     0.8080
  3301.40     3.5820     3.2040    18.1090   215.7500    51.4812    23.6877   215.9000     0.7911
  3301.60     3.5760     3.2330    20.4320   215.5500    48.2074    26.5669   215.9000     0.8331
  3301.80     3.6600     3.2460    15.7050   215.8500    46.8462    26.8339   215.9000     0.8551
  3302.00     3.5990     3.2420    17.5740   216.0000    59.6864    26.4780   215.9000     0.8985
  3302.20     3.4690     3.1820    21.3830   216.0000    71.1140    25.9160   215.9000     0.9505
  3302.40     3.5730     3.3720    24.1390   216.0000    79.2097    26.3161   215.9000     1.0376
  3302.60     3.8590     3.2280    26.4910   215.7950    87.4721    24.2647   215.9000     1.0654
  3302.80     3.2900     3.2130    30.7670   214.9580    64.9231    25.7877   215.9000     0.9905
  3303.00     3.2790     3.1550    18.4510   214.7500    46.6198    27.9029   215.9000     0.8675
  3303.20     3.3500     3.3110    13.8260   214.7500    40.6998    30.7331   215.9000     0.8609
  3303.40     3.3240     3.0800    13.7970   215.0000    33.9589    32.2723   215.9000     0.8986
  3303.60     3.1440     3.1300    12.4090   215.0000    31.9440    33.7833   215.9000     0.9284
  3303.80     3.3290     3.2300    11.0230   215.0000    32.5225    35.6894   215.9000     0.9148
