~Version information
  VERS.                            1.20: CWLS LAS  -  VERSION 1.20
  WRAP.                              NO: One line per depth step
~Well information
# MNEM.UNIT
# ====.================================:===================
  STRT.M                        3148.00: First depth in file
  STOP.M                        3449.00: Last depth in file
  STEP.M                           0.20: Depth increment
  NULL.                            9999: Null values
  COMP.                         COMPANY: 
  WELL.                            WELL: 115 
  FLD .                           FIELD: íÌ§®≠·™†Ô
  CNTY.                          COUNTY: 
  STAT.                           STATE: 
  DATE.                        LOG DATE: 29-04-04
  SRVC.                 SERVICE COMPANY: 
  UWI.           Unique Well Identifier: 
~Parametr information block
# MNEM.UNIT
# ====.================================:===================
~Other information
# ------------------------- REMARKS  AREA ------------------
~Curve information
# MNEM.UNIT
# ====.================================:===================
  DEPT.M                               : Depth curve
SFND.1/CM                              : SFND
SFFD.1/CM                              : SFFD
TCND.                                  : àçíÖÉêÄãúçõâ ëóÖí, åÄãõâ áéçÑ / àçä
TCFD.                                  : àçíÖÉêÄãúçõâ ëóÖí, Å. áéçÑ / àçä
TCNC.                                  : äéåè.àçíÖÉê. ëóÖí, åÄãõâ áéçÑ / àçä
TCFC.                                  : äéåè.àçíÖÉêÄãúçõâ ëóÖí,Å.áéçÑ / àçä
~ASCII Log Data
# ...
  3360.00    14.1260     8.7560  5876.0000  1011.0000  6304.0000  2390.0000
  3360.20    14.4870     9.5920  6996.0000  1217.0000  7474.0000  2900.0000
  3360.40    13.1060    10.8530  5838.0000  1096.0000  6133.0000  2652.0000
  3360.60    11.0080    10.0710  7137.0000  1330.0000  7544.0000  3190.0000
  3360.80    11.5020    10.1220  6254.0000  1228.0000  6475.0000  2774.0000
  3361.00    13.2120    10.8090  5765.0000  1061.0000  6190.0000  2597.0000
  3361.20    13.3160     9.9970  7348.0000  1229.0000  8593.0000  2819.0000
  3361.40    13.2640     9.5030  7348.0000  1229.0000  8593.0000  2819.0000
  3361.60    13.1320     9.9230  5689.0000  1108.0000  5809.0000  2485.0000
  3361.80    12.3750    10.4380  5112.0000   950.0000  5445.0000  2112.0000
  3362.00    11.9970    10.7180  4693.0000   965.0000  5144.0000  2220.0000
  3362.20    13.4130    12.0060  5236.0000   831.0000  5610.0000  2207.0000
  3362.40    13.1220    12.1150  6866.0000   972.0000  7768.0000  2581.0000
  3362.60    13.3100    11.1430  6395.0000   929.0000  6813.0000  2344.0000
  3362.80    13.1240    10.5220  6105.0000   994.0000  6438.0000  2369.0000
  3363.00    13.2020     9.8600  6425.0000  1037.0000  7067.0000  2602.0000
  3363.20    12.9670     9.5790  7918.0000  1376.0000  8896.0000  3478.0000
  3363.40    12.1100     8.7150  5466.0000  1125.0000  5491.0000  2615.0000
  3363.60    11.8270     8.1360  5754.0000  1147.0000  6314.0000  2574.0000
  3363.80    13.3370     9.2920  7494.0000  1340.0000  8224.0000  3113.0000
  3364.00    12.6030     9.3810  5469.0000  1163.0000  5816.0000  2716.0000
  3364.20    13.2160     9.5350  5755.0000  1173.0000  5664.0000  2675.0000
  3364.40    11.8300     9.4500  5286.0000  1157.0000  5280.0000  2551.0000
  3364.60    11.3330     9.1390  5684.0000  1243.0000  5697.0000  2688.0000
  3364.80    13.3170     9.9140  7046.0000  1357.0000  7333.0000  3147.0000
  3365.00    12.0990     9.4690  5096.0000  1153.0000  5209.0000  2606.0000
  3365.20    13.5510     9.0890  7582.0000  1462.0000  8654.0000  3521.0000
  3365.40    12.5840     9.6600  6136.0000  1284.0000  6632.0000  2846.0000
  3365.60    12.8990     9.6620  5881.0000  1114.0000  6039.0000  2458.0000
  3365.80    13.0930    10.2540  7262.0000  1261.0000  7259.0000  2962.0000
  3366.00    12.0920    10.3840  6161.0000  1086.0000  6484.0000  2392.0000
  3366.20    11.9550    10.1750  6161.0000  1086.0000  6484.0000  2392.0000
  3366.40    12.5260     9.3510  6055.0000   993.0000  6368.0000  2328.0000
  3366.60    12.4040     8.1380  5894.0000  1074.0000  6418.0000  2389.0000
  3366.80    12.4450     8.6160  5613.0000  1055.0000  5747.0000  2286.0000
  3367.00    12.0740    10.2290  5351.0000   969.0000  5976.0000  2170.0000
  3367.20    12.3870     9.9830  5953.0000  1053.0000  6330.0000  2495.0000
  3367.40    12.7370     9.4560  8467.0000  1443.0000  8964.0000  3374.0000
  3367.60    12.7300     9.1410  7148.0000  1240.0000  7593.0000  2846.0000
  3367.80    13.0320     8.8910  6984.0000  1350.0000  7631.0000  3042.0000
  3368.00    11.8230     8.5700  5295.0000  1013.0000  5459.0000  2383.0000
  3368.20    12.0490     9.4580  5335.0000  1099.0000  5413.0000  2507.0000
  3368.40    13.6510     9.9260  5335.0000  1790.0000  5413.0000  4576.0000
  3368.60    13.2290    10.0850  4987.0000   999.0000  5123.0000  2212.0000
  3368.80    11.7720     9.0400  4809.0000   973.0000  5095.0000  2226.0000
  3369.00    13.2600     9.8440  5219.0000  1052.0000  5503.0000  2362.0000
  3369.20    11.8540    10.2670  5162.0000   970.0000  5196.0000  2235.0000
  3369.40    12.3340     9.3810  5477.0000   968.0000  5775.0000  2440.0000
  3369.60    12.2040     9.4570  4558.0000  1012.0000  4503.0000  2230.0000
  3369.80    11.9790     9.1760  4258.0000  1001.0000  4151.0000  2168.0000
  3370.00    11.3900     8.9160  5990.0000  1545.0000  5941.0000  3364.0000
  3370.20    11.2760     8.8080  6177.0000  1298.0000  6113.0000  3121.0000
  3370.40    11.2970     8.4270  5815.0000  1272.0000  6047.0000  2541.0000
  3370.60    12.1280     8.5960  5988.0000  1359.0000  6112.0000  2854.0000
  3370.80    12.2120     8.8500  5988.0000  1359.0000  6112.0000  2854.0000
  3371.00    11.8270     9.2170  5178.0000  1219.0000  5221.0000  2664.0000
  3371.20    11.2870     8.6700  6806.0000  1497.0000  7109.0000  3233.0000
  3371.40    11.2030     8.6760  4122.0000  1039.0000  4081.0000  2152.0000
  3371.60    11.0210     8.6240  4874.0000  1172.0000  4881.0000  2403.0000
  3371.80    10.9150     8.1130  4262.0000  1142.0000  4178.0000  2364.0000
  3372.00    10.3070     8.3690  4292.0000  1141.0000  4249.0000  2345.0000
  3372.20    10.2430     8.8540  5551.0000  1280.0000  5466.0000  2740.0000
  3372.40    11.2120     8.7180  5115.0000  1391.0000  5207.0000  2863.0000
  3372.60    11.5450     8.6640  4832.0000  1281.0000  4825.0000  2661.0000
  3372.80    10.8240     9.0510  4567.0000  1356.0000  4576.0000  2912.0000
  3373.00    10.7360     8.9570  4493.0000  1492.0000  4525.0000  3297.0000
  3373.20    11.6380     8.9710  5481.0000  1571.0000  5855.0000  3528.0000
  3373.40    11.5650     9.5290  3815.0000  1114.0000  3860.0000  2430.0000
  3373.60    12.0530     8.8750  5123.0000  1194.0000  5207.0000  2579.0000
  3373.80    11.3620     8.1420  4891.0000  1181.0000  5034.0000  2643.0000
  3374.00    11.4860     9.2490  4190.0000  1070.0000  4100.0000  2395.0000
  3374.20    11.4370     9.9970  5001.0000  1134.0000  5007.0000  2406.0000
  3374.40    11.8860     9.0790  4797.0000  1050.0000  4679.0000  2228.0000
  3374.60    12.2250     9.1720  5013.0000  1202.0000  5108.0000  2441.0000
  3374.80    11.8010     9.2520  4391.0000   982.0000  4280.0000  2172.0000
  3375.00    10.9710     9.4840  4487.0000   933.0000  4550.0000  1936.0000
  3375.20    12.4540     9.6740  6930.0000  1219.0000  7543.0000  2733.0000
  3375.40    12.1870     9.2130  4978.0000   959.0000  5011.0000  2264.0000
  3375.60    12.1310     9.5400  4978.0000   959.0000  5011.0000  2264.0000
  3375.80    13.0130    10.5000  6388.0000  1283.0000  7065.0000  2863.0000
  3376.00    10.9680    10.1530  4621.0000  1007.0000  4806.0000  2248.0000
  3376.20    11.2860     9.4500  5418.0000  1189.0000  5352.0000  2647.0000
  3376.40    11.4720     9.2490  5309.0000  1084.0000  5284.0000  2366.0000
  3376.60    11.7150     9.4570  5403.0000  1229.0000  5426.0000  2759.0000
  3376.80    11.9370     9.0640  7175.0000  1403.0000  7278.0000  3076.0000
  3377.00    11.5440     9.6430  3987.0000   993.0000  3961.0000  2020.0000
  3377.20    12.0930    10.0540  4612.0000  1218.0000  4714.0000  2624.0000
  3377.40    12.0840     9.3750  4904.0000  1287.0000  4870.0000  2814.0000
  3377.60    12.4350     9.3690  3592.0000  1023.0000  3448.0000  2178.0000
  3377.80    11.8010     9.3390  3804.0000  1074.0000  3866.0000  2300.0000
  3378.00    12.0920     8.8480  4179.0000  1142.0000  4314.0000  2579.0000
  3378.20    10.5200     9.4280  5250.0000  1627.0000  5488.0000  3796.0000
  3378.40    12.3880     9.1360  5598.0000  1792.0000  5765.0000  4239.0000
  3378.60    11.4530     9.2100  3908.0000  1320.0000  3976.0000  2969.0000
  3378.80    10.9360     9.0450  4880.0000  1448.0000  5195.0000  3023.0000
  3379.00    11.4580     8.9340  3934.0000  1015.0000  3948.0000  2164.0000
  3379.20    10.3500     9.6420  4166.0000   982.0000  4144.0000  2190.0000
  3379.40    11.6630     9.0750  5098.0000  1294.0000  5379.0000  2649.0000
  3379.60    12.3210     9.2010  4411.0000  1274.0000  4377.0000  2690.0000
  3379.80    12.1390     9.8980  4435.0000  1180.0000  4558.0000  2439.0000
  3380.00    12.0360     9.3870  4171.0000  1127.0000  4178.0000  2476.0000
  3380.20    12.7220     8.9100  4813.0000  1259.0000  5030.0000  2683.0000
  3380.40    13.0780     9.0360  6877.0000  1266.0000  6757.0000  2878.0000
  3380.60    13.0100     8.7430  6877.0000  1266.0000  6757.0000  2878.0000
  3380.80    11.7740     8.2800  4519.0000   916.0000  4911.0000  1930.0000
  3381.00    12.3170     8.8410  5708.0000  1223.0000  5821.0000  2729.0000
