~Version information
  VERS.                            1.20: CWLS LAS  -  VERSION 1.20
  WRAP.                              NO: One line per depth step
~Well information
# MNEM.UNIT
# ====.================================:===================
  STRT.M                        3140.00: First depth in file
  STOP.M                        3450.00: Last depth in file
  STEP.M                           0.20: Depth increment
  NULL.                            9999: Null values
  COMP.                         COMPANY: 
  WELL.                            WELL: 115 
  FLD .                           FIELD: íùÑàçëäÄü
  CNTY.                          COUNTY: 
  STAT.                           STATE: 
  DATE.                        LOG DATE: 30-04-04
  SRVC.                 SERVICE COMPANY: 
  UWI.           Unique Well Identifier: 
~Parametr information block
# MNEM.UNIT
# ====.================================:===================
~Other information
# ------------------------- REMARKS  AREA ------------------
~Curve information
# MNEM.UNIT
# ====.================================:===================
  DEPT.M                               : Depth curve
MINV.OHMM                              : äÄÜ.ëéèê.èé åàäêéÉêÄÑàÖçí áéçÑì
MNOR.OHMM                              : äÄÜ.ëéèêéíàÇãÖçàÖ å/èéíÖçñàÄã áéçÑÄ
MLL.OHMM                               : äÄÜ.ëéèê/åàäêéÅéäéÇéâ äÄêéíÄÜ/åä-ìñ
MCAL.MM                                : ÑàÄåÖíê äÄÇÖêçéåÖêÄ åä-ìñ
LL3.OHMM                               : äÄÜ.ëéèêéíàÇãÖçàÖ áéçÑÄ Åä-3 /ÄÅäí
CILA.MMHO                              : áéçÑ àä 7à1.6,Ääí.ëàÉçÄã/àä-è/Äàä-5
BS.                                    : Ñ≠Æ¨=215,9¨¨
GR.UR/H                                : ÖëíÖëíÇÖççÄü ÉÄååÄ-ÄäíàÇçéëíú èé Éä
~ASCII Log Data
# ...
  3320.40     3.2020     3.1850    18.3040   214.8410    40.7792    45.1304   215.9000     1.1087
  3320.60     3.2760     3.1730    20.0200   215.0000    40.8656    48.7355   215.9000     1.1247
  3320.80     3.2760     3.3540    21.8330   215.0000    37.4407    50.4417   215.9000     1.1774
  3321.00     3.4190     3.3170    15.4180   215.0000    31.9445    53.1348   215.9000     1.2247
  3321.20     3.2650     3.2560    13.9280   215.0000    29.5825    54.2572   215.9000     1.2307
  3321.40     3.5230     3.2040    15.1030   215.0000    32.1039    54.9660   215.9000     1.1046
  3321.60     3.3330     3.2140    16.8490   215.0000    30.9593    52.8316   215.9000     0.9796
  3321.80     3.4630     3.2670    14.2450   215.1500    28.1136    52.6714   215.9000     0.8936
  3322.00     3.4110     3.2160    14.4010   215.5000    23.0739    51.8239   215.9000     0.8508
  3322.20     3.4520     3.3700     9.4710   215.5000    23.9783    50.0522   215.9000     0.9349
  3322.40     3.3470     3.2850    10.8450   215.5000    26.2370    51.0393   215.9000     1.1482
  3322.60     3.1940     3.0850    10.4480   215.5000    23.0774    50.0884   215.9000     1.2664
  3322.80     3.1030     2.9820     9.4140   215.4540    20.9397    47.7946   215.9000     1.2534
  3323.00     2.5690     3.3130     8.2850   215.5000    24.2019    47.7050   215.9000     1.2014
  3323.20     2.7380     3.3910    11.3540   215.2500    30.8125    46.7749   215.9000     1.1553
  3323.40     3.7150     3.0960    11.2870   215.4380    33.5732    44.9216   215.9000     1.1959
  3323.60     3.3700     3.0540    12.7330   215.7500    38.1796    43.3209   215.9000     1.1317
  3323.80     3.3670     3.1420    14.9290   215.6250    44.2573    43.4202   215.9000     1.0289
  3324.00     3.3120     3.1820    19.1960   215.7500    34.7052    44.3669   215.9000     0.9873
  3324.20     3.1840     3.0620    14.3770   215.7500    29.6870    46.4840   215.9000     0.9355
  3324.40     2.9610     3.0280    11.0670   215.7490    30.9793    48.5114   215.9000     0.9216
  3324.60     2.9900     3.0720    15.3570   215.0000    37.3433    48.8877   215.9000     0.8583
  3324.80     3.2710     3.2390    20.8760   215.5250    34.7887    51.2084   215.9000     0.9090
  3325.00     3.1500     3.0680    15.6460   215.7500    29.7076    51.4231   215.9000     1.0472
  3325.20     3.1390     3.0960    13.4990   215.7500    27.0004    52.3200   215.9000     1.1458
  3325.40     3.0680     3.1080    11.3710   215.7500    24.8433    49.5724   215.9000     1.1595
  3325.60     3.1150     3.0210    11.1130   215.7500    26.0428    51.7746   215.9000     1.1294
  3325.80     2.9750     3.0570    11.6490   215.7500    27.6679    50.1206   215.9000     1.1016
  3326.00     2.9650     2.8380    13.2440   215.7500    32.4690    49.3309   215.9000     1.1706
  3326.20     3.4400     3.1040    17.4500   215.6750    36.4583    45.3610   215.9000     1.2021
  3326.40     3.0830     2.9540    17.7570   215.8640    31.1713    46.0863   215.9000     1.2222
  3326.60     2.6800     2.9780    15.1490   214.9090    27.3654    45.5373   215.9000     1.2097
  3326.80     2.8060     2.9240    13.9800   214.7500    27.0822    47.6963   215.9000     1.2816
  3327.00     2.9750     2.9720    14.5950   215.0000    25.9865    48.8275   215.9000     1.3102
  3327.20     3.1880     3.0670    13.9940   215.0000    27.9487    47.8684   215.9000     1.2530
  3327.40     3.1740     3.0100    15.9870   214.8330    30.1201    48.5421   215.9000     1.1783
  3327.60     3.2000     3.0850    17.5520   214.7500    32.0259    47.3566   215.9000     1.2010
  3327.80     3.1520     3.2110    17.9180   214.8180    38.2663    44.4260   215.9000     1.1814
  3328.00     3.4240     3.4650    21.1030   215.0000    67.9399    39.9223   215.9000     1.1727
  3328.20     5.3570     3.2560    40.3160   216.5010    98.8903    35.4571   215.9000     1.2285
  3328.40     5.0670     3.1880    36.1280   217.0670    79.7592    33.2317   215.9000     1.3186
  3328.60     2.9310     2.7770    51.4740   216.5250    72.4363    34.2352   215.9000     1.3867
  3328.80     3.9700     3.3080    53.1730   219.4770    70.7107    34.2191   215.9000     1.3970
  3329.00     5.9660     3.5410    41.3090   218.6240    55.8199    33.1224   215.9000     1.3332
  3329.20     5.9110     3.7220    21.2940   217.4520    47.8527    33.2227   215.9000     1.1912
  3329.40     3.9620     3.3600    34.0460   218.5910    43.4655    34.0832   215.9000     0.9606
  3329.60     4.9440     3.5150    28.3510   217.2950    43.9784    37.4839   215.9000     0.8388
  3329.80     4.4850     3.5480    27.0140   217.2510    44.2965    36.1038   215.9000     0.8398
  3330.00     5.2230     3.1890    27.5610   218.5000    40.0022    31.7059   215.9000     0.9349
  3330.20     6.7360     3.8570    25.3660   218.5000    39.0883    27.3505   215.9000     0.9880
  3330.40     6.2850     3.8150    18.8480   218.5000    55.0669    21.5853   215.9000     0.9282
  3330.60     5.0340     3.3970    23.9400   218.5000   106.8615    15.4121   215.9000     0.8533
  3330.80     6.6900     3.9950    97.8670   218.9990   235.1258    14.4681   215.9000     0.8000
  3331.00     6.5750     3.9440    51.7630   218.5000   233.1211    11.3514   215.9000     0.7650
  3331.20     6.3220     3.8480    47.9050   218.6840   306.3052    11.9011   215.9000     0.8400
  3331.40     6.4300     3.7450    19.9210   221.4100   513.8467     9.7072   215.9000     1.2168
  3331.60     3.5150     3.0520    11.1950   222.6240   815.1639    12.6046   215.9000     1.5156
  3331.80     3.9740     2.5570    43.5360   221.1500   880.4321    16.3612   215.9000     1.4707
  3332.00     2.8430     2.8130   153.9430   222.6590   335.0641    17.2460   215.9000     1.1287
  3332.20     5.4380     3.6940    39.9350   216.5000   174.6450    19.2652   215.9000     0.8959
  3332.40     5.2550     3.6520    34.0080   216.5000   120.9711    21.3861   215.9000     0.9115
  3332.60     5.3890     3.5570    24.8540   216.5000   103.4570    25.2085   215.9000     0.8974
  3332.80     5.5300     3.7110    25.0760   216.5000    92.7402    26.8068   215.9000     0.8224
  3333.00     5.6140     3.3610    30.3200   216.5000    93.9910    29.7127   215.9000     0.7099
  3333.20     5.0590     3.1980    26.9160   215.9740    83.3627    32.8704   215.9000     0.5953
  3333.40     3.1440     2.8980    32.6490   215.5000    74.9387    36.8890   215.9000     0.6215
  3333.60     3.1600     3.1170    39.5590   215.2500    54.6204    41.7264   215.9000     0.6492
  3333.80     2.9170     3.0340    25.8440   215.5000    53.7789    43.7393   215.9000     0.6528
  3334.00     3.2190     3.1540    29.8150   215.5000    66.2531    43.8197   215.9000     0.6496
  3334.20     3.2610     3.2310    36.6740   215.5000    73.6546    41.7336   215.9000     0.6445
  3334.40     3.6420     3.2560    49.5300   215.5000    58.1890    36.9622   215.9000     0.6679
  3334.60     3.0620     3.0710    35.9770   215.5000    41.4111    38.9506   215.9000     0.5820
  3334.80     3.2290     3.1000    20.0800   215.5000    27.6964    40.3389   215.9000     0.4464
  3335.00     2.8500     2.9890    14.4440   215.2500    21.1902    43.6549   215.9000     0.4198
  3335.20     3.1060     2.9650    11.6460   214.7500    20.7095    48.2749   215.9000     0.5164
  3335.40     2.9080     2.9460    11.2780   214.7500    31.3685    49.1708   215.9000     0.6381
  3335.60     3.2360     3.2020    18.4900   215.5000    38.4879    44.0181   215.9000     0.6338
  3335.80     3.3440     2.9280    18.5150   215.5000    40.1408    40.1585   215.9000     0.5317
  3336.00     3.2910     2.9970    18.7380   215.5000    42.9419    35.8068   215.9000     0.4690
  3336.20     2.6580     2.8150    19.6620   215.5000    40.2502    36.7880   215.9000     0.4891
  3336.40     2.7000     2.8500    18.5190   215.5000    39.6814    38.5985   215.9000     0.5308
  3336.60     2.6560     2.9100    19.7780   215.5000    39.3168    40.0017   215.9000     0.5877
