~Version Information
#-------------------
Vers.        2.0: CWLS log ASCII Standart - VERSION 2.0
WRAP.         NO: One line per depth step
~Well Information Block
#----------------------
#MNEM.UNIT  VALUE: DESCRIPTION
#----.---- -------: -------------
STRT.M     90.00: 
STOP.M    460.00: 
STEP.M      0.20:  
NULL.  -9999.990:  
COMP.           : 
WELL.           : 115
FLD .           : Тэдинская
LOC .           : 
CNTY.           : 
SRVC.           : 
DATE.           : 21-03-04
UWI .           : 
~Parameter Information
#---------------------
#MNEM.UNIT  VALUE: DESCRIPTION
#----.---- -------: ---------------
~Curve Information Block
#-----------------------
#MNEM.UNIT       : CURVE DESCRIPTION
#----.----       : -----------------
DEPT.M          : 
Aя  .           : Амплитуда - волна по колонне 
Tя  .мкс        : Время пробега - волна по породе
Aъ  .           : Амплитуда - волна по породе
DK  .дБ         : Затухание
akz .           : контакт цемент-колонна
~Other Information
#-----------------
~Ascii Log Data
# ...
       330     88.253    717.262          0     62.292          4 
     330.2     70.245    700.859     23.679      46.87          4 
     330.4     81.299    675.075     53.728      28.52          4 
     330.6     80.517    673.506     23.804     34.766          4 
     330.8     43.712    710.215     21.931     35.478          4 
       331     42.931    866.663     18.139     33.806          4 
     331.2     80.185    943.082     37.992     30.736          4 
     331.4     83.497    940.301     66.292     26.267          4 
     331.6     75.342    879.746     72.246     23.135          4 
     331.8     78.767     730.61     56.495     25.285          4 
       332     82.192    672.316     67.016     25.888          4 
     332.2     89.041     707.71     57.551     27.616          4 
     332.4     78.767    728.112     42.861     30.131          4 
     332.6     78.767    694.156     72.771     25.086          4 
     332.8     71.918    730.976     48.783     29.189          4 
       333     65.068    806.195     32.673     32.055          4 
     333.2     61.644    797.269     24.429     34.748          4 
     333.4     56.597    731.612       11.1     41.988          4 
     333.6     98.106    715.373       6.87     47.153          4 
     333.8      94.26    710.275        1.5     57.596          4 
       334     50.876    720.495      2.933     55.996          4 
     334.2     23.908    766.479        4.4     52.847          4 
     334.4      9.383     783.49          0     62.292          4 
     334.6     17.123    805.807          0     62.292          4 
     334.8     17.123     794.54          0     62.292          4 
       335     62.831    770.982          0     62.292          4 
     335.2     69.767    789.996      0.833     59.639          4 
     335.4     46.205    808.218      0.833     59.639          4 
     335.6     38.812    788.554          0     62.292          4 
     335.8     27.371    771.319          0     62.292          4 
       336     11.102    749.352          0     62.292          4 
     336.2     27.617    739.274      1.408      58.12          4 
     336.4     52.956    868.108      3.192     53.607          4 
     336.6     50.694   1163.917      0.375     61.951          4 
     336.8     45.861   1167.023          0     62.292          4 
       337     59.805   1010.106      3.042     55.891          4 
     337.2     55.083    868.088     10.833     41.797          4 
     337.4     68.126    725.969     32.083     33.096          4 
     337.6    154.724    689.457      27.05     34.235          4 
     337.8    221.175    685.283     24.657      34.49          4 
       338    230.471    687.198     34.529     32.094          4 
     338.2    239.996    685.374     60.963     26.976          4 
     338.4    261.898    684.238     41.306     30.962          4 
     338.6    257.175    685.034     32.378      33.07          4 
     338.8    249.361    685.352     40.445     30.425          4 
       339    272.242     684.04     42.806      29.79          4 
     339.2    268.394    683.038     50.118     28.305          4 
     339.4    216.441     685.38     56.013     27.338          4 
     339.6    179.315    686.901     65.836     28.846          4 
     339.8    181.579    687.948     69.748     27.827          4 
       340    198.881    684.735      54.11     30.047          4 
     340.2    215.269    687.002     46.567     29.074          4 
     340.4    205.505    691.145     43.938     30.032          4 
     340.6    179.024    691.322     16.077     38.596          4 
     340.8    159.385    693.978     12.911      40.25          4 
       341    155.293    696.771     18.378     38.644          4 
     341.2    170.825    694.514     48.363     29.194          4 
     341.4    182.016    694.236     74.382     24.863          4 
     341.6    168.934    694.733     69.399     25.494          4 
     341.8    143.087    694.905      73.03     25.023          3 
       342      101.3    697.149     61.878     26.544          3 
     342.2     92.466    673.919     71.663     25.339          3 
     342.4     99.315    631.399     97.482     22.587          3 
     342.6     102.74    623.045    122.176     20.558          3 
     342.8    151.744    622.721     146.72     19.011          3 
       343    182.044    623.119    173.896     16.956          3 
     343.2    198.608    623.417    199.353     16.317          3 
     343.4    205.836    623.242    207.258     15.967          3 
     343.6    200.795    623.323    214.747     15.661          3 
     343.8    184.932    623.866    171.927      17.75          3 
       344     198.63    630.979    130.815     20.534          3 
     344.2    174.658    654.172     65.103     26.944          3 
     344.4    184.932    644.925    116.362     22.021          3 
     344.6    140.411    629.688    126.111     19.683          3 
     344.8     106.73     628.65      99.72     22.321          4 
       345     88.966    626.383     95.729     22.671          4 
     345.2     82.592    639.912     85.555      23.71          4 
     345.4     92.466    723.851     68.565     25.593          4 
     345.6     92.466    867.025     46.116     29.244          4 
     345.8     92.466    870.807     32.833     32.027          4 
       346     99.401    838.551     27.083     33.854          4 
     346.2    116.438    833.812     21.083     35.834          4 
     346.4    133.562    752.652     87.403     27.013          4 
     346.6     92.466    661.754    120.667      21.49          4 
     346.8    115.331    648.731     56.862     27.196          4 
       347    109.744    646.409     69.824     25.485          3 
     347.2      95.89    639.408     77.068     23.508          3 
     347.4      95.89    636.317      86.11     23.662          3 
     347.6    188.356    620.889    111.709     21.392          3 
     347.8    188.356    618.196    161.686     18.203          3 
       348    181.507    618.071    129.444      20.43          3 
     348.2     122.72    618.001     96.595     21.959          3 
     348.4    148.847    617.958    141.745     18.575          2 
     348.6    175.526    617.933    167.691     17.312          2 
     348.8    190.645     617.97    186.679     16.875          2 
       349    201.594    617.911    205.912     16.024          2 
     349.2    203.696    617.902    203.989     16.111          2 
     349.4    209.618    618.319    197.303     16.402          2 
     349.6    231.115    618.315     238.82     14.759          2 
     349.8     238.33    618.458    246.904     14.443          2 
       350    220.144    618.294    221.464     15.409          2 
     350.2    195.236    618.212    205.278     16.926          2 
     350.4    177.556    618.611    194.213     17.407          2 
     350.6    160.085    618.693    159.918     18.301          2 
     350.8    147.148    619.003    141.874     19.264          2 
       351    147.613    620.525    149.276     18.813          2 
     351.2    146.004    621.383    151.774      18.67          2 
     351.4    132.574    621.797    132.778     19.884          3 
     351.6    133.562    621.717    113.681     21.194          3 
     351.8    130.137    621.439    107.034     21.703          3 
       352    130.137    621.061     107.87     21.645          3 
     352.2    126.712    620.778     99.002     22.383          3 
     352.4    111.312    621.604    119.216     20.863          3 
     352.6    108.108    621.564    116.554     21.879          3 
     352.8    108.799    621.812    106.225     21.783          3 
       353     114.77    623.484     127.07     20.284          3 
     353.2    178.082    624.354    139.695     19.403          3 
     353.4    178.082    656.825     79.145     27.173          3 
     353.6    109.589    678.596      58.13     29.829          3 
     353.8    126.712    638.425    115.262     21.138          3 
