~Version information
  VERS.                            1.20: CWLS LAS  -  VERSION 1.20
  WRAP.                              NO: One line per depth step
~Well information
# MNEM.UNIT
# ====.================================:===================
  STRT.M                        3140.00: First depth in file
  STOP.M                        3450.00: Last depth in file
  STEP.M                           0.20: Depth increment
  NULL.                            9999: Null values
  COMP.                         COMPANY: 
  WELL.                            WELL: 115 
  FLD .                           FIELD: íùÑàçëäÄü
  CNTY.                          COUNTY: 
  STAT.                           STATE: 
  DATE.                        LOG DATE: 30-04-04
  SRVC.                 SERVICE COMPANY: 
  UWI.           Unique Well Identifier: 
~Parametr information block
# MNEM.UNIT
# ====.================================:===================
~Other information
# ------------------------- REMARKS  AREA ------------------
~Curve information
# MNEM.UNIT
# ====.================================:===================
  DEPT.M                               : Depth curve
GZ5.OHMM                               : äÄÜ. ëéèêéíàÇãÖçàÖ áéçÑÄ A8.0M1.0N
GZ4.OHMM                               : äÄÜ. ëéèêéíàÇãÖçàÖ áéçÑÄ A4.0M0.5N
GZ3.OHMM                               : äÄÜ. ëéèêéíàÇãÖçàÖ áéçÑÄ A2.0M0.5N
GZ2.OHMM                               : äÄÜ. ëéèêéíàÇãÖçàÖ áéçÑÄ A1.0M0.1N
GZ1.OHMM                               : äÄÜ.ëéèêéíàÇãÖçàÖ áéçÑÄ A0.4M0.1N
PZ.OHMM                                : äÄÜ.ëéèê.èé èéíÖçñàÄãáéçÑì Ä0.5å6.5N
RRB.OHMM                               : ëéèêéíàÇã.èêéåõÇéóç.ÜàÑäéëíà èÖêÇàó.
CALI.MM                                : ëìååÄêçõâ ÑàÄåÖíê äÄÇÖêçéåÖêÄ
CILA.MMHO                              : áéçÑ àä 7à1.6,Ääí.ëàÉçÄã/àä-è/Äàä-5
SP.MV                                  : ÖëíÖëíÇÖççÄü ëÄåéèéãüêàáÄñàü èé èë
BS.                                    : Ñ≠-216¨¨
GR.UR/H                                : ÖëíÖëíÇÖççÄü ÉÄååÄ-ÄäíàÇçéëíú èé Éä
GZB.OHMM                               : GZB
~ASCII Log Data
# ...
  3235.40   635.6044   559.8978   237.6972    71.7997    15.5125    93.6530     0.9051   214.4150     6.6519   308.5375   215.9000     1.4102   108.3333
  3235.60   671.0838   563.7573   239.9740    72.8892    15.7500    90.1760     0.9065   214.0363     6.8249   310.6701   215.9000     1.2783   106.7491
  3235.80   689.0000   564.9695   238.9409    72.7589    15.7515    86.7761     0.8965   214.0837     6.9035   311.8443   215.9000     1.2247   105.6823
  3236.00   693.7500   541.8411   227.5658    72.7038    15.6711    83.8284     0.9042   214.4776     7.4078   315.5150   215.9000     1.1624   111.3146
  3236.20   693.5000   494.0950   205.3588    64.3055    13.4904    82.2231     0.8899   214.1849     8.1938   318.4420   215.9000     1.1930   124.4952
  3236.40   687.8754   448.9469   185.4053    54.6008    11.7500    80.7888     0.8891   215.5447     9.1586   320.0069   215.9000     1.2926   133.5208
  3236.60   670.6317   434.8480   180.9529    54.4789    11.7500    80.2155     0.8907   214.3314    10.2733   322.2960   215.9000     1.3824   132.2309
  3236.80   659.0000   428.6667   178.3931    53.9185    11.7500    80.2101     0.8860   214.1626    10.6486   321.8717   215.9000     1.4379   129.7155
  3237.00   664.0000   420.0690   175.1232    51.9396    11.7500    80.2928     0.8857   214.7982    10.3755   323.2378   215.9000     1.6398   128.1201
  3237.20   668.7500   409.4343   171.6167    51.6779    11.7593    79.9921     0.8808   215.0798     9.2869   324.2812   215.9000     1.9042   127.1903
  3237.40   669.0000   400.6816   167.5108    51.1545    11.9277    79.3682     0.8948   214.2507     8.6777   329.0509   215.9000     1.9495   126.8811
  3237.60   674.1041   390.5293   162.8336    50.6810    11.7536    79.0069     0.8912   215.1752     9.0784   329.7790   215.9000     1.6603   128.0092
  3237.80   681.1457   389.2527   161.5299    51.7446    11.8590    78.1669     0.8960   215.0661     9.6293   330.8877   215.9000     1.4223   125.6791
  3238.00   687.4917   392.7693   164.5026    54.3672    12.5974    77.3423     0.8958   213.6960    10.1953   335.2055   215.9000     1.4732   120.7605
  3238.20   695.2348   401.1710   167.6169    56.8259    13.2750    76.0720     0.8918   214.3206     9.9963   339.3914   215.9000     1.5913   115.6924
  3238.40   695.8636   399.7057   167.9637    59.6427    13.7374    74.4931     0.8895   213.8414    10.1176   339.6897   215.9000     1.5947   115.1082
  3238.60   687.8750   385.4088   165.5367    57.0803    13.4400    72.9815     0.8993   212.8562    10.5548   340.1525   215.9000     1.5259   119.2818
  3238.80   670.1603   360.5647   157.7749    53.5063    12.2915    71.9684     0.9056   213.1497    11.1106   340.3224   215.9000     1.4251   124.3413
  3239.00   648.0463   341.2977   150.3149    51.5105    11.7500    71.2827     0.8986   213.2485    12.0492   339.5044   215.9000     1.3456   128.1201
  3239.20   620.4629   327.2244   146.8342    50.6771    11.7500    71.0701     0.9112   213.4876    13.4402   341.6177   215.9000     1.2564   127.8543
  3239.40   605.1113   318.4131   145.6658    50.5435    11.7760    70.7172     0.9133   214.2469    14.1136   344.1336   215.9000     1.1597   125.5543
  3239.60   594.9313   311.0168   145.0327    50.4770    12.2500    70.4356     0.8999   214.3601    13.1068   345.1064   215.9000     0.9916   123.1768
  3239.80   585.5358   301.1453   144.2205    50.4512    12.2500    69.6844     0.8767   214.3679    12.9069   344.8177   215.9000     0.7703   121.4906
  3240.00   578.5000   293.6658   143.2111    49.9382    12.2268    69.2623     0.8514   214.4391    12.7448   342.2192   215.9000     0.6805   119.5866
  3240.20   573.4373   284.2886   140.6046    49.3584    11.7603    69.0400     0.8396   213.6870    12.2616   344.6504   215.9000     0.6531   121.6346
  3240.40   567.3077   276.8743   136.4549    46.5833    11.2854    69.0366     0.8319   214.1642    13.2898   345.6978   215.9000     0.6748   124.8000
  3240.60   563.6250   275.3935   135.1886    47.2243    11.2034    68.9792     0.8301   214.7649    13.4159   347.0209   215.9000     0.7121   121.4808
  3240.80   560.8750   280.1212   138.6518    48.9292    11.6868    69.1131     0.8318   218.5161    12.2921   346.1552   215.9000     0.7549   112.6056
  3241.00   553.7500   282.4999   139.7525    50.8453    12.0473    69.0012     0.8281   224.8478    12.1616   344.6982   215.9000     0.7886   106.9131
  3241.20   553.5000   284.0078   142.1341    50.1310    11.7829    68.2069     0.8296   224.1037    10.0022   347.1941   215.9000     0.7583   107.5479
  3241.40   548.5000   285.4799   145.5061    52.7725    12.4241    67.0720     0.8223   215.8384     9.9601   345.5059   215.9000     0.7084   107.5624
  3241.60   543.7143   289.7274   148.6799    54.6274    12.7500    66.0245     0.8274   216.3251    11.3029   346.2950   215.9000     0.7172   105.6730
  3241.80   542.6964   290.5576   151.7263    55.1262    12.7833    64.4356     0.8350   217.0674    11.8481   347.0515   215.9000     0.7437   104.5745
  3242.00   535.2795   295.6276   155.7280    57.0906    13.4545    62.4989     0.8348   215.9765    11.7806   350.1692   215.9000     0.8350   103.5742
  3242.20   516.0432   299.4867   159.1835    60.5072    14.0875    60.8314     0.8311   215.6996    12.3179   348.4733   215.9000     0.8890   104.9497
  3242.40   497.9260   273.4426   146.4026    48.4486    12.4606    60.5216     0.8142   216.0797    12.9543   346.8281   215.9000     0.8278   119.0722
  3242.60   481.3552   241.5473   130.8198    44.3383    10.2907    59.5359     0.8191   217.2272    13.2758   346.2271   215.9000     0.7442   132.3791
  3242.80   458.4420   242.2138   130.9522    47.7562    11.1116    58.9856     0.8210   215.9768    15.2799   347.5380   215.9000     0.6960   134.2242
  3243.00   434.9747   248.3011   137.5511    50.2648    12.0299    58.7402     0.8205   214.9461    15.1721   349.6311   215.9000     0.7887   127.8354
  3243.20   421.9778   220.4963   123.9534    45.5489    11.7298    59.6707     0.8109   216.3387    15.2077   349.4363   215.9000     1.1336   144.3929
  3243.40   407.6390   195.1093   104.4877    33.0083     8.2688    60.7475     0.8285   215.9058    13.0748   351.1946   215.9000     2.0401   160.4084
  3243.60   385.6691   183.3633    97.1474    34.6012     8.6406    61.8746     0.8190   219.8276    15.5049   352.7697   215.9000     2.8177   168.7037
  3243.80   362.3181   190.0217   101.2892    37.1001     8.9454    63.4074     0.8188   215.7111    13.7503   353.9803   215.9000     2.7383   161.1389
  3244.00   352.4568   195.9166   104.5428    39.5981     9.5278    66.4162     0.8138   215.5696    13.8592   354.4082   215.9000     2.0343   153.9000
  3244.20   343.4160   190.2327   100.2749    36.7151    10.2605    68.6881     0.8088   214.7021    10.6791   355.8655   215.9000     1.9509   159.5810
  3244.40   336.6237   181.2214    94.3260    34.3651     8.7813    70.7280     0.8043   215.6145     9.4319   354.4836   215.9000     2.4465   163.7101
  3244.60   327.7803   180.2825    94.2520    36.8070     9.4105    72.7431     0.8088   214.5357    10.2311   352.2469   215.9000     2.5018   159.3988
  3244.80   321.2500   189.7829   100.0390    40.6996    10.1182    75.0086     0.8038   214.8108     9.8927   352.6319   215.9000     1.8855   150.3467
  3245.00   321.2500   197.4355   106.9735    42.9567    10.7875    76.1787     0.7990   215.0725     9.5083   355.1068   215.9000     1.4530   142.3789
  3245.20   321.2500   202.6664   111.1225    45.2845    11.5125    76.8768     0.7990   214.7201     8.7834   358.0475   215.9000     1.7545   136.3237
  3245.40   320.8750   207.2730   114.7261    47.1122    11.7583    76.8945     0.7988   214.6802     7.9494   356.2741   215.9000     2.0820   131.3549
  3245.60   313.7500   207.2730   115.9856    48.8086    11.8942    76.8912     0.7962   214.2764     8.9213   356.7154   215.9000     1.9646   129.6227
  3245.80   313.5000   207.5154   119.0193    48.5835    11.5281    76.2626     0.7990   214.8499     8.8548   357.4167   215.9000     1.5315   125.2655
