~Version information
  VERS.                            1.20: CWLS LAS  -  VERSION 1.20
  WRAP.                              NO: One line per depth step
~Well information
# MNEM.UNIT
# ====.================================:===================
  STRT.M                        3148.00: First depth in file
  STOP.M                        3438.00: Last depth in file
  STEP.M                           0.20: Depth increment
  NULL.                            9999: Null values
  COMP.                         COMPANY: 
  WELL.                            WELL: 115 
  FLD .                           FIELD: íÌ§®≠·™†Ô
  CNTY.                          COUNTY: 
  STAT.                           STATE: 
  DATE.                        LOG DATE: 28-04-04
  SRVC.                 SERVICE COMPANY: 
  UWI.           Unique Well Identifier: 
~Parametr information block
# MNEM.UNIT
# ====.================================:===================
~Other information
# ------------------------- REMARKS  AREA ------------------
~Curve information
# MNEM.UNIT
# ====.================================:===================
  DEPT.M                               : Depth curve
IZ2.DEG                                : îÄáÄ1(ÉêÄÑ)
IZ3.DEG                                : îÄáÄ2(ÉêÄÑ)
IZ4.DEG                                : îÄáÄ3(ÉêÄÑ)
IZ5.DEG                                : îÄáÄ4(ÉêÄÑ)
IZ1.DEG                                : îÄáÄ5(ÉêÄÑ)
VIK1.OHMM                              : É0.4à0.1à(éåå)
VIK5.OHMM                              : É0.57à0.14à(éåå)
VIK4.OHMM                              : É0.8à0.2à(éåå)
VIK3.OHMM                              : É1.13à0.28à(éåå)
VIK2.OHMM                              : É1.6à0.4à(éåå)
~ASCII Log Data
# ...
  3335.60    11.9700    13.7700    10.1400     8.5900     8.1600     9.3800     7.2100    11.5750    15.1400    16.3650
  3335.80     9.8100    12.0450     9.2800     7.7800     7.5300    12.7850     9.1200    13.1250    17.2000    18.2400
  3336.00     8.4600    10.3650     8.6300     7.3950     7.2150    15.0150    11.4350    14.4650    18.4150    19.2200
  3336.20     8.3550     9.4750     8.2850     7.3500     7.0550    14.9800    12.8250    15.5650    18.5650    19.6800
  3336.40     8.7600     9.2900     7.9000     7.3350     6.9850    14.1150    13.0250    16.8950    18.7300    19.9150
  3336.60     9.1750     9.3850     7.6050     7.2000     7.0200    12.8900    12.4950    17.7300    19.3700    19.7250
  3336.80     9.5950     9.6250     7.4800     6.9100     7.0100    12.6750    12.0450    18.5050    20.7350    19.7000
  3337.00     9.1300     9.4850     7.1350     6.4100     6.8900    13.3200    12.3750    19.6900    23.0300    20.3300
  3337.20     9.0050     9.6350     7.2000     6.2550     6.8900    12.9250    12.0500    18.7800    23.3500    20.2200
  3337.40     9.2600    10.1050     7.7300     6.6100     7.1050    12.9950    11.5300    16.9950    21.1250    19.0200
  3337.60     8.7650    10.1550     8.0300     7.0600     7.5200    14.5650    11.6050    16.1350    19.0350    17.5000
  3337.80     8.6400    10.0550     8.3350     7.5900     8.1150    14.3300    11.2200    14.9650    17.1100    15.5500
  3338.00     9.2950    10.6000     9.0050     8.3750     8.9250    12.5150    10.1100    13.2800    14.8050    13.4800
  3338.20    10.0600    11.7200     9.9700     9.3900     9.9450    11.5100     8.7750    11.3100    12.3250    11.4050
  3338.40    10.6200    12.9900    11.3500    10.8100    11.2350    10.5750     7.3950     9.1050     9.8250     9.2900
  3338.60    11.1850    14.4800    13.2450    12.6550    12.8250     9.4850     6.2200     7.1200     7.6450     7.4300
  3338.80    12.0800    16.0750    15.2100    14.4900    14.3350     8.4550     5.2750     5.7400     6.1750     6.2450
  3339.00    12.6050    17.2500    16.6700    15.9250    15.3900     8.2400     4.7200     4.9650     5.3650     5.7100
  3339.20    12.0150    17.3300    17.1050    16.4950    15.7000     9.0400     4.7700     4.8550     5.1400     5.6300
  3339.40    10.9850    16.4200    16.4750    16.0650    15.1700    10.4300     5.3550     5.3150     5.4950     6.0200
  3339.60    10.2800    15.3200    15.4150    15.1700    14.3800    11.4650     6.0200     5.9000     6.0550     6.5750
  3339.80    10.6600    14.8250    14.8350    14.6600    13.8800    10.4850     6.1350     6.1900     6.3200     6.9000
  3340.00    11.3650    14.6400    14.3650    14.5300    13.6800     9.3700     6.3400     6.7050     6.4550     7.0750
  3340.20    10.9750    13.8150    12.9800    13.5850    13.2850    10.0950     7.1450     8.0800     7.4000     7.5250
  3340.40     9.9700    12.8500    11.5850    12.1700    12.6750    11.7300     7.8100     9.3550     8.6950     8.0500
  3340.60     9.5200    12.7300    11.2500    11.4450    12.3500    12.6750     7.8700     9.5800     9.4300     8.3900
  3340.80     9.2050    12.4700    11.1400    10.9050    12.1100    13.6150     8.3100     9.8550    10.2700     8.7050
  3341.00     8.6250    11.7550    10.6150    10.2200    11.6800    14.9600     9.0900    10.7600    11.3050     9.2350
  3341.20     8.4850    11.5600    10.3300     9.9700    11.3700    14.8700     9.1150    10.9900    11.4550     9.5100
  3341.40     9.0000    12.0400    10.8550    10.4750    11.5300    13.5400     8.5100    10.0350    10.4700     9.0900
  3341.60     9.9200    12.8000    11.8000    11.4300    12.1450    11.3800     7.5750     8.7350     9.1600     8.3750
  3341.80    10.5900    13.6850    12.6150    12.2950    12.7450    10.1650     6.8000     7.8500     8.2000     7.7650
  3342.00    10.4500    14.3100    13.0800    12.7500    13.1050    10.9100     6.4850     7.5250     7.7600     7.5000
  3342.20    10.0750    14.5550    13.3750    12.8850    13.2150    11.5350     6.2950     7.2750     7.5800     7.4600
  3342.40    10.0900    14.6850    13.7350    13.0300    13.0750    11.4850     6.2450     6.9350     7.5100     7.5750
  3342.60     9.9450    14.4600    13.7950    12.9800    12.7900    12.0450     6.5650     6.9550     7.6900     7.9400
  3342.80     9.4400    13.5950    13.2550    12.4900    12.2250    12.8200     7.2500     7.5650     8.2450     8.6000
  3343.00     9.3700    12.6850    12.4250    11.9300    11.5100    12.7350     7.9900     8.4100     8.9050     9.3650
  3343.20     9.3550    11.9850    11.5300    11.3900    11.0400    13.1500     8.9900     9.5050     9.6200     9.9150
  3343.40     8.6650    11.0600    10.6350    10.7600    10.7700    14.4250    10.3200    10.9400    10.5750    10.3750
  3343.60     8.4200    10.3850     9.9400    10.2700    10.6100    14.6450    11.0800    11.9550    11.3300    10.6300
  3343.80     8.5150    10.1150     9.5350     9.9300    10.5200    14.8200    11.3650    12.6450    11.8700    10.7600
  3344.00     8.3950    10.0900     9.3000     9.5900    10.3800    15.0050    11.3800    13.1700    12.5150    10.9250
  3344.20     8.2300    10.2000     9.2100     9.3400    10.2900    15.5700    11.3750    13.3000    12.9550    11.0100
  3344.40     8.2250    10.1650     9.2550     9.2100    10.2700    15.4900    11.1900    13.0750    13.0950    11.1650
  3344.60     8.4850    10.5950     9.5150     9.3600    10.3100    14.5100    10.3600    12.3450    12.7000    11.1200
  3344.80     8.9350    11.2050    10.0300     9.7900    10.4750    13.6350     9.5450    11.2050    11.8600    10.7500
  3345.00     9.4300    11.7500    10.5800    10.2650    10.7100    12.6650     8.8100    10.3050    11.0700    10.3950
  3345.20     9.5550    12.1950    10.9650    10.6000    10.8350    12.3250     8.3700     9.9600    10.5700    10.1550
  3345.40     9.5300    12.4550    11.2050    10.7150    10.8600    12.4450     8.2450     9.7000    10.4350    10.1000
  3345.60     9.2150    12.3250    11.0550    10.6050    10.7600    13.3150     8.5600     9.9450    10.6850    10.3400
  3345.80     8.6700    11.6850    10.6150    10.3300    10.5500    14.5050     9.3100    10.6850    11.1250    10.7350
  3346.00     8.3100    11.1950    10.2700    10.1150    10.4000    15.6700     9.8800    11.2550    11.4400    10.9300
  3346.20     8.1700    10.7950    10.0850    10.1000    10.4450    15.9300    10.3050    11.5300    11.3700    10.7500
  3346.40     8.4100    10.7850    10.2300    10.3450    10.7200    14.8150    10.1500    11.2600    10.8350    10.3150
  3346.60     8.6400    11.0300    10.4450    10.6350    11.0400    14.2350     9.8500    10.8800    10.5100     9.9200
  3346.80     8.5850    11.1700    10.3950    10.6350    11.1200    14.6550     9.8200    10.8800    10.6950     9.8850
  3347.00     8.4900    11.2550    10.3200    10.4250    11.0250    14.9350     9.7200    10.9750    10.9700    10.0150
  3347.20     8.5250    11.2400    10.3900    10.2550    10.9850    14.8200     9.6050    10.9350    11.1150    10.0650
  3347.40     8.7450    11.3650    10.5150    10.2750    11.0350    14.1050     9.4000    10.7200    10.9800     9.9550
  3347.60     9.0050    11.5500    10.6650    10.4800    11.1850    13.1600     9.2150    10.3900    10.5600     9.6450
  3347.80     9.4300    12.0950    10.9250    10.8850    11.4700    12.6650     8.5850     9.8800    10.0000     9.2400
  3348.00     9.6500    12.5100    11.3800    11.3050    11.8450    12.6050     8.0300     9.2950     9.3900     8.7800
  3348.20     9.6400    12.6550    11.9250    11.6500    12.2650    12.2750     7.8500     8.6900     8.9450     8.3050
  3348.40     9.9700    13.1250    12.5200    12.3100    12.7050    11.4350     7.4250     7.9650     8.2350     7.8250
  3348.60    10.2950    13.6150    13.1300    13.0150    13.2450    11.1000     7.0650     7.4600     7.5100     7.3250
  3348.80    10.3250    13.7500    13.3650    13.4000    13.8050    11.1450     6.9650     7.2950     7.2000     6.8900
