~Version information
  VERS.                            1.20: CWLS LAS  -  VERSION 1.20
  WRAP.                              NO: One line per depth step
~Well information
# MNEM.UNIT
# ====.================================:===================
  STRT.M                        3148.00: First depth in file
  STOP.M                        3449.00: Last depth in file
  STEP.M                           0.20: Depth increment
  NULL.                            9999: Null values
  COMP.                         COMPANY: 
  WELL.                            WELL: 115 
  FLD .                           FIELD: íÌ§®≠·™†Ô
  CNTY.                          COUNTY: 
  STAT.                           STATE: 
  DATE.                        LOG DATE: 29-04-04
  SRVC.                 SERVICE COMPANY: 
  UWI.           Unique Well Identifier: 
~Parametr information block
# MNEM.UNIT
# ====.================================:===================
~Other information
# ------------------------- REMARKS  AREA ------------------
~Curve information
# MNEM.UNIT
# ====.================================:===================
  DEPT.M                               : Depth curve
SFND.1/CM                              : SFND
SFFD.1/CM                              : SFFD
TCND.                                  : àçíÖÉêÄãúçõâ ëóÖí, åÄãõâ áéçÑ / àçä
TCFD.                                  : àçíÖÉêÄãúçõâ ëóÖí, Å. áéçÑ / àçä
TCNC.                                  : äéåè.àçíÖÉê. ëóÖí, åÄãõâ áéçÑ / àçä
TCFC.                                  : äéåè.àçíÖÉêÄãúçõâ ëóÖí,Å.áéçÑ / àçä
~ASCII Log Data
# ...
  3423.60    14.4700    10.9390  4953.0000  1053.0000  5341.0000  2794.0000
  3423.80    13.7620    11.4000  5533.0000   973.0000  5892.0000  2723.0000
  3424.00    14.1070    11.7510  5794.0000  1086.0000  6202.0000  2878.0000
  3424.20    14.1120    11.3590  5794.0000  1086.0000  6202.0000  2878.0000
  3424.40    12.6500    10.3300  4541.0000  1027.0000  4621.0000  2653.0000
  3424.60    13.5860    10.4190  3541.0000   909.0000  3729.0000  2273.0000
  3424.80    13.1160    10.8190  5434.0000  1084.0000  5986.0000  2901.0000
  3425.00    13.2250    10.2430  3590.0000   836.0000  3691.0000  2084.0000
  3425.20    13.9740     9.8650  4585.0000   997.0000  4886.0000  2409.0000
  3425.40    14.0280    10.4480  5150.0000  1168.0000  5632.0000  2906.0000
  3425.60    14.6980    11.3560  3510.0000   845.0000  3753.0000  2135.0000
  3425.80    13.0460    11.5150  3119.0000   649.0000  3418.0000  1711.0000
  3426.00    13.1700    11.3190  3898.0000   719.0000  4109.0000  1881.0000
  3426.20    12.5040    12.5210  4640.0000   846.0000  4925.0000  2365.0000
  3426.40    13.1870    11.7120  4754.0000  1094.0000  4965.0000  2861.0000
  3426.60    12.8880    11.6700  4359.0000  1021.0000  4751.0000  2611.0000
  3426.80    12.9380    11.7760  3561.0000   962.0000  3709.0000  2323.0000
  3427.00    13.1700    10.2610  4727.0000  1145.0000  5270.0000  3146.0000
  3427.20    13.8820     9.7790  4068.0000  1022.0000  4181.0000  2543.0000
  3427.40    12.0040    10.1660  3141.0000   948.0000  3070.0000  2210.0000
  3427.60    11.5250    10.3680  3794.0000  1205.0000  3887.0000  2924.0000
  3427.80    11.4300     9.1470  4411.0000  1265.0000  4460.0000  3081.0000
  3428.00    12.3070     9.0990  5427.0000  1414.0000  5834.0000  3221.0000
  3428.20    14.6080     9.8110  2876.0000   861.0000  3295.0000  2046.0000
  3428.40    16.3020    11.8970  1952.0000   544.0000  2278.0000  1677.0000
  3428.60    18.9200    12.7370  1952.0000   544.0000  2278.0000  1677.0000
  3428.80    20.6010    18.6670  1862.0000   382.0000  2269.0000  1570.0000
  3429.00    18.1820    18.6360  1760.0000   252.0000  2162.0000  1190.0000
  3429.20    19.1800    18.2310  1700.0000   191.0000  1982.0000   867.0000
  3429.40    17.6620    15.5450  3576.0000   232.0000  3948.0000  1233.0000
  3429.60    17.2340    14.8180  3045.0000   303.0000  3407.0000  1419.0000
  3429.80    19.1190    16.4150  2560.0000   265.0000  3026.0000  1205.0000
  3430.00    19.7300    18.2320  1928.0000   234.0000  2343.0000  1113.0000
  3430.20    20.4060    17.0640  1784.0000   268.0000  2255.0000  1179.0000
  3430.40    18.1120    18.3310  2159.0000   256.0000  2503.0000  1177.0000
  3430.60    19.0190    18.2690  3343.0000   325.0000  3921.0000  1402.0000
  3430.80    17.6360    16.2100  3057.0000   351.0000  3591.0000  1616.0000
  3431.00    18.2760    19.1530  2656.0000   290.0000  3140.0000  1404.0000
  3431.20    17.7990    16.8040  2931.0000   290.0000  3524.0000  1292.0000
  3431.40    16.8440    16.3670  4212.0000   431.0000  4583.0000  1781.0000
  3431.60    14.9840    14.7920  3954.0000   569.0000  4567.0000  1870.0000
  3431.80    13.5930    12.3310  5830.0000  1014.0000  6146.0000  3116.0000
  3432.00    13.4450    11.9330  6114.0000  1165.0000  6678.0000  3066.0000
  3432.20    14.6920    10.6860  3864.0000   903.0000  4191.0000  2195.0000
  3432.40    14.0370    11.1410  5003.0000   966.0000  5835.0000  2570.0000
  3432.60    14.3360    12.2410  4686.0000   715.0000  5217.0000  2041.0000
  3432.80    15.7330    13.9360  4921.0000   647.0000  5332.0000  2124.0000
  3433.00    14.7070    12.8280  4363.0000   616.0000  5086.0000  1828.0000
  3433.20    13.9840    11.8510  4902.0000   729.0000  5229.0000  1925.0000
  3433.40    13.8350    11.6650  4902.0000   729.0000  5229.0000  1925.0000
  3433.60    14.4280    11.5700  4289.0000   746.0000  4590.0000  1977.0000
  3433.80    13.0530    11.0990  6076.0000  1008.0000  6328.0000  2643.0000
  3434.00    12.9600    10.8370  5894.0000  1190.0000  6455.0000  3007.0000
  3434.20    13.8430    10.5060  5968.0000  1291.0000  6371.0000  3292.0000
  3434.40    13.2640    10.4690  5199.0000  1331.0000  5499.0000  3165.0000
  3434.60    11.8940    11.0640  5585.0000  1372.0000  6045.0000  3183.0000
  3434.80    14.6800    10.7900  4803.0000  1050.0000  5332.0000  2537.0000
  3435.00    13.6410    10.1630  4282.0000   937.0000  4539.0000  2260.0000
  3435.20    12.3490    10.6600  4094.0000   799.0000  4490.0000  2064.0000
  3435.40    13.5120    12.4500  4740.0000   892.0000  4995.0000  2160.0000
  3435.60    11.9560    11.8030  4713.0000  1001.0000  4844.0000  2386.0000
  3435.80    11.0940    10.9150  4724.0000  1105.0000  4769.0000  2553.0000
  3436.00    12.4210    10.7160  4599.0000  1025.0000  4980.0000  2530.0000
  3436.20    13.4600    10.0320  4925.0000  1172.0000  5379.0000  2875.0000
  3436.40    13.3330     9.7310  5549.0000  1174.0000  6016.0000  2939.0000
  3436.60    13.1490    10.0380  3422.0000   870.0000  3422.0000  2164.0000
  3436.80    12.7470    10.0500  5435.0000  1435.0000  5613.0000  3513.0000
  3437.00    12.5260    10.1940  5058.0000  1282.0000  5811.0000  3106.0000
  3437.20    12.8760     9.4440  4285.0000  1118.0000  4401.0000  2507.0000
  3437.40    13.5470     9.5100  3914.0000  1016.0000  4243.0000  2478.0000
  3437.60    13.2600     9.6090  4666.0000  1145.0000  4955.0000  2720.0000
  3437.80    11.9590     9.7880  4610.0000  1090.0000  4845.0000  2692.0000
  3438.00    11.7790     9.8440  5289.0000  1215.0000  5596.0000  2891.0000
  3438.20    11.9260     9.9520  5289.0000  1215.0000  5596.0000  2891.0000
  3438.40    12.8020    10.2550  6073.0000  1383.0000  6379.0000  3336.0000
  3438.60    13.3290     9.2720  6415.0000  1511.0000  6883.0000  3591.0000
  3438.80    12.7160     9.4170  3862.0000   970.0000  3979.0000  2307.0000
  3439.00    12.9640     9.9490  4368.0000  1042.0000  4568.0000  2493.0000
  3439.20    14.4320     9.9120  5705.0000  1345.0000  6110.0000  2962.0000
  3439.40    13.1370    10.5830  4550.0000  1171.0000  5019.0000  2764.0000
  3439.60    12.5710     9.5410  4887.0000  1032.0000  5282.0000  2501.0000
  3439.80    14.1820     9.4610  5586.0000  1132.0000  5943.0000  2797.0000
  3440.00    14.4430    10.4120  3986.0000  1019.0000  4390.0000  2305.0000
  3440.20    12.7600    10.5130  4910.0000  1240.0000  5333.0000  2954.0000
  3440.40    13.4230     9.3920  3935.0000   917.0000  4142.0000  2189.0000
  3440.60    13.8440     9.1560  4956.0000  1118.0000  5352.0000  2576.0000
  3440.80    13.1550     9.3770  5144.0000  1161.0000  5180.0000  2725.0000
  3441.00    12.9440     9.8910  7627.0000  1513.0000  8341.0000  3763.0000
  3441.20    13.3560     9.8710  4910.0000  1197.0000  5208.0000  2879.0000
  3441.40    13.0100     9.8650  3953.0000   962.0000  4163.0000  2276.0000
  3441.60    12.9940    10.9470  4417.0000  1077.0000  4491.0000  2404.0000
  3441.80    13.1910     9.8020  4973.0000  1239.0000  5184.0000  2809.0000
  3442.00    12.8690    10.0760  3791.0000   982.0000  3983.0000  2282.0000
  3442.20    14.1540    11.2580  5982.0000  1232.0000  6791.0000  3011.0000
  3442.40    13.6850     9.4230  5300.0000  1246.0000  5689.0000  2989.0000
  3442.60    12.6940     9.3780  5668.0000  1328.0000  5962.0000  3075.0000
  3442.80    14.4190     9.7550  5668.0000  1328.0000  5962.0000  3075.0000
  3443.00    14.0160     9.5730  5657.0000  1327.0000  5826.0000  3344.0000
  3443.20    13.9360     9.2710  4247.0000   965.0000  4510.0000  2375.0000
  3443.40    14.1110     9.0680  4400.0000  1031.0000  4550.0000  2418.0000
  3443.60    13.5560     9.4900  3602.0000   952.0000  3862.0000  2001.0000
  3443.80    13.7800     9.9630  5744.0000  1297.0000  6433.0000  3265.0000
  3444.00    13.6390     9.8310  5793.0000  1316.0000  6548.0000  3272.0000
  3444.20    13.4930    10.0310  4411.0000  1072.0000  4449.0000  2524.0000
  3444.40    14.0250    10.7330  4743.0000  1117.0000  5026.0000  2634.0000
  3444.60    13.5160    11.0340  5664.0000  1308.0000  6117.0000  3191.0000
