~Version information
  VERS.                            1.20: CWLS LAS  -  VERSION 1.20
  WRAP.                              NO: One line per depth step
~Well information
# MNEM.UNIT
# ====.================================:===================
  STRT.M                        3140.00: First depth in file
  STOP.M                        3450.00: Last depth in file
  STEP.M                           0.20: Depth increment
  NULL.                            9999: Null values
  COMP.                         COMPANY: 
  WELL.                            WELL: 115 
  FLD .                           FIELD: íùÑàçëäÄü
  CNTY.                          COUNTY: 
  STAT.                           STATE: 
  DATE.                        LOG DATE: 30-04-04
  SRVC.                 SERVICE COMPANY: 
  UWI.           Unique Well Identifier: 
~Parametr information block
# MNEM.UNIT
# ====.================================:===================
~Other information
# ------------------------- REMARKS  AREA ------------------
~Curve information
# MNEM.UNIT
# ====.================================:===================
  DEPT.M                               : Depth curve
GZ5.OHMM                               : äÄÜ. ëéèêéíàÇãÖçàÖ áéçÑÄ A8.0M1.0N
GZ4.OHMM                               : äÄÜ. ëéèêéíàÇãÖçàÖ áéçÑÄ A4.0M0.5N
GZ3.OHMM                               : äÄÜ. ëéèêéíàÇãÖçàÖ áéçÑÄ A2.0M0.5N
GZ2.OHMM                               : äÄÜ. ëéèêéíàÇãÖçàÖ áéçÑÄ A1.0M0.1N
GZ1.OHMM                               : äÄÜ.ëéèêéíàÇãÖçàÖ áéçÑÄ A0.4M0.1N
PZ.OHMM                                : äÄÜ.ëéèê.èé èéíÖçñàÄãáéçÑì Ä0.5å6.5N
RRB.OHMM                               : ëéèêéíàÇã.èêéåõÇéóç.ÜàÑäéëíà èÖêÇàó.
CALI.MM                                : ëìååÄêçõâ ÑàÄåÖíê äÄÇÖêçéåÖêÄ
CILA.MMHO                              : áéçÑ àä 7à1.6,Ääí.ëàÉçÄã/àä-è/Äàä-5
SP.MV                                  : ÖëíÖëíÇÖççÄü ëÄåéèéãüêàáÄñàü èé èë
BS.                                    : Ñ≠-216¨¨
GR.UR/H                                : ÖëíÖëíÇÖççÄü ÉÄååÄ-ÄäíàÇçéëíú èé Éä
GZB.OHMM                               : GZB
~ASCII Log Data
# ...
  3182.40   102.0767   128.8718    73.9491    31.6623     8.8743    36.7238     0.8198   215.9860    25.3990   395.3230   215.9000     3.2477    83.6466
  3182.60   100.7868   128.6606    74.0353    33.4875     9.2726    37.0708     0.8352   215.6106    24.3159   394.6646   215.9000     3.2941    80.8523
  3182.80   100.6550   128.5104    74.9061    34.9279     9.8794    36.8619     0.8402   215.0498    23.8787   393.7295   215.9000     3.1783    78.4149
  3183.00   102.2307   125.1618    74.2353    36.0776    10.3312    36.5774     0.8446   216.3821    22.4391   393.7301   215.9000     3.0915    77.4636
  3183.20   102.7618   119.1000    71.3387    35.1379    10.0846    36.2552     0.8348   215.5189    21.8811   392.1283   215.9000     3.1195    77.5551
  3183.40    99.7629   110.2244    66.7974    33.2411     9.6090    36.1782     0.8129   217.4122    21.7742   392.3547   215.9000     3.0863    79.1317
  3183.60    95.6701    97.3642    60.9265    31.7264     8.6135    36.8592     0.8300   222.4494    22.9735   392.5670   215.9000     2.9748    80.4747
  3183.80    90.6443    87.2489    57.5193    28.2055     7.7623    37.8954     0.8310   216.6539    23.0604   391.9279   215.9000     2.9091    79.5900
  3184.00    86.2584    82.3568    57.6933    28.7453     8.0643    39.1668     0.8500   216.8345    24.8496   390.0117   215.9000     3.1987    76.7150
  3184.20    82.9411    82.2736    60.3419    30.2760     8.6857    40.4592     0.8505   216.3378    23.6271   391.8089   215.9000     3.6065    71.6755
  3184.40    82.9647    83.7582    64.2169    32.6404     9.5881    40.8986     0.8609   216.4599    22.4524   390.0580   215.9000     3.8792    66.6604
  3184.60    83.3792    85.7458    68.7108    35.0981    10.2651    40.8454     0.8600   216.2901    20.6388   391.9000   215.9000     3.7967    62.4789
  3184.80    83.4576    85.4536    71.5458    37.2650    10.8014    40.3308     0.8600   216.0302    19.6273   392.9864   215.9000     3.5643    61.6273
  3185.00    83.7773    83.8921    72.7915    37.3218    10.4844    39.7412     0.8598   216.7749    20.0217   393.4383   215.9000     3.2051    62.5284
  3185.20    83.8333    82.9660    73.2122    38.4896    10.4481    38.6678     0.8557   215.3459    20.9473   393.7964   215.9000     2.7515    64.0367
  3185.40    83.6738    84.5478    75.7157    40.2554    10.7330    37.6360     0.8691   216.0022    22.0815   390.9247   215.9000     2.3870    64.7693
  3185.60    83.0414    85.7859    77.7729    41.6993    11.0210    36.4735     0.8683   215.1781    23.3330   387.8911   215.9000     2.1582    65.2401
  3185.80    83.0306    86.6492    79.0441    39.3970    10.7145    35.2514     0.8355   215.4177    23.5470   388.5276   215.9000     2.1460    68.2008
  3186.00    83.0620    86.5060    78.6625    39.1305    10.6437    33.8066     0.8441   216.6824    24.7492   389.8597   215.9000     2.1944    74.0020
  3186.20    83.4719    86.5934    78.1479    37.1731    10.1519    32.8714     0.8262   216.2588    24.8579   391.3045   215.9000     2.4092    83.9057
  3186.40    84.0300    86.4458    75.9498    34.4165     9.2005    32.2125     0.8315   216.0586    25.5081   388.2358   215.9000     2.7711    97.7170
  3186.60    83.8013    85.8533    72.1887    33.0511     8.7842    32.2186     0.8410   217.2867    27.0697   389.2703   215.9000     3.1099   112.2431
  3186.80    83.0315    82.6829    66.5332    28.6993     7.8637    33.3448     0.8414   215.6599    27.4877   388.8426   215.9000     3.3927   126.4109
  3187.00    82.2279    77.0864    59.7539    24.3208     6.9244    35.1418     0.8507   218.6422    27.5284   389.8441   215.9000     3.7706   138.3813
  3187.20    79.6690    74.8682    56.5344    24.1309     6.9286    37.3539     0.8840   215.4271    25.7208   386.9737   215.9000     4.2367   142.1491
  3187.40    77.5493    76.7154    57.5406    25.7420     7.6525    39.8382     0.8851   215.5847    22.1467   386.3111   215.9000     4.5567   137.5179
  3187.60    75.4737    78.4642    58.7680    27.8838     8.5666    41.7285     0.9059   214.9619    19.1602   388.2248   215.9000     4.5853   131.4295
  3187.80    73.7011    77.0937    57.1538    28.1013     8.7761    44.4700     0.9032   215.4597    17.0050   387.1021   215.9000     4.4840   131.4359
  3188.00    71.4290    73.6880    53.8451    27.2985     8.2233    46.2953     0.8892   214.9086    16.0397   388.9246   215.9000     4.2234   134.3602
  3188.20    69.3011    72.9864    52.0437    28.2490     8.1807    48.2542     0.9106   216.0034    15.4138   388.1182   215.9000     3.5425   136.2427
  3188.40    67.8492    73.0709    51.7905    29.5581     8.3270    50.4648     0.8839   214.2390    15.5198   388.2295   215.9000     2.7284   137.5550
  3188.60    67.2919    73.9297    53.0191    30.3468     8.3484    52.7951     0.8824   214.9634    15.0411   390.2096   215.9000     2.2699   136.0643
  3188.80    67.5067    75.9881    56.2556    32.4105     8.7852    54.6251     0.8716   216.3711    14.2283   389.1709   215.9000     2.4549   132.3139
  3189.00    68.0282    79.3168    61.7920    35.0297     9.3885    56.2087     0.8644   214.7952    12.7835   391.8835   215.9000     2.7821   125.5654
  3189.20    68.7104    83.4879    69.3829    37.8163     9.9806    57.3988     0.8533   214.4367    11.9266   390.2784   215.9000     2.8738   117.9127
  3189.40    69.3402    87.1736    78.1816    40.8174    10.6348    58.0890     0.8396   214.8483    11.6746   394.9824   215.9000     2.7617   109.5123
  3189.60    69.6202    90.4748    84.2414    43.5359    11.2903    58.2705     0.8328   215.9480    10.6500   394.8957   215.9000     2.4772   101.8391
  3189.80    70.2024    90.4396    88.3169    42.9827    11.1462    58.4897     0.8300   216.5076    10.8710   392.3704   215.9000     2.2434    98.8821
  3190.00    70.7779    88.8189    88.4881    41.5402    10.4625    58.5126     0.8299   216.3183    11.5350   391.7046   215.9000     2.0550    98.9129
  3190.20    71.9074    90.1417    91.3106    42.0880    10.4226    58.6932     0.8278   216.8661    12.6234   390.1001   215.9000     1.9157    97.8085
  3190.40    73.6485    93.9281    96.4559    43.1132    10.5866    58.9959     0.8243   217.0401    13.1298   390.0920   215.9000     1.7923    93.6139
  3190.60    75.6358    99.6155   102.6367    44.9727    11.0036    58.8785     0.8297   217.0103    13.5482   390.0846   215.9000     1.7533    89.6973
  3190.80    77.9876   108.1096   109.1969    46.3641    11.4921    58.4599     0.8239   216.3890    12.9034   393.5477   215.9000     1.9851    85.5444
  3191.00    80.6370   117.5267   114.6776    47.7294    11.8841    57.8500     0.8228   216.4529    12.5543   393.4445   215.9000     2.3138    82.5834
  3191.20    83.1908   128.6373   119.4372    49.4986    12.0886    56.6747     0.8190   217.2537    13.3562   393.3473   215.9000     2.3992    79.8227
  3191.40    84.5111   140.9884   123.8844    50.5192    12.3336    55.2197     0.8192   216.3618    13.3366   392.2863   215.9000     2.2956    77.2821
  3191.60    86.2188   149.6227   126.7036    51.3099    12.4633    53.5853     0.8219   217.9264    13.6686   390.4540   215.9000     2.0484    74.5578
  3191.80    86.8696   157.9958   126.5333    51.3380    12.5215    51.8249     0.8188   217.7585    14.7490   390.8609   215.9000     1.8255    73.6280
  3192.00    86.9935   159.0409   122.8720    49.2800    12.0569    50.3428     0.8159   217.3398    15.9513   390.3437   215.9000     1.7549    73.0072
  3192.20    86.2207   158.5875   118.6204    47.2626    11.6851    48.8890     0.8142   217.5254    16.4761   391.4343   215.9000     1.6769    72.7827
  3192.40    85.4004   155.5407   113.2657    44.8528    11.1117    48.0380     0.8190   217.8342    17.3319   392.3813   215.9000     1.6721    73.1784
  3192.60    84.7010   150.3801   106.0863    41.2668    10.2550    47.7425     0.8192   217.4082    18.0396   391.8289   215.9000     1.6178    74.3089
  3192.80    84.2641   147.8495   101.4586    38.2138     9.6259    47.9160     0.8238   217.2548    18.2075   391.3914   215.9000     1.6123    74.1713
