~Version Information
#-------------------
Vers.        2.0: CWLS log ASCII Standart - VERSION 2.0
WRAP.         NO: One line per depth step
~Well Information Block
#----------------------
#MNEM.UNIT  VALUE: DESCRIPTION
#----.---- -------: -------------
STRT.M     90.00: 
STOP.M    460.00: 
STEP.M      0.20:  
NULL.  -9999.990:  
COMP.           : 
WELL.           : 115
FLD .           : Тэдинская
LOC .           : 
CNTY.           : 
SRVC.           : 
DATE.           : 21-03-04
UWI .           : 
~Parameter Information
#---------------------
#MNEM.UNIT  VALUE: DESCRIPTION
#----.---- -------: ---------------
~Curve Information Block
#-----------------------
#MNEM.UNIT       : CURVE DESCRIPTION
#----.----       : -----------------
DEPT.M          : 
Aя  .           : Амплитуда - волна по колонне 
Tя  .мкс        : Время пробега - волна по породе
Aъ  .           : Амплитуда - волна по породе
DK  .дБ         : Затухание
akz .           : контакт цемент-колонна
~Other Information
#-----------------
~Ascii Log Data
# ...
       234    130.674    669.788     73.927     24.928          4 
     234.2     99.315    645.147     79.324     24.328          4 
     234.4     102.74    648.197     76.811     24.662          4 
     234.6     99.315    678.979     53.083     27.861          4 
     234.8     44.521    721.725         29     33.906          4 
       235     44.521   1009.358     13.417      49.42          4 
     235.2     27.397   1297.204          0     62.292          4 
     235.4     20.548   1380.525          0     62.292          4 
     235.6     20.548    1403.96          0     62.292          4 
     235.8     39.602   1202.028          0     62.292          4 
       236     52.586   1072.968      7.815     59.698          4 
     236.2     45.674    1232.72     11.815     49.323          4 
     236.4     65.068   1221.617          2     57.105          4 
     236.6     71.918   1184.575     18.008     50.742          4 
     236.8     65.068   1272.398     36.017     39.191          4 
       237     68.493   1184.818      5.852     53.996          4 
     237.2     54.795    851.008     21.293     35.799          4 
     237.4     54.795    716.167      30.42     32.786          4 
     237.6     85.337    668.583     32.489      32.07          4 
     237.8    139.893    666.714     59.712     27.228          3 
       238    153.971    668.173     67.471     25.801          3 
     238.2    109.198    662.918     55.618     27.392          3 
     238.4     80.367    642.211     75.014      24.91          3 
     238.6    121.364    656.995     67.514     25.878          3 
     238.8    193.906    676.176     61.082       26.7          3 
       239    213.575    678.057     49.097     28.475          3 
     239.2     170.28    681.501     66.637     25.968          3 
     239.4      99.28    660.069     78.161     24.467          3 
     239.6     154.11    625.216    103.242     22.064          3 
     239.8    171.233    618.036    111.343     21.372          3 
       240    167.808    617.768    126.066     20.307          2 
     240.2    167.808    617.708     137.88     19.505          2 
     240.4    156.835     617.76    154.026     18.582          2 
     240.6    212.329    618.491    174.864      17.45          2 
     240.8    205.479    618.864    177.529     17.312          2 
       241    195.205    626.563    180.376     19.923          2 
     241.2    188.356    626.288    157.711     21.092          2 
     241.4    205.479     618.58    165.451      17.95          2 
     241.6    215.753    618.741    181.027     17.142          2 
     241.8    208.904    618.942    176.549     17.356          2 
       242    195.205    619.355     156.73     18.551          3 
     242.2    130.137    619.143    110.917     21.413          3 
     242.4    140.411    618.714     98.821     21.607          3 
     242.6    150.685    624.095     93.372       22.1          3 
     242.8     63.916    652.843     78.694     24.433          3 
       243    113.072    672.909     54.175     27.849          3 
     243.2    135.121     675.54     43.756      29.58          3 
     243.4    103.905    677.365     11.458     52.051          4 
     243.6     58.138    679.107     16.158      48.45          4 
     243.8     23.199    872.683     23.178     35.009          4 
       244     20.439   1328.788     20.694     35.976          4 
     244.2     43.659   1436.291     11.083     42.821          4 
     244.4     56.864   1112.265     20.875     38.924          4 
     244.6     41.096    777.415     37.604     34.719          4 
     244.8     41.096    768.377      7.521     56.777          4 
       245     23.973    875.945      3.389     52.877          4 
     245.2     23.973   1172.212      6.111     55.231          4 
     245.4     37.671   1316.411          0     62.292          4 
     245.6     54.795   1211.411         38     38.881          4 
     245.8     61.644    1227.51         33     35.191          4 
       246     65.068   1305.426          6     49.569          4 
     246.2     10.378   1385.302          0     62.292          4 
     246.4     34.247   1464.422          0     62.292          4 
     246.6     56.585   1434.981          0     62.292          4 
     246.8     82.943   1432.667          0     62.292          4 
       247     61.776   1433.846          0     62.292          4 
     247.2     57.258   1359.977     10.722     46.207          4 
     247.4     44.133   1384.413      6.069     52.067          4 
     247.6     13.201   1496.892          1     62.292          4 
     247.8      0.783   1531.725          1     62.292          4 
       248      1.779   1458.279      0.408     61.705          4 
     248.2      7.116   1309.334      1.164     60.999          4 
     248.4      7.116   1123.794      3.042     54.087          4 
     248.6      3.167     904.81     10.978     42.785          4 
     248.8      20.47     736.72     18.376     38.194          4 
       249      59.43    671.022     33.308     31.861          4 
     249.2     67.615    659.565     45.542     29.433          4 
     249.4     62.584    633.108     86.697     23.707          2 
     249.6     93.983    618.556    110.574     21.508          2 
     249.8    127.234    619.468    143.785     21.034          2 
       250    150.748     620.68    184.507     18.854          2 
     250.2    155.672    621.905    168.373     18.515          2 
     250.4      156.8    622.006    149.714     18.809          2 
     250.6    180.131    621.278    176.478     17.368          2 
     250.8    207.014    620.097     214.97     15.698          2 
       251    216.013    619.115    215.206     15.649          2 
     251.2    233.111    618.779    216.207      15.63          2 
     251.4    274.433    618.658    286.429     13.202          2 
     251.6    289.945    618.602    298.778       12.8          2 
     251.8    264.318    618.699    265.347     13.827          2 
       252     225.83    618.759    224.823     15.275          2 
     252.2    203.439    618.297    188.644     16.817          2 
     252.4    214.667    618.047     202.37     15.784          2 
     252.6    239.594    618.236     241.49     14.658          2 
     252.8    257.059    618.277      261.7     13.937          2 
       253    262.638    618.796    267.095     13.761          1 
     253.2    260.136    618.949    257.193     14.093          1 
     253.4    272.601    619.332    261.935     13.945          1 
     253.6    307.819     620.64    311.747     12.433          1 
     253.8    344.853    621.211    341.351     11.633          1 
       254    392.474    621.465    390.692     10.544          1 
     254.2    435.622    621.469    467.797      9.107          1 
     254.4    437.309    621.335    452.151      9.402          1 
     254.6    404.112    621.149    407.128     10.136          1 
     254.8    359.791    620.834    351.997     11.363          1 
       255    313.616    620.863    321.109     12.198          1 
     255.2    267.542    620.721    249.922     14.365          1 
     255.4    248.963    618.269    248.239     14.401          3 
     255.6    238.966     621.21    246.491     14.481          3 
     255.8    206.013    628.593    214.905     15.674          3 
       256    154.539    628.593    152.311     18.922          3 
     256.2    109.477    629.647    104.039     22.017          3 
     256.4     86.096    631.757     78.184     24.451          3 
     256.6     102.74    633.866     85.658     23.678          3 
     256.8     99.315    634.921     76.521     24.709          3 
       257     102.74    630.702     75.666     24.718          3 
     257.2     102.74    631.757     98.314     22.531          3 
     257.4    113.014    630.702     85.057     23.847          3 
     257.6    113.014    625.429     85.112     23.879          3 
     257.8    103.377    627.538    110.588     21.418          3 
