~Version information
  VERS.                            1.20: CWLS LAS  -  VERSION 1.20
  WRAP.                              NO: One line per depth step
~Well information
# MNEM.UNIT
# ====.================================:===================
  STRT.M                        3140.00: First depth in file
  STOP.M                        3450.00: Last depth in file
  STEP.M                           0.20: Depth increment
  NULL.                            9999: Null values
  COMP.                         COMPANY: 
  WELL.                            WELL: 115 
  FLD .                           FIELD: íùÑàçëäÄü
  CNTY.                          COUNTY: 
  STAT.                           STATE: 
  DATE.                        LOG DATE: 30-04-04
  SRVC.                 SERVICE COMPANY: 
  UWI.           Unique Well Identifier: 
~Parametr information block
# MNEM.UNIT
# ====.================================:===================
~Other information
# ------------------------- REMARKS  AREA ------------------
~Curve information
# MNEM.UNIT
# ====.================================:===================
  DEPT.M                               : Depth curve
MINV.OHMM                              : äÄÜ.ëéèê.èé åàäêéÉêÄÑàÖçí áéçÑì
MNOR.OHMM                              : äÄÜ.ëéèêéíàÇãÖçàÖ å/èéíÖçñàÄã áéçÑÄ
MLL.OHMM                               : äÄÜ.ëéèê/åàäêéÅéäéÇéâ äÄêéíÄÜ/åä-ìñ
MCAL.MM                                : ÑàÄåÖíê äÄÇÖêçéåÖêÄ åä-ìñ
LL3.OHMM                               : äÄÜ.ëéèêéíàÇãÖçàÖ áéçÑÄ Åä-3 /ÄÅäí
CILA.MMHO                              : áéçÑ àä 7à1.6,Ääí.ëàÉçÄã/àä-è/Äàä-5
BS.                                    : Ñ≠Æ¨=215,9¨¨
GR.UR/H                                : ÖëíÖëíÇÖççÄü ÉÄååÄ-ÄäíàÇçéëíú èé Éä
~ASCII Log Data
# ...
  3386.00     3.2260     2.9920     9.7400   214.7500    13.4925   106.9521   215.9000     0.7865
  3386.20     3.1870     3.0700    10.4240   214.7500    17.5165   106.3848   215.9000     0.8499
  3386.40     3.4820     3.2030    15.0940   214.7500    22.0796   103.5933   215.9000     0.7944
  3386.60     3.4980     3.1330    18.6280   214.7500    24.4851    98.0605   215.9000     0.8388
  3386.80     3.6400     3.0850    21.2510   214.7500    24.4466    93.4326   215.9000     0.8094
  3387.00     3.4720     3.1200    17.3180   214.7500    24.4252    91.1187   215.9000     0.7053
  3387.20     3.5320     3.3080    21.7340   214.7500    31.8477    89.0344   215.9000     0.7684
  3387.40     3.5270     3.2280    22.6380   214.7500    34.1990    85.7620   215.9000     0.7995
  3387.60     3.3700     2.9600    36.0370   214.9500    48.0960    81.1554   215.9000     0.9055
  3387.80     3.1930     2.9610    37.1370   214.7500    36.1498    80.8208   215.9000     0.9512
  3388.00     3.1060     2.9720    12.6630   214.7500    18.5208    85.1378   215.9000     0.9222
  3388.20     3.2070     3.0060    11.6490   214.7500    18.0132    92.0453   215.9000     1.0201
  3388.40     3.1150     3.0230    11.9100   214.7500    20.0453    96.9760   215.9000     0.9764
  3388.60     3.2340     2.9700    15.4190   214.7500    28.4411    96.0120   215.9000     0.8299
  3388.80     3.1480     3.1120    26.1050   214.7500    38.3909    90.0392   215.9000     0.7849
  3389.00     3.3210     3.0850    24.2920   214.7500    31.0836    84.3098   215.9000     0.7045
  3389.20     3.1890     2.9720    19.0370   214.7500    25.1720    81.1513   215.9000     0.6790
  3389.40     3.0520     2.9010    17.0830   214.7500    26.5204    81.3945   215.9000     0.7413
  3389.60     3.0010     2.8460    19.3200   214.7500    29.9384    86.2919   215.9000     0.8220
  3389.80     2.9560     2.9050    24.5400   214.7500    32.3785    86.7117   215.9000     0.7975
  3390.00     3.1700     2.8990    20.0240   214.7500    20.4146    86.5834   215.9000     0.6928
  3390.20     2.9170     2.7440    12.4810   214.7500    19.4506    89.8645   215.9000     0.6755
  3390.40     3.0590     2.8770    15.3890   214.7500    22.5138    93.7006   215.9000     0.7589
  3390.60     3.1160     2.8610    19.7920   214.7500    20.9043    96.1053   215.9000     0.7185
  3390.80     3.1430     2.8480    15.4700   214.7500    20.5158    98.3192   215.9000     0.7106
  3391.00     2.8140     2.8490    15.8610   214.7500    23.4401    99.0816   215.9000     0.7515
  3391.20     3.0910     2.8810    17.5520   214.7500    29.3301    98.6509   215.9000     0.9276
  3391.40     2.9380     2.9080    24.1450   214.7500    23.5447    97.5873   215.9000     0.8419
  3391.60     3.0380     2.9910    14.6960   214.7500    16.8152   100.3363   215.9000     0.7793
  3391.80     2.8880     2.7660    12.5300   214.7500    16.4907   104.2141   215.9000     0.7239
  3392.00     2.9750     2.9150    10.6180   214.7500    16.4303   106.8353   215.9000     0.6471
  3392.20     3.1030     2.9080    13.9290   214.7500    16.8211   109.5122   215.9000     0.6881
  3392.40     2.9790     2.8580    12.5370   214.7500    16.1270   105.9755   215.9000     0.7174
  3392.60     3.1840     3.0600    10.2800   214.7500    14.9067   102.6870   215.9000     0.8671
  3392.80     3.3700     3.0120    10.2030   214.7500    16.7392    96.7867   215.9000     0.6709
  3393.00     3.1510     2.9720    14.6060   214.7500    25.6941    90.6775   215.9000     0.5305
  3393.20     3.2230     3.0660    21.2110   214.7500    26.4987    80.6812   215.9000     0.7872
  3393.40     3.1790     3.1420    16.5160   214.7500    27.5832    69.8243   215.9000     0.7917
  3393.60     3.3460     3.1980    21.7390   214.7500    33.8129    59.5001   215.9000     0.8281
  3393.80     3.3760     3.1790    30.8900   215.0000    47.0685    52.4103   215.9000     0.9090
  3394.00     3.2330     3.0600    31.9610   215.0000    53.8324    45.8932   215.9000     0.9462
  3394.20     3.3130     3.2300    36.2640   215.0000    54.1396    40.4571   215.9000     0.9332
  3394.40     3.1500     3.1710    37.3980   215.0000    63.4204    35.1947   215.9000     0.9791
  3394.60     5.6270     3.2920    35.2420   216.3140    64.0969    32.6190   215.9000     1.0556
  3394.80     6.1420     3.4640    26.4330   216.7500    85.2366    25.5671   215.9000     1.0289
  3395.00     6.0570     3.5790    26.0380   216.7500    93.8966    23.5934   215.9000     1.0401
  3395.20     6.5380     3.6540    29.3050   216.7500    80.7215    21.4867   215.9000     0.9302
  3395.40     6.1560     3.3350    16.8230   216.7500    48.9460    22.6466   215.9000     0.9710
  3395.60     6.5460     3.5890    17.1190   216.5000    48.8821    25.8499   215.9000     0.9304
  3395.80     5.7510     3.5840    16.8550   216.5000    47.4668    29.0621   215.9000     0.8641
  3396.00     5.5790     3.4010    17.5230   216.5000    50.3708    28.7213   215.9000     0.9092
  3396.20     5.9750     3.5450    16.3640   216.5000    40.8656    34.4718   215.9000     1.0020
  3396.40     6.1780     3.6120    15.9190   216.5000    38.6487    34.3991   215.9000     0.8719
  3396.60     5.3280     3.2040    17.9320   216.5000    45.0742    37.6169   215.9000     0.9301
  3396.80     4.0120     3.2030    28.9540   215.3630    52.4001    41.4921   215.9000     0.9956
  3397.00     3.5410     3.0860    35.7520   214.7500    50.4921    44.5893   215.9000     1.0998
  3397.20     3.3180     3.0310    30.6660   214.7500    45.6791    48.3815   215.9000     1.0684
  3397.40     3.4690     3.1040    25.2430   214.7500    40.2417    52.8891   215.9000     0.9040
  3397.60     3.1920     3.0030    25.7020   214.7500    43.3023    54.2792   215.9000     0.9091
  3397.80     3.1270     3.0340    34.1040   214.7500    47.7156    54.5645   215.9000     0.9922
  3398.00     3.0620     2.9950    30.5220   214.7500    39.1970    52.5247   215.9000     1.0853
  3398.20     3.1550     3.0020    23.1980   214.7500    35.5946    49.7185   215.9000     0.9755
  3398.40     2.9580     3.1020    22.7640   214.7500    36.1138    50.2053   215.9000     0.9261
  3398.60     3.0650     3.0800    26.9040   214.7730    43.5354    48.2610   215.9000     0.8773
  3398.80     3.6570     3.1140    33.3060   215.0000    49.0401    44.5791   215.9000     0.9895
  3399.00     3.8220     3.5280    30.0790   216.5000    45.3615    40.5495   215.9000     0.8737
  3399.20     6.4480     3.4900    24.2440   216.5000    48.5679    37.7102   215.9000     0.9970
  3399.40     4.0870     3.5930    28.8510   215.2920    52.3825    32.9305   215.9000     0.9018
  3399.60     3.7540     3.4090    31.9710   215.0450    47.5448    30.9093   215.9000     0.8804
  3399.80     5.6930     3.5380    22.8190   216.5230    38.8698    31.9294   215.9000     0.8841
  3400.00     5.7610     3.4550    19.6280   216.7500    39.0007    30.1737   215.9000     0.8098
  3400.20     6.1840     3.4730    13.6100   216.7500    37.6074    28.4470   215.9000     0.8298
  3400.40     6.5060     3.4890    17.3260   216.7500    37.9401    28.6369   215.9000     0.9215
  3400.60     5.7880     3.2400    14.2330   216.7500    37.8158    29.7190   215.9000     0.9302
  3400.80     5.3960     3.3570    16.0060   216.7500    41.7694    29.6490   215.9000     0.9392
  3401.00     5.1810     3.2960    14.7580   216.5000    45.6567    28.2786   215.9000     1.0447
  3401.20     5.1080     3.4140    16.2390   216.5000    49.6227    27.4691   215.9000     1.1568
  3401.40     5.5640     3.6610    22.8560   216.5000    55.3400    26.6959   215.9000     1.2476
  3401.60     3.6290     2.9920    29.2460   215.7720    60.3209    26.8197   215.9000     1.2214
  3401.80     3.1310     2.7860    37.3700   214.7500    57.2682    27.9282   215.9000     1.2100
  3402.00     3.1180     3.0230    31.9510   214.7500    59.9393    31.4122   215.9000     1.2075
  3402.20     3.0890     2.9010    37.0820   214.7500    59.5686    31.4221   215.9000     1.1712
