~Version Information
#-------------------
Vers.        2.0: CWLS log ASCII Standart - VERSION 2.0
WRAP.         NO: One line per depth step
~Well Information Block
#----------------------
#MNEM.UNIT  VALUE: DESCRIPTION
#----.---- -------: -------------
STRT.M     90.00: 
STOP.M    460.00: 
STEP.M      0.20:  
NULL.  -9999.990:  
COMP.           : 
WELL.           : 115
FLD .           : Тэдинская
LOC .           : 
CNTY.           : 
SRVC.           : 
DATE.           : 21-03-04
UWI .           : 
~Parameter Information
#---------------------
#MNEM.UNIT  VALUE: DESCRIPTION
#----.---- -------: ---------------
~Curve Information Block
#-----------------------
#MNEM.UNIT       : CURVE DESCRIPTION
#----.----       : -----------------
DEPT.M          : 
Aя  .           : Амплитуда - волна по колонне 
Tя  .мкс        : Время пробега - волна по породе
Aъ  .           : Амплитуда - волна по породе
DK  .дБ         : Затухание
akz .           : контакт цемент-колонна
~Other Information
#-----------------
~Ascii Log Data
# ...
       426     68.493    725.763     45.259     29.294          3 
     426.2     58.219    735.829     33.792     31.783          3 
     426.4     78.767    746.074     37.657      29.01          3 
     426.6     58.219    702.441     41.715     29.929          3 
     426.8     59.506    689.766     32.156     32.177          3 
       427     49.681    732.563     28.159     33.311          3 
     427.2     62.068    697.939     40.588     28.434          3 
     427.4     86.442     671.54     33.378     32.573          3 
     427.6    111.425    679.139     35.709      31.56          3 
     427.8    128.168    679.904     42.389      29.84          3 
       428    151.351     680.85     55.084     27.539          3 
     428.2    161.853     683.26     49.334     28.632          3 
     428.4    133.892    682.304     47.514     29.007          3 
     428.6    119.863    675.645     60.736      26.65          3 
     428.8    133.562    648.076     81.375     24.367          3 
       429    126.712    637.342     105.23     21.871          3 
     429.2    116.438    660.672     70.997     25.906          3 
     429.4     92.466    726.014     42.524     29.766          3 
     429.6     92.466    831.093     48.871     28.668          3 
     429.8     71.918    833.369     63.744     26.249          3 
       430     68.493    844.726     62.034     26.611          3 
     430.2     58.219    877.366     39.408     30.431          3 
     430.4      51.37    864.205     36.548     31.036          3 
     430.6     58.219    861.352     36.889     30.958          3 
     430.8     58.219    902.708     48.941     28.607          3 
       431     58.219    890.551     43.193     29.788          3 
     431.2     65.068     899.37     32.928     31.952          3 
     431.4     75.342    938.207     43.042      29.69          3 
     431.6     71.918    810.568     74.382     25.217          3 
     431.8     96.416    679.474     79.348     24.477          3 
       432    109.837    671.591     71.348     25.306          3 
     432.2    110.001    671.589     65.028     26.122          3 
     432.4      111.1    670.965      49.75     28.465          3 
     432.6    121.979    673.756     48.371     28.687          3 
     432.8    141.911    675.139     54.528     27.562          3 
       433    153.302    674.518     60.258     26.728          3 
     433.2    153.008    673.819     62.424     25.132          3 
     433.4    158.348    676.053     39.952     29.093          3 
     433.6    185.661    677.108     69.717     26.167          3 
     433.8    208.473    672.889     68.075     25.901          3 
       434    205.092    671.835     55.217     27.614          3 
     434.2    195.597    674.999     79.884     24.272          3 
     434.4    195.162    677.108     68.983     25.645          3 
     434.6    199.479    677.286     62.025     26.501          3 
     434.8    201.816    678.364     60.934     26.644          3 
       435    205.974    678.905     49.496     28.754          3 
     435.2    231.107    678.151     58.705     27.066          3 
     435.4    263.383    679.108     75.374     24.749          3 
     435.6    276.658    680.462     59.036     27.057          3 
     435.8    259.968    681.244      62.66      26.45          3 
       436    193.563    674.789     72.504      25.09          3 
     436.2    124.565     638.67     98.399     22.555          3 
     436.4    106.843    617.387    116.432         21          3 
     436.6     110.59    617.934    107.169     21.696          3 
     436.8    113.504    616.923    110.066     21.471          3 
       437     117.96    617.207     97.883     21.332          3 
     437.2    132.908    620.998     95.731     20.981          3 
     437.4    142.943    630.768    151.593     16.896          3 
     437.6    131.206    648.049    111.057       21.9          3 
     437.8    142.518    686.542      78.23     24.456          3 
       438    168.519     704.53     78.233     24.456          3 
     438.2    145.934     704.53     79.444     24.304          3 
     438.4     93.239    701.366     74.945     26.477          3 
     438.6     102.74    705.585     66.334      25.86          3 
     438.8     71.918    710.858     59.284     26.847          3 
       439     71.918    709.804     58.816      27.04          3 
     439.2     68.493    709.804     40.084     30.537          3 
     439.4     68.493    701.477     36.191     31.305          3 
     439.6     71.918    688.184     52.482      28.01          3 
     439.8    119.418    688.184     71.774     25.349          3 
       440    117.514    688.184     89.709     22.232          4 
     440.2     153.81    688.184     76.542     23.615          4 
     440.4    210.401    688.184     51.139     28.487          4 
     440.6    240.115    679.049      30.32     32.867          4 
     440.8    267.859    678.885     21.695     35.796          4 
       441    278.321    679.843     14.109     39.346          4 
     441.2    254.839    680.391     12.054      40.67          4 
     441.4     223.32    679.937     15.334     38.692          4 
     441.6    199.298    680.919     17.342     37.513          4 
     441.8     175.69    682.296         17     37.715          4 
       442    160.338    683.486     12.334     40.566          4 
     442.2    166.368    683.459     11.017     41.451          4 
     442.4    183.617    682.749     17.146     37.945          4 
     442.6    205.181    683.016     23.649     34.901          4 
     442.8    226.001    683.144     28.232     33.277          4 
       443     244.93    683.255     23.826      34.86          4 
     443.2    252.891    682.553     22.875     35.138          4 
     443.4    248.072    681.549     17.392     37.537          4 
     443.6    275.426    681.921     16.098     38.198          4 
     443.8    289.903    680.482     22.445     35.576          4 
       444    207.151    673.052     43.353     30.163          4 
     444.2    109.589    645.174     82.571     24.033          2 
     444.4    113.014    638.682     85.213     23.695          2 
     444.6    116.438    624.928     92.601     22.995          2 
     444.8    113.014    619.151    118.984     20.815          2 
       445    164.139    620.046    154.626      18.04          2 
     445.2    202.283    620.004     200.54     16.311          2 
     445.4    233.795    620.581    233.284     14.349          2 
     445.6    255.252    621.049    224.866     14.668          2 
     445.8    295.063     621.22    281.783     13.544          2 
       446    339.163    621.663    375.769     11.103          2 
     446.2    345.738    622.094    356.803     11.553          2 
     446.4    332.444    621.962    332.689     11.859          2 
     446.6    331.007    621.993    354.507     12.601          2 
     446.8    358.875        622    392.368     10.421          2 
       447    385.161    622.341    387.803     10.524          2 
     447.2    383.675    623.098    374.504     10.464          2 
     447.4    345.712    623.027    353.712     11.338          2 
     447.6     278.33    621.532    276.782     13.503          2 
     447.8    207.753    619.408    205.616     16.257          2 
       448    154.821    616.997     140.61     19.345          2 
     448.2    145.172      616.9    146.048     20.842          2 
     448.4    169.707    624.379    210.968     17.602          2 
     448.6    154.699    644.705    141.213     31.295          2 
     448.8    103.352    689.401          0     62.292  -9999.990 
       449     84.465    759.987          0     62.292  -9999.990 
     449.2     71.417    858.574          0     62.292  -9999.990 
     449.4     32.835     992.03          0     62.292  -9999.990 
     449.6     23.836   1142.526          0     62.292  -9999.990 
     449.8     32.661    1276.76          0     62.292  -9999.990 
