~Version information
  VERS.                            1.20: CWLS LAS  -  VERSION 1.20
  WRAP.                              NO: One line per depth step
~Well information
# MNEM.UNIT
# ====.================================:===================
  STRT.M                        3140.00: First depth in file
  STOP.M                        3450.00: Last depth in file
  STEP.M                           0.20: Depth increment
  NULL.                            9999: Null values
  COMP.                         COMPANY: 
  WELL.                            WELL: 115 
  FLD .                           FIELD: íùÑàçëäÄü
  CNTY.                          COUNTY: 
  STAT.                           STATE: 
  DATE.                        LOG DATE: 30-04-04
  SRVC.                 SERVICE COMPANY: 
  UWI.           Unique Well Identifier: 
~Parametr information block
# MNEM.UNIT
# ====.================================:===================
~Other information
# ------------------------- REMARKS  AREA ------------------
~Curve information
# MNEM.UNIT
# ====.================================:===================
  DEPT.M                               : Depth curve
MINV.OHMM                              : äÄÜ.ëéèê.èé åàäêéÉêÄÑàÖçí áéçÑì
MNOR.OHMM                              : äÄÜ.ëéèêéíàÇãÖçàÖ å/èéíÖçñàÄã áéçÑÄ
MLL.OHMM                               : äÄÜ.ëéèê/åàäêéÅéäéÇéâ äÄêéíÄÜ/åä-ìñ
MCAL.MM                                : ÑàÄåÖíê äÄÇÖêçéåÖêÄ åä-ìñ
LL3.OHMM                               : äÄÜ.ëéèêéíàÇãÖçàÖ áéçÑÄ Åä-3 /ÄÅäí
CILA.MMHO                              : áéçÑ àä 7à1.6,Ääí.ëàÉçÄã/àä-è/Äàä-5
BS.                                    : Ñ≠Æ¨=215,9¨¨
GR.UR/H                                : ÖëíÖëíÇÖççÄü ÉÄååÄ-ÄäíàÇçéëíú èé Éä
~ASCII Log Data
# ...
  3336.80     2.7430     2.9940    16.0190   215.5000    33.5140    44.2917   215.9000     0.6384
  3337.00     3.0620     2.9290    16.4580   215.5000    37.8806    48.1309   215.9000     0.6039
  3337.20     3.2390     2.8220    17.2430   215.5000    47.3442    52.0102   215.9000     0.5233
  3337.40     2.9890     2.9690    27.1060   215.5000    49.8722    54.9079   215.9000     0.4764
  3337.60     3.1490     2.9150    24.6040   215.5000    39.5782    60.3153   215.9000     0.5856
  3337.80     2.4240     2.8150    15.7910   215.5000    30.8127    65.3398   215.9000     0.7128
  3338.00     2.6680     2.9950    16.4630   215.2500    35.9990    74.0408   215.9000     0.7654
  3338.20     3.1770     3.0370    22.4380   214.7500    34.9951    80.7259   215.9000     0.7307
  3338.40     2.8630     2.9560    20.2030   214.7500    27.5079    83.4595   215.9000     0.6694
  3338.60     2.9970     3.0000    18.6930   214.7500    20.8083    87.4883   215.9000     0.7013
  3338.80     3.1690     2.9810    13.0760   214.7500    18.0598    95.4794   215.9000     0.7884
  3339.00     2.8220     3.0750    11.3870   214.7500    17.4494    99.9386   215.9000     0.8940
  3339.20     2.7860     2.9430    12.5950   215.2500    19.1207   100.1074   215.9000     0.9518
  3339.40     2.8590     2.8760    11.6500   215.2500    23.2023    93.8998   215.9000     0.9675
  3339.60     3.0280     2.9200    16.3160   215.2500    28.0290    82.8880   215.9000     0.9506
  3339.80     2.9000     2.9550    19.8050   215.2500    22.7857    73.1878   215.9000     0.8196
  3340.00     3.0120     2.9690    14.6030   215.2500    21.3356    69.6888   215.9000     0.6568
  3340.20     3.1120     3.0620    16.0290   215.2500    28.5877    68.9703   215.9000     0.5998
  3340.40     3.2750     3.0430    17.9430   215.2500    36.1523    68.6029   215.9000     0.6793
  3340.60     3.3210     3.0700    23.2320   214.7500    35.4090    65.6097   215.9000     0.7998
  3340.80     3.0230     3.0800    18.0710   214.7500    40.2516    67.6085   215.9000     0.8378
  3341.00     3.3630     3.1090    37.0130   214.7500    72.6829    66.9292   215.9000     0.8980
  3341.20     3.3380     3.2620    41.8240   214.8250    63.8135    64.6586   215.9000     1.0153
  3341.40     3.4280     3.3240    27.7960   215.1490    37.1849    64.1840   215.9000     1.0793
  3341.60     3.5150     3.1730    23.5650   214.7500    29.8099    67.5339   215.9000     1.0810
  3341.80     3.4250     3.1570    21.6150   215.1250    26.8431    73.5773   215.9000     0.9855
  3342.00     3.1930     3.0970    20.4490   215.2500    26.0654    76.2471   215.9000     0.9593
  3342.20     3.2000     3.1140    15.5670   214.7500    25.8839    77.5226   215.9000     0.9857
  3342.40     3.4160     3.1190    17.7060   214.8410    29.2829    72.4789   215.9000     1.0171
  3342.60     2.9490     3.0930    24.7480   214.7500    32.7638    72.1936   215.9000     1.0154
  3342.80     3.2680     3.0790    20.8610   214.7500    44.7098    66.5373   215.9000     0.9454
  3343.00     3.3880     3.1820    32.6400   214.7500    50.8164    61.1608   215.9000     0.9119
  3343.20     3.2310     3.1370    31.9230   214.7500    57.7754    56.4845   215.9000     0.8700
  3343.40     3.4590     3.2410    39.6590   214.7500    62.2944    51.8705   215.9000     0.8442
  3343.60     3.4830     3.2260    35.0110   214.6590    59.2645    52.8823   215.9000     1.0694
  3343.80     3.2340     2.9480    34.3990   214.5680    54.0191    53.5762   215.9000     1.3108
  3344.00     3.2310     3.0290    33.7090   214.7500    56.4738    54.6178   215.9000     1.4185
  3344.20     3.0330     3.1990    37.0580   214.7500    59.3389    52.4293   215.9000     1.3928
  3344.40     3.1070     3.2870    37.5520   214.7500    64.2068    55.0293   215.9000     1.4502
  3344.60     3.6400     3.6360    39.2220   214.7500    53.4296    56.4526   215.9000     1.5380
  3344.80     3.4400     3.3910    33.5950   214.7500    44.7507    58.9336   215.9000     1.3253
  3345.00     3.6140     3.3410    26.9880   214.7500    38.1952    60.7832   215.9000     1.2787
  3345.20     3.6060     3.2130    25.4650   214.7500    39.6673    61.7033   215.9000     1.3616
  3345.40     3.5370     3.1730    26.5930   214.7500    38.8096    60.5152   215.9000     1.2541
  3345.60     3.4690     3.2740    24.4100   214.7500    41.6194    64.0664   215.9000     1.1601
  3345.80     3.4400     3.1990    29.2740   214.7500    50.7570    61.4004   215.9000     1.1358
  3346.00     3.4130     3.2330    34.9470   214.7500    71.2775    60.7240   215.9000     1.3419
  3346.20     3.4770     3.3130    47.7070   214.7500    65.6043    59.3433   215.9000     1.3646
  3346.40     3.7080     3.2940    37.4380   214.7500    46.8133    60.9287   215.9000     1.0982
  3346.60     3.2620     3.3140    30.6900   214.7500    40.0247    61.9540   215.9000     0.8801
  3346.80     3.2070     3.1890    25.7540   214.7500    43.7012    66.4586   215.9000     0.9918
  3347.00     3.4690     3.3590    31.6370   214.7500    48.9284    67.9948   215.9000     0.9175
  3347.20     3.3750     3.4060    31.5620   214.7500    47.0233    69.0456   215.9000     1.0355
  3347.40     3.3340     3.1470    34.2940   215.3180    45.5904    67.3131   215.9000     0.9236
  3347.60     3.4690     3.2850    27.0760   215.1250    43.2695    71.9243   215.9000     0.7891
  3347.80     3.5220     3.3540    31.3700   214.7500    38.2171    75.9333   215.9000     0.9004
  3348.00     3.6370     3.4150    23.8250   214.7500    34.7607    79.8947   215.9000     0.8195
  3348.20     3.3760     3.1600    21.9170   214.7500    33.2645    81.9253   215.9000     0.9349
  3348.40     3.3760     3.2640    19.8990   214.7500    32.1829    84.6214   215.9000     0.7815
  3348.60     3.2660     3.0290    21.9370   214.5500    28.3912    86.6910   215.9000     0.7652
  3348.80     3.3410     3.2650    16.4780   214.7500    27.9795    87.6222   215.9000     0.6627
  3349.00     3.4570     3.1570    19.2360   214.7500    30.1478    87.5382   215.9000     0.8287
  3349.20     3.3820     3.1140    21.1160   214.6250    29.0612    86.1950   215.9000     0.8390
  3349.40     3.1090     3.1220    21.2450   214.7500    24.7416    85.0928   215.9000     0.7763
  3349.60     2.9200     3.0760    17.8720   214.7500    24.4092    84.0164   215.9000     0.6642
  3349.80     3.3500     3.1480    17.1380   214.7500    21.8454    84.0566   215.9000     0.6118
  3350.00     3.3370     2.9690    15.1130   214.7500    22.1050    80.8568   215.9000     0.6285
  3350.20     3.0860     3.0730    18.0730   214.7500    28.1541    76.8883   215.9000     0.6498
  3350.40     3.0880     3.1480    17.7990   215.0000    40.1366    70.1176   215.9000     0.5112
  3350.60     3.9250     3.3180    35.5690   215.1360    65.5355    62.8467   215.9000     0.4831
  3350.80     3.2920     3.0210    32.4110   215.1360    43.0400    59.3454   215.9000     0.6198
  3351.00     3.4690     3.1840    23.0990   214.8180    39.4316    56.4740   215.9000     0.6732
  3351.20     3.3700     3.0910    24.7990   214.7500    35.8423    57.0001   215.9000     0.6733
  3351.40     3.3790     2.9950    21.9900   214.7500    35.5812    56.8349   215.9000     0.6305
  3351.60     3.1810     3.0910    23.0750   214.7500    41.0330    56.0896   215.9000     0.7652
  3351.80     3.3090     3.1390    26.4450   214.7500    35.2450    54.0975   215.9000     0.6371
  3352.00     3.2790     3.0530    25.7320   214.7500    36.8916    51.2705   215.9000     0.6742
  3352.20     3.3050     3.1180    30.0870   214.7500    45.0527    48.0424   215.9000     0.6051
  3352.40     3.2910     3.0930    34.2530   214.7500    45.2369    43.6864   215.9000     0.6671
  3352.60     3.0510     3.0710    37.5790   215.0000    49.7300    38.9656   215.9000     0.7297
  3352.80     3.1490     3.1350    32.6250   214.7500    59.2477    35.9790   215.9000     0.7876
  3353.00     3.3130     3.0810    38.7970   215.0000    58.2719    33.4115   215.9000     0.5601
