~Version information
  VERS.                            1.20: CWLS LAS  -  VERSION 1.20
  WRAP.                              NO: One line per depth step
~Well information
# MNEM.UNIT
# ====.================================:===================
  STRT.M                        3140.00: First depth in file
  STOP.M                        3450.00: Last depth in file
  STEP.M                           0.20: Depth increment
  NULL.                            9999: Null values
  COMP.                         COMPANY: 
  WELL.                            WELL: 115 
  FLD .                           FIELD: íùÑàçëäÄü
  CNTY.                          COUNTY: 
  STAT.                           STATE: 
  DATE.                        LOG DATE: 30-04-04
  SRVC.                 SERVICE COMPANY: 
  UWI.           Unique Well Identifier: 
~Parametr information block
# MNEM.UNIT
# ====.================================:===================
~Other information
# ------------------------- REMARKS  AREA ------------------
~Curve information
# MNEM.UNIT
# ====.================================:===================
  DEPT.M                               : Depth curve
GZ5.OHMM                               : äÄÜ. ëéèêéíàÇãÖçàÖ áéçÑÄ A8.0M1.0N
GZ4.OHMM                               : äÄÜ. ëéèêéíàÇãÖçàÖ áéçÑÄ A4.0M0.5N
GZ3.OHMM                               : äÄÜ. ëéèêéíàÇãÖçàÖ áéçÑÄ A2.0M0.5N
GZ2.OHMM                               : äÄÜ. ëéèêéíàÇãÖçàÖ áéçÑÄ A1.0M0.1N
GZ1.OHMM                               : äÄÜ.ëéèêéíàÇãÖçàÖ áéçÑÄ A0.4M0.1N
PZ.OHMM                                : äÄÜ.ëéèê.èé èéíÖçñàÄãáéçÑì Ä0.5å6.5N
RRB.OHMM                               : ëéèêéíàÇã.èêéåõÇéóç.ÜàÑäéëíà èÖêÇàó.
CALI.MM                                : ëìååÄêçõâ ÑàÄåÖíê äÄÇÖêçéåÖêÄ
CILA.MMHO                              : áéçÑ àä 7à1.6,Ääí.ëàÉçÄã/àä-è/Äàä-5
SP.MV                                  : ÖëíÖëíÇÖççÄü ëÄåéèéãüêàáÄñàü èé èë
BS.                                    : Ñ≠-216¨¨
GR.UR/H                                : ÖëíÖëíÇÖççÄü ÉÄååÄ-ÄäíàÇçéëíú èé Éä
GZB.OHMM                               : GZB
~ASCII Log Data
# ...
  3352.00    24.7980    31.7808    41.0653    27.4112     8.4562    34.4217     0.7321   208.8519    51.2705   301.6503   215.9000     0.6742    96.3924
  3352.20    25.0157    31.6671    42.6692    27.4955     8.5128    36.0187     0.7326   208.8750    48.0424   299.6077   215.9000     0.6051    95.4608
  3352.40    25.5582    31.7718    44.6259    27.5904     8.4602    37.2890     0.7266   209.3352    43.6864   297.5260   215.9000     0.6671    93.3431
  3352.60    25.9100    32.3313    46.4347    28.1642     8.6066    38.5239     0.7385   209.0939    38.9656   297.4883   215.9000     0.7297    90.4979
  3352.80    26.4190    33.3727    48.0583    28.8626     8.7889    40.0298     0.7480   209.8774    35.9790   298.6096   215.9000     0.7876    86.0461
  3353.00    27.1129    34.7278    49.5228    29.4571     8.7914    41.3022     0.7480   210.3689    33.4115   299.2698   215.9000     0.5601    82.4063
  3353.20    27.7160    36.4971    51.3823    30.4429     8.8600    42.4953     0.7480   210.1919    31.0278   300.0839   215.9000     0.6946    76.1427
  3353.40    28.4326    38.9209    53.7822    31.2024     8.9636    43.4729     0.7478   210.4694    27.6927   300.9061   215.9000     0.6850    70.7156
  3353.60    29.4820    42.1951    57.6195    33.1672     9.1397    44.2817     0.7440   210.2963    25.7675   302.5139   215.9000     0.6524    63.2916
  3353.80    30.4694    47.0376    62.5672    35.8476     9.7937    44.8558     0.7423   209.0268    25.3274   303.0055   215.9000     0.7440    54.7742
  3354.00    31.5644    53.7998    69.4521    38.4902    10.4478    44.6168     0.7307   208.9613    24.3384   301.8705   215.9000     0.9141    45.3592
  3354.20    32.3839    60.8070    77.7844    41.3544    11.1150    43.6811     0.7430   208.5249    23.5182   301.0263   215.9000     0.8917    36.8334
  3354.40    32.6611    68.3717    84.6982    44.9058    11.9877    41.7474     0.7428   208.7702    25.2852   300.3034   215.9000     0.7899    30.1210
  3354.60    32.5092    74.7248    90.0747    47.2374    12.3217    39.5099     0.7392   208.3839    28.6919   300.2551   215.9000     0.7686    25.7740
  3354.80    32.0446    77.9712    92.9654    46.4627    11.9073    37.1732     0.7420   208.2523    33.4097   301.8058   215.9000     0.7653    23.2456
  3355.00    31.0454    80.6425    94.6676    46.3905    11.7205    34.9388     0.7427   209.3790    40.7896   303.8389   215.9000     0.8494    21.3127
  3355.20    30.2391    83.4221    96.5832    46.1284    11.6630    33.0794     0.7380   208.6802    48.7429   304.5952   215.9000     0.8805    19.3023
  3355.40    29.5527    86.0197    97.8163    44.5552    11.4720    30.9208     0.7380   209.1557    58.0865   304.1611   215.9000     0.9473    17.5692
  3355.60    29.0809    89.0435    99.3062    44.1663    11.4833    28.6007     0.7380   209.8029    64.5584   303.0195   215.9000     0.9366    15.8581
  3355.80    28.4816    94.2013   102.4102    45.4376    11.7390    25.9494     0.7392   209.7265    71.8074   302.5530   215.9000     0.9984    14.2774
  3356.00    27.5112    99.7280   105.2800    46.6563    12.4845    22.8264     0.7430   212.0452    78.7919   301.8057   215.9000     0.8957    13.4486
  3356.20    26.0842   101.7765   103.2030    44.4454    12.1549    19.9070     0.7427   207.4446    87.7001   301.7604   215.9000     0.9531    13.4905
  3356.40    24.0434    95.4154    91.4442    39.9822    11.4120    17.2663     0.7382   205.5333    98.5711   303.2182   215.9000     1.0479    14.5183
  3356.60    21.1464    84.9223    74.8284    34.4471     9.8977    15.4192     0.7427   206.0672   114.3125   303.7802   215.9000     1.0049    16.2635
  3356.80    18.1636    71.8275    59.9271    27.1804     8.1544    14.5177     0.7380   204.2370   126.0358   305.4219   215.9000     0.9459    17.9436
  3357.00    15.3836    60.4832    48.5801    22.9118     7.2833    14.2627     0.7380   205.1456   140.0981   306.9047   215.9000     0.9427    18.6476
  3357.20    13.1658    53.9186    42.8493    20.6807     7.2210    14.2299     0.7380   205.0667   143.1895   306.2910   215.9000     0.9062    18.7996
  3357.40    11.5345    49.4668    38.7788    19.8561     7.7276    14.0622     0.7379   204.8634   144.4763   307.4382   215.9000     1.0669    18.5618
  3357.60    10.5128    45.2717    34.7604    19.0660     7.9551    13.7787     0.7378   205.8296   137.0321   308.6825   215.9000     1.1560    18.5121
  3357.80     9.6508    40.4561    30.8351    18.4383     7.7292    13.3789     0.7528   206.0420   130.6729   309.2377   215.9000     1.0746    18.3114
  3358.00     8.8328    34.7080    26.6872    17.6970     7.3641    13.1059     0.7475   206.5811   127.6292   311.4162   215.9000     0.9736    17.6962
  3358.20     8.1378    29.1854    23.1134    17.5378     7.2243    13.0150     0.7382   205.9901   130.5019   313.4693   215.9000     1.0294    17.0441
  3358.40     7.6360    24.3915    19.9899    16.6254     7.0391    13.1503     0.7435   205.9025   137.5136   311.8944   215.9000     1.1507    16.8569
  3358.60     7.1821    20.3846    17.4359    15.5799     6.6281    13.5858     0.7528   206.0354   133.5314   310.7329   215.9000     1.1400    16.8588
  3358.80     6.8496    17.6276    15.8497    14.7189     6.3750    14.2122     0.7485   206.2354   132.6405   310.2787   215.9000     1.0433    16.5490
  3359.00     6.6280    15.8854    15.3983    15.0596     6.5889    15.0529     0.7580   207.0066   130.5494   312.2372   215.9000     0.9892    16.1429
  3359.20     6.5290    14.9998    15.9651    15.8385     7.0341    15.8048     0.7580   207.4176   127.2913   314.1245   215.9000     0.9213    15.9900
  3359.40     6.4440    14.2597    16.5586    16.4513     7.2778    16.0326     0.7581   207.4146   123.5045   312.7628   215.9000     1.0084    15.9851
  3359.60     6.6330    13.6399    17.4005    18.3137     7.9224    15.7022     0.7595   207.1419   119.2041   313.0811   215.9000     1.1033    15.8803
  3359.80     6.6330    13.4840    18.8024    21.2052     8.6939    14.9146     0.7678   206.7701   117.5665   313.4959   215.9000     0.9742    15.6778
  3360.00     6.6302    13.0189    20.0108    23.1716     9.1253    13.5215     0.7625   205.9362   120.1184   314.4359   215.9000     0.9373    15.7540
  3360.20     6.5690    12.0571    20.4116    23.1574     9.0031    12.0348     0.7525   206.9880   123.3084   313.5694   215.9000     0.8861    17.0650
  3360.40     6.3979    10.6878    19.7187    20.7698     7.9512    11.0279     0.7430   206.3109   130.4404   314.1879   215.9000     0.9079    20.1485
  3360.60     6.0250     9.1117    18.1492    18.4520     7.0020    10.3868     0.7435   206.4792   139.5335   315.3954   215.9000     0.9248    24.0931
  3360.80     5.8350     8.0818    16.5473    15.8658     6.1918    10.5454     0.7528   207.1978   148.0712   316.6733   215.9000     0.9164    28.7041
  3361.00     5.8412     7.3734    15.2172    13.2231     5.6017    11.1594     0.7485   207.0653   151.2073   315.8739   215.9000     0.8245    33.4784
  3361.20     5.9799     6.9798    13.9979    11.4157     5.2950    12.2981     0.7572   207.4736   149.8207   315.4355   215.9000     0.7385    38.0646
  3361.40     6.3756     6.9658    13.1020    10.6307     5.3351    14.0493     0.7600   206.8298   145.0907   316.8793   215.9000     0.7104    41.8112
  3361.60     6.7188     7.1725    12.7109    10.6692     5.4022    15.9499     0.7610   207.0138   138.8044   316.7830   215.9000     0.7174    44.2399
  3361.80     7.2950     7.5688    12.8953    12.0104     5.9890    17.3694     0.7610   207.3803   125.9734   318.1660   215.9000     0.6899    44.7304
  3362.00     7.8931     8.0590    13.5595    14.7623     6.9906    18.7900     0.7610   208.5901   111.2061   319.5283   215.9000     0.7458    42.8304
  3362.20     8.4646     8.4350    14.1629    16.8058     7.6281    19.6761     0.7611   207.6254    95.5785   319.3037   215.9000     0.7433    41.6212
  3362.40     8.8400     8.7119    14.2712    18.4033     7.9612    20.2917     0.7628   207.3372    83.9842   317.6436   215.9000     0.7894    42.3675
