~Version information
  VERS.                            1.20: CWLS LAS  -  VERSION 1.20
  WRAP.                              NO: One line per depth step
~Well information
# MNEM.UNIT
# ====.================================:===================
  STRT.M                        3148.00: First depth in file
  STOP.M                        3449.00: Last depth in file
  STEP.M                           0.20: Depth increment
  NULL.                            9999: Null values
  COMP.                         COMPANY: 
  WELL.                            WELL: 115 
  FLD .                           FIELD: íÌ§®≠·™†Ô
  CNTY.                          COUNTY: 
  STAT.                           STATE: 
  DATE.                        LOG DATE: 29-04-04
  SRVC.                 SERVICE COMPANY: 
  UWI.           Unique Well Identifier: 
~Parametr information block
# MNEM.UNIT
# ====.================================:===================
~Other information
# ------------------------- REMARKS  AREA ------------------
~Curve information
# MNEM.UNIT
# ====.================================:===================
  DEPT.M                               : Depth curve
SFND.1/CM                              : SFND
SFFD.1/CM                              : SFFD
TCND.                                  : àçíÖÉêÄãúçõâ ëóÖí, åÄãõâ áéçÑ / àçä
TCFD.                                  : àçíÖÉêÄãúçõâ ëóÖí, Å. áéçÑ / àçä
TCNC.                                  : äéåè.àçíÖÉê. ëóÖí, åÄãõâ áéçÑ / àçä
TCFC.                                  : äéåè.àçíÖÉêÄãúçõâ ëóÖí,Å.áéçÑ / àçä
~ASCII Log Data
# ...
  3338.80    14.0350    11.6430  5904.0000   759.0000  6471.0000  1940.0000
  3339.00    12.5360     9.9110  4844.0000   716.0000  5067.0000  1742.0000
  3339.20    12.7450     9.0050  6273.0000   907.0000  6703.0000  2355.0000
  3339.40    12.2070     9.3890  5127.0000   877.0000  5552.0000  2035.0000
  3339.60    13.1910     9.5810  8064.0000  1251.0000  8502.0000  3035.0000
  3339.80    11.9420     9.9790  7487.0000  1149.0000  8271.0000  2777.0000
  3340.00    13.6700    10.7410  6235.0000   910.0000  6768.0000  2164.0000
  3340.20    12.7380     9.9830  6123.0000   931.0000  6255.0000  2282.0000
  3340.40    11.5960     9.9400  5802.0000   811.0000  5977.0000  1911.0000
  3340.60    13.2570     9.8560  7584.0000  1009.0000  7894.0000  2514.0000
  3340.80    12.8180    10.1730  5818.0000   926.0000  6040.0000  2198.0000
  3341.00    14.4550    10.8580  7949.0000   952.0000  8641.0000  2429.0000
  3341.20    13.3160    10.8370  7380.0000   968.0000  8078.0000  2466.0000
  3341.40    13.2760     9.9640  7379.0000   975.0000  7966.0000  2492.0000
  3341.60    12.3660    10.0780  7237.0000  1033.0000  7587.0000  2576.0000
  3341.80    12.1830    10.5910  6118.0000  1100.0000  6251.0000  2428.0000
  3342.00    12.4740    10.0990  6250.0000  1135.0000  6243.0000  2681.0000
  3342.20    12.1640     9.4570  6250.0000  1135.0000  6243.0000  2681.0000
  3342.40    11.8080     8.9830  7718.0000  1266.0000  7918.0000  2814.0000
  3342.60    11.9800     9.2680  7376.0000  1250.0000  7865.0000  2715.0000
  3342.80    11.7290    10.3480  6043.0000  1090.0000  6544.0000  2431.0000
  3343.00    11.6240    10.6050  4308.0000   660.0000  4555.0000  1609.0000
  3343.20    12.8080    10.0060  4569.0000   705.0000  4680.0000  1751.0000
  3343.40    12.9690    10.1410  6842.0000   943.0000  7447.0000  2270.0000
  3343.60    12.4010     9.4540  7243.0000   902.0000  8194.0000  2182.0000
  3343.80    11.1520     8.8350  5200.0000   884.0000  5380.0000  1956.0000
  3344.00    12.0130     8.8550  5838.0000  1035.0000  6194.0000  2340.0000
  3344.20    11.6470     8.9120  7489.0000  1306.0000  7979.0000  2881.0000
  3344.40    11.1890     9.2700  6677.0000  1209.0000  6885.0000  2739.0000
  3344.60    11.1270     9.1580  5796.0000  1006.0000  5862.0000  2115.0000
  3344.80    10.6900     8.4550  6273.0000  1106.0000  6286.0000  2341.0000
  3345.00    10.7140     8.5920  6755.0000  1127.0000  6922.0000  2416.0000
  3345.20    13.0680     9.5290  9548.0000  1342.0000 10699.0000  3104.0000
  3345.40    12.2350     8.7680  7813.0000  1173.0000  7832.0000  2590.0000
  3345.60    12.1730     9.7040  5431.0000   984.0000  5404.0000  2107.0000
  3345.80    12.1370    10.1740  4664.0000   784.0000  5036.0000  1725.0000
  3346.00    11.6740     8.5360  5780.0000  1052.0000  6089.0000  2262.0000
  3346.20    12.0600     9.3500  7980.0000  1177.0000  8716.0000  2573.0000
  3346.40    12.3820     8.6050  6418.0000  1093.0000  6501.0000  2404.0000
  3346.60    12.2370     8.5120  8309.0000  1497.0000  8729.0000  3131.0000
  3346.80    11.8470     8.5850  8309.0000  1497.0000  8729.0000  3131.0000
  3347.00    11.0600     8.8960  7438.0000  1448.0000  7524.0000  3210.0000
  3347.20    12.1780     9.4920  9095.0000  1726.0000 10496.0000  3841.0000
  3347.40    12.5020     8.8750  7437.0000  1504.0000  8229.0000  3241.0000
  3347.60    10.8720     8.9660  6313.0000  1345.0000  6406.0000  2725.0000
  3347.80    11.7180     8.3070  5842.0000  1214.0000  6037.0000  2511.0000
  3348.00    11.4990     8.3460  6723.0000  1611.0000  6943.0000  3657.0000
  3348.20    12.4160     8.9910  7605.0000  1566.0000  7850.0000  3334.0000
  3348.40    11.8540     9.8700  7020.0000  2266.0000  7344.0000  5084.0000
  3348.60    11.0640     9.4000  6435.0000  1135.0000  6838.0000  2493.0000
  3348.80    11.6050     8.9550  6905.0000  1273.0000  7028.0000  2836.0000
  3349.00    11.7720     9.1230  6086.0000  1214.0000  6081.0000  2616.0000
  3349.20    11.8350     8.8550  5542.0000  1026.0000  5668.0000  2193.0000
  3349.40    13.1670     8.9060  8283.0000  1205.0000  8737.0000  2764.0000
  3349.60    13.2330     8.9590  5127.0000   934.0000  5280.0000  1986.0000
  3349.80    13.1990     9.1830  8044.0000  1255.0000  8127.0000  2729.0000
  3350.00    12.2180     9.5460  6256.0000  1029.0000  6493.0000  2307.0000
  3350.20    12.1000     9.1670  6072.0000  1001.0000  6285.0000  2300.0000
  3350.40    13.5300     8.8680  9241.0000  1188.0000 10260.0000  2696.0000
  3350.60    13.1300     9.6200  6410.0000   962.0000  6530.0000  2296.0000
  3350.80    12.0620     9.3380  6375.0000  1116.0000  6812.0000  2534.0000
  3351.00    12.7600    10.3860  6100.0000  1054.0000  6195.0000  2629.0000
  3351.20    12.5740    10.4990  6916.0000  1156.0000  7484.0000  2646.0000
  3351.40    11.9920     9.9590  5496.0000  1101.0000  5836.0000  2427.0000
  3351.60    13.0520     9.8130  5496.0000  1101.0000  5836.0000  2427.0000
  3351.80    12.0240     9.8700  5142.0000  1060.0000  5361.0000  2379.0000
  3352.00    11.5290     9.5350  5152.0000  1061.0000  5254.0000  2306.0000
  3352.20    10.7240     8.8090  5707.0000  1127.0000  6440.0000  2516.0000
  3352.40    10.9330     8.7360  4704.0000  1037.0000  4610.0000  2224.0000
  3352.60    11.2400     9.0910  5336.0000  1208.0000  5488.0000  2572.0000
  3352.80    12.9970     8.7670  6660.0000  1317.0000  7390.0000  2858.0000
  3353.00    13.0590     8.9950  6942.0000  1271.0000  7936.0000  2926.0000
  3353.20    12.8450     8.8330  7498.0000  1340.0000  7907.0000  3133.0000
  3353.40    11.5310     8.6890  5214.0000  1144.0000  5283.0000  2403.0000
  3353.60    12.7680     9.5540  7596.0000  1376.0000  8866.0000  3226.0000
  3353.80    13.8260     9.7030  7372.0000  1446.0000  7635.0000  3132.0000
  3354.00    11.7960     9.5900  5884.0000  1425.0000  5949.0000  3016.0000
  3354.20    10.7550     9.7410  6396.0000  1441.0000  6809.0000  3285.0000
  3354.40    12.3440     9.4100  5493.0000  1563.0000  5660.0000  3394.0000
  3354.60    12.2190     9.4960  5151.0000  1422.0000  5220.0000  3124.0000
  3354.80    11.6730     9.6100  5133.0000  1518.0000  5434.0000  3449.0000
  3355.00    11.4430     8.7570  5299.0000  1660.0000  5604.0000  3755.0000
  3355.20    11.9530     8.4910  5661.0000  1803.0000  5825.0000  4030.0000
  3355.40    12.1130     8.7790  6108.0000  1946.0000  6305.0000  4581.0000
  3355.60    11.9050     9.4010  5774.0000  2044.0000  6044.0000  4548.0000
  3355.80    12.3130     8.9010  4516.0000  1496.0000  4471.0000  3419.0000
  3356.00    12.9390     8.6010  5101.0000  1441.0000  5397.0000  3292.0000
  3356.20    12.6880     9.3300  5063.0000  1378.0000  5050.0000  3061.0000
  3356.40    12.3500     9.3830  5063.0000  1378.0000  5050.0000  3061.0000
  3356.60    12.0690     9.3420  5206.0000  1412.0000  5383.0000  3266.0000
  3356.80    13.1210     9.2990  5320.0000  1675.0000  6012.0000  3889.0000
  3357.00    12.2170     9.6800  6184.0000  1531.0000  6456.0000  3704.0000
  3357.20    12.2760    10.1400  4915.0000  1372.0000  5270.0000  3293.0000
  3357.40    12.4550     9.5950  4393.0000  1104.0000  4431.0000  2448.0000
  3357.60    12.7880    10.1040  6468.0000  1350.0000  7202.0000  3007.0000
  3357.80    13.2880     9.5940  6617.0000  1298.0000  7374.0000  2940.0000
  3358.00    12.6220    10.4660  6110.0000  1041.0000  6467.0000  2446.0000
  3358.20    13.8690    10.4810  7378.0000  1178.0000  8192.0000  2797.0000
  3358.40    14.3480    10.8250  7079.0000  1081.0000  7753.0000  2630.0000
  3358.60    12.4800     9.7180  5219.0000   975.0000  5242.0000  2359.0000
  3358.80    13.6820     9.5860  5431.0000   960.0000  5925.0000  2289.0000
  3359.00    12.9670     9.9740  6661.0000  1187.0000  7088.0000  2755.0000
  3359.20    13.0780     9.8860  5927.0000   962.0000  6294.0000  2292.0000
  3359.40    13.6460     9.9390  5004.0000   994.0000  5127.0000  2271.0000
  3359.60    13.2270     9.3270  5884.0000  1083.0000  6280.0000  2620.0000
  3359.80    13.6000     9.4390  5729.0000  1032.0000  6044.0000  2497.0000
