~Version Information
#-------------------
Vers.        2.0: CWLS log ASCII Standart - VERSION 2.0
WRAP.         NO: One line per depth step
~Well Information Block
#----------------------
#MNEM.UNIT  VALUE: DESCRIPTION
#----.---- -------: -------------
STRT.M     90.00: 
STOP.M    460.00: 
STEP.M      0.20:  
NULL.  -9999.990:  
COMP.           : 
WELL.           : 115
FLD .           : Тэдинская
LOC .           : 
CNTY.           : 
SRVC.           : 
DATE.           : 21-03-04
UWI .           : 
~Parameter Information
#---------------------
#MNEM.UNIT  VALUE: DESCRIPTION
#----.---- -------: ---------------
~Curve Information Block
#-----------------------
#MNEM.UNIT       : CURVE DESCRIPTION
#----.----       : -----------------
DEPT.M          : 
Aя  .           : Амплитуда - волна по колонне 
Tя  .мкс        : Время пробега - волна по породе
Aъ  .           : Амплитуда - волна по породе
DK  .дБ         : Затухание
akz .           : контакт цемент-колонна
~Other Information
#-----------------
~Ascii Log Data
# ...
       354    126.712    633.871     92.718     22.949          3 
     354.2    130.137    644.521     97.149     24.049          3 
     354.4    178.082    632.133    110.484     21.473          3 
     354.6    125.686     628.16    133.382     19.795          3 
     354.8    153.391    629.248    153.065     18.645          3 
       355    169.697     629.49    178.563     17.258          3 
     355.2    168.558    628.939    172.497     17.566          3 
     355.4     162.47    628.479    152.871     18.654          3 
     355.6    210.812    627.038     175.19      20.95          3 
     355.8    290.033     625.11     351.87     14.545          1 
       356    296.181    622.458    323.764      12.19          1 
     356.2    276.311     620.33    256.128     14.155          1 
     356.4     296.29    619.509    274.246     13.676          1 
     356.6    351.216    618.895    380.393     10.704          1 
     356.8    370.251    619.245    373.993     10.843          1 
       357    353.874    619.477    359.248     11.186          1 
     357.2    320.369     619.17    330.099     11.927          1 
     357.4    271.047    618.609    270.337     13.725          1 
     357.6    206.351    618.253    221.293     15.494          1 
     357.8     116.66    621.705    144.725     19.174          1 
       358    106.164    637.009     83.933     24.388          1 
     358.2     85.616    667.827     78.353     24.543          1 
     358.4     82.192    718.785     70.298     25.538          1 
     358.6     78.767    781.011     37.712     31.011          4 
     358.8     50.684    831.808     19.735      37.27          4 
       359     22.079    839.025     12.012      45.55          4 
     359.2     27.441    892.268          0     62.292          4 
     359.4     46.808   1058.463          0     62.292          4 
     359.6     58.586   1284.193      1.209     62.292          4 
     359.8     44.071   1331.319          0     62.292          4 
       360     21.486   1217.095          0     62.292          4 
     360.2     39.831   1069.584          0     62.292          4 
     360.4      60.47    996.275       18.5     50.664          4 
     360.6     43.815   1003.217     31.313     36.321          4 
     360.8      32.65   1071.549      7.125     45.237          4 
       361     26.214   1050.359       4.75     43.859          4 
     361.2     21.055   1033.385     12.298     38.351          4 
     361.4      21.78   1176.309      8.566     48.117          4 
     361.6     13.802   1251.196      3.361     62.292          4 
     361.8     17.123    1153.59      3.361     62.292          4 
       362     17.123   1023.102      1.334     62.292          4 
     362.2      3.918    972.435          0     62.292          4 
     362.4     16.492    986.697          0     62.292          4 
     362.6     23.878     994.54          0     62.292          4 
     362.8      19.51   1114.001          0     62.292          4 
       363     27.397   1129.426          0     62.292          4 
     363.2     30.822    887.978     27.417     40.771          4 
     363.4     34.247    767.862      29.75     33.509          4 
     363.6    131.671    764.459      12.25     45.436          4 
     363.8    101.963    753.895          0     62.292          4 
       364     99.386    720.862     16.107     43.851          4 
     364.2    132.732    722.167      8.054     53.071          4 
     364.4    119.116    739.958      0.409     61.705          4 
     364.6      62.07    835.621      0.817     61.117          4 
     364.8      31.16    995.388          0     62.292          4 
       365     30.822   1063.586          0     62.292          4 
     365.2     30.822    1020.33      6.362     53.754          4 
     365.4     30.822   1016.224     12.725     45.216          4 
     365.6     30.822   1043.135          0     62.292          4 
     365.8     24.248    913.539          0     62.292          4 
       366    143.836    742.047          0     62.292          4 
     366.2    140.411    682.191     15.709     43.996          4 
     366.4    130.137    651.185     84.484     29.641          2 
     366.6    106.164    630.272    130.273     20.124          2 
     366.8    130.137    623.658     94.109     22.855          2 
       367    133.562    621.849    101.686     22.232          2 
     367.2    140.411    621.909    127.148     20.256          2 
     367.4    163.089    622.538    154.144     18.025          2 
     367.6    215.753    622.498    191.939     16.111          2 
     367.8    222.603     622.28    183.689     17.032          2 
       368    222.603    622.236    167.588     17.026          2 
     368.2    160.585    622.241    157.632     17.558          2 
     368.4    181.507    621.784    134.572     20.537          2 
     368.6    171.233    627.814    109.696     21.502          3 
     368.8    157.534    652.142     85.657     23.704          3 
       369    119.863    644.352    109.383     21.717          3 
     369.2    119.863    652.519     96.441     24.301          3 
     369.4    116.438    679.128     62.536     26.435          3 
     369.6    116.438    677.084      64.35     26.207          3 
     369.8    180.849      663.1     68.575     25.703          3 
       370    162.424    677.154     58.898     26.964          3 
     370.2     91.494    680.278     71.426     25.216          3 
     370.4     92.466    644.152     83.689     23.883          3 
     370.6      95.89    620.947     96.976     22.576          3 
     370.8     99.315    642.195     90.672     23.187          3 
       371    143.448    676.685     79.927      24.24          3 
     371.2    178.326    683.318     77.375     24.525          3 
     371.4    132.101    677.178     65.732     25.996          3 
     371.6     89.041    649.769      75.42     24.839          3 
     371.8     89.041     665.75      78.82     24.366          3 
       372     85.616     723.52      77.41     24.521          4 
     372.2     85.616    767.323     57.879     27.364          4 
     372.4     85.616    735.808     62.607     26.527          4 
     372.6     85.616    710.668     64.825     26.178          4 
     372.8     78.767    699.634     65.357     26.115          4 
       373     89.041    676.201     72.756     25.061          4 
     373.2     89.041    693.049      74.35     24.871          4 
     373.4     85.616    768.535     60.348     26.743          4 
     373.6     75.342     804.22      49.04     28.512          4 
     373.8     61.644    912.878     51.084     28.283          4 
       374     65.068   1106.065     46.024     29.091          4 
     374.2     58.219   1129.934     48.317     28.731          4 
     374.4      51.37     1081.4     37.924     30.714          4 
     374.6     54.795   1169.325      30.09     30.292          4 
     374.8       50.8    1062.52     30.279     33.254          4 
       375     52.016     824.34         39     34.455          4 
     375.2     47.945     741.93        7.8     56.725          4 
     375.4     54.795    785.399     10.223     49.186          4 
     375.6     58.219    804.821     27.965     33.928          3 
     375.8     75.342    708.007     51.675     28.092          3 
       376     75.342    666.598     66.737     25.901          3 
     376.2    116.438    661.803     70.385     25.361          3 
     376.4    123.288    638.831     81.956     24.044          3 
     376.6    130.137    625.685    116.093     21.201          3 
     376.8    169.457    626.719    162.725      18.14          3 
       377    237.392    628.458    239.972     14.775          1 
     377.2    565.068    629.191    286.297     13.171          1 
     377.4    585.616    628.849    517.123      9.864          1 
     377.6     595.89    626.178    544.521      5.405          1 
     377.8    606.164    622.215    568.493     10.416          1 
