~Version information
  VERS.                            1.20: CWLS LAS  -  VERSION 1.20
  WRAP.                              NO: One line per depth step
~Well information
# MNEM.UNIT
# ====.================================:===================
  STRT.M                        3140.00: First depth in file
  STOP.M                        3450.00: Last depth in file
  STEP.M                           0.20: Depth increment
  NULL.                            9999: Null values
  COMP.                         COMPANY: 
  WELL.                            WELL: 115 
  FLD .                           FIELD: íùÑàçëäÄü
  CNTY.                          COUNTY: 
  STAT.                           STATE: 
  DATE.                        LOG DATE: 30-04-04
  SRVC.                 SERVICE COMPANY: 
  UWI.           Unique Well Identifier: 
~Parametr information block
# MNEM.UNIT
# ====.================================:===================
~Other information
# ------------------------- REMARKS  AREA ------------------
~Curve information
# MNEM.UNIT
# ====.================================:===================
  DEPT.M                               : Depth curve
GZ5.OHMM                               : äÄÜ. ëéèêéíàÇãÖçàÖ áéçÑÄ A8.0M1.0N
GZ4.OHMM                               : äÄÜ. ëéèêéíàÇãÖçàÖ áéçÑÄ A4.0M0.5N
GZ3.OHMM                               : äÄÜ. ëéèêéíàÇãÖçàÖ áéçÑÄ A2.0M0.5N
GZ2.OHMM                               : äÄÜ. ëéèêéíàÇãÖçàÖ áéçÑÄ A1.0M0.1N
GZ1.OHMM                               : äÄÜ.ëéèêéíàÇãÖçàÖ áéçÑÄ A0.4M0.1N
PZ.OHMM                                : äÄÜ.ëéèê.èé èéíÖçñàÄãáéçÑì Ä0.5å6.5N
RRB.OHMM                               : ëéèêéíàÇã.èêéåõÇéóç.ÜàÑäéëíà èÖêÇàó.
CALI.MM                                : ëìååÄêçõâ ÑàÄåÖíê äÄÇÖêçéåÖêÄ
CILA.MMHO                              : áéçÑ àä 7à1.6,Ääí.ëàÉçÄã/àä-è/Äàä-5
SP.MV                                  : ÖëíÖëíÇÖççÄü ëÄåéèéãüêàáÄñàü èé èë
BS.                                    : Ñ≠-216¨¨
GR.UR/H                                : ÖëíÖëíÇÖççÄü ÉÄååÄ-ÄäíàÇçéëíú èé Éä
GZB.OHMM                               : GZB
~ASCII Log Data
# ...
  3373.20    18.5793    70.7607    82.3570    41.0945    11.3714    27.2428     0.7661   210.1149    70.2793   345.8283   215.9000     1.1888    35.5010
  3373.40    18.0954    71.4189    80.8848    40.5252    11.3506    25.1373     0.7682   209.3266    70.4704   346.0854   215.9000     0.9974    37.6708
  3373.60    17.4136    69.3988    77.0787    38.0227    10.7702    23.4217     0.7713   209.2031    77.8926   346.1921   215.9000     1.0401    41.6442
  3373.80    16.5656    65.0431    69.0082    34.5289     9.9372    22.0911     0.7767   209.4838    83.5407   346.5293   215.9000     0.9830    47.5126
  3374.00    15.7164    58.9646    60.1761    29.4547     8.7980    21.4485     0.7709   209.0241    86.4462   345.0296   215.9000     1.3189    54.1965
  3374.20    14.8614    52.9483    52.6420    26.0760     8.0122    21.5061     0.7679   209.7468    89.4752   346.0360   215.9000     1.2006    60.7444
  3374.40    14.3399    47.9634    46.3854    23.2517     7.5018    22.1144     0.7658   209.6827    90.5402   346.1289   215.9000     1.1698    67.6255
  3374.60    14.0150    43.5966    41.4170    20.7823     7.1081    23.2558     0.7632   209.2744    88.0014   345.5766   215.9000     1.0761    74.3680
  3374.80    14.0184    40.5592    38.0842    19.4916     6.9199    24.6865     0.7677   209.5670    81.5122   342.8918   215.9000     0.8159    80.3232
  3375.00    14.0969    38.9007    35.7057    20.1432     7.2866    26.3912     0.7607   209.5910    73.5526   339.9215   215.9000     0.8823    80.7751
  3375.20    14.4026    38.3223    34.4503    20.4718     7.4472    27.9934     0.7554   209.7240    65.0654   337.9766   215.9000     0.7388    79.8340
  3375.40    14.8413    37.5779    33.4151    21.6425     7.7442    29.5788     0.7630   210.4429    55.6765   336.3244   215.9000     0.8106    78.7662
  3375.60    15.4180    37.7670    33.1213    22.7020     7.9100    31.0934     0.7632   210.7410    50.5616   338.3593   215.9000     0.8222    76.3738
  3375.80    16.2007    37.7887    32.9701    23.9255     8.1086    32.2255     0.7683   210.7310    46.0876   339.6693   215.9000     0.8401    73.3600
  3376.00    17.0323    38.2621    33.7164    25.2915     8.2721    33.4366     0.7742   211.9473    41.5645   338.7293   215.9000     1.1137    71.6824
  3376.20    18.2071    39.4932    36.0656    27.6842     8.6741    34.2937     0.7790   211.5809    37.9154   337.3384   215.9000     1.2155    70.0546
  3376.40    19.5893    40.8967    38.7869    29.2572     9.0456    34.8984     0.7785   211.7537    34.3525   336.5164   215.9000     1.0940    68.8279
  3376.60    21.3452    41.9314    41.3385    29.1103     8.8305    35.7198     0.7683   212.0276    32.1411   338.4285   215.9000     1.1321    66.7588
  3376.80    23.2918    43.0385    44.2665    29.2537     8.5166    36.3955     0.7735   215.8171    30.3295   338.5715   215.9000     1.1346    62.6267
  3377.00    25.2649    45.3265    49.5566    31.6990     8.9360    36.6539     0.7630   214.1895    29.3716   340.0016   215.9000     1.1479    57.6351
  3377.20    26.7780    49.0222    57.1091    35.4765     9.8860    36.2700     0.7627   211.4164    27.9488   339.5317   215.9000     1.1811    53.4127
  3377.40    27.7596    50.8030    64.4344    38.9838    10.9472    35.1093     0.7568   211.9978    27.8970   339.1787   215.9000     1.1329    51.4799
  3377.60    27.9600    50.1553    67.1224    38.2557    10.5104    33.9451     0.7538   212.3950    30.5721   341.5554   215.9000     0.8883    51.0007
  3377.80    27.5311    47.8917    67.5104    37.4207    10.0839    32.9999     0.7670   212.0720    30.3769   340.5613   215.9000     0.9977    51.3333
  3378.00    26.5331    46.6165    67.8401    36.3652     9.7548    32.6649     0.7484   212.1034    35.2524   339.4547   215.9000     1.1570    51.2773
  3378.20    25.5461    45.9850    67.0708    34.4297     9.3172    32.4395     0.7560   212.6918    41.9332   336.6881   215.9000     1.0670    51.5895
  3378.40    24.7593    46.1541    66.4729    33.3568     9.3734    32.1460     0.7558   212.1563    47.5293   335.9762   215.9000     1.1426    51.9755
  3378.60    24.2028    47.7116    66.4330    33.6470     9.6568    31.7743     0.7516   211.7968    49.5143   337.9218   215.9000     1.1212    51.5242
  3378.80    23.9819    50.7584    67.6156    33.9129     9.8916    31.1372     0.7631   212.0603    50.6626   337.4161   215.9000     1.2110    50.7005
  3379.00    23.8062    54.8259    69.6136    36.0468    10.4460    30.0791     0.7652   212.0394    50.7360   333.7782   215.9000     1.0583    50.5804
  3379.20    23.3692    58.4022    71.0662    35.3540    10.2813    29.3636     0.7680   211.1569    51.7016   336.1122   215.9000     1.0676    51.8601
  3379.40    22.8988    59.5583    67.4786    33.0057     9.6431    28.6889     0.7683   210.4627    54.6842   336.2219   215.9000     1.1193    54.5385
  3379.60    22.1497    58.6306    62.1591    31.6268     9.3066    28.2871     0.7740   210.2859    58.2385   333.7769   215.9000     1.1549    57.8899
  3379.80    20.9241    57.0475    57.4620    30.0065     9.0045    28.2813     0.7746   210.2879    61.5905   331.2730   215.9000     0.9808    60.8832
  3380.00    19.7138    55.5327    53.9133    28.4440     8.7849    28.5016     0.7680   210.3515    64.1520   328.7587   215.9000     0.9643    64.1957
  3380.20    18.6647    53.5420    50.6190    26.6937     8.3895    29.0326     0.7679   210.5406    65.6366   326.8424   215.9000     1.0642    67.5462
  3380.40    17.9081    51.4678    48.1821    25.9022     8.1494    29.9057     0.7675   210.6783    64.1256   326.9638   215.9000     1.0529    68.8189
  3380.60    17.3234    49.9594    47.7356    25.8268     8.1358    30.8245     0.7780   210.5757    61.7503   326.6438   215.9000     1.0967    67.9093
  3380.80    17.0021    49.9441    48.3075    26.9167     8.4916    31.8030     0.7778   210.6878    58.4476   327.4251   215.9000     0.8616    65.7052
  3381.00    16.9080    51.0228    49.5762    27.9364     8.8510    32.1877     0.7741   210.7784    54.8335   326.0369   215.9000     0.8513    63.3640
  3381.20    16.9130    52.7429    50.0383    29.7683     9.3200    32.6399     0.7762   211.1395    48.1347   324.8256   215.9000     0.7959    62.1181
  3381.40    17.0180    53.7070    50.0432    30.5100     9.5370    32.6811     0.7792   211.0152    43.4377   323.8371   215.9000     0.7294    61.8951
  3381.60    17.2220    52.9144    49.6662    30.7752     9.3365    32.7838     0.7840   211.0437    43.3365   323.1294   215.9000     0.9654    61.1392
  3381.80    17.5254    52.6791    50.0326    30.7678     9.1538    32.9087     0.7839   211.4894    40.8348   320.4930   215.9000     0.9553    59.2768
  3382.00    17.9285    53.2089    50.4628    30.8644     9.0817    33.2051     0.7825   211.3905    41.1149   320.4082   215.9000     0.9918    57.6828
  3382.20    18.6539    54.6960    51.3056    30.2623     8.8484    33.5334     0.7732   211.4704    40.2721   319.7777   215.9000     0.8774    55.7806
  3382.40    19.6459    57.1155    53.4821    30.6928     8.8820    33.6049     0.7781   210.6449    38.2542   318.2453   215.9000     0.9464    51.5453
  3382.60    20.5489    59.4543    56.9084    32.7211     9.4002    33.7252     0.7788   210.7575    35.8566   318.7823   215.9000     1.0294    46.0305
  3382.80    21.5459    60.3832    60.7405    34.1973     9.8871    33.5083     0.7740   211.5006    33.5741   317.5701   215.9000     0.9916    40.9269
  3383.00    22.5303    60.5563    63.1146    34.7796    10.0472    32.8933     0.7735   211.3501    34.2220   315.6711   215.9000     0.8709    36.7418
  3383.20    23.2558    59.7648    64.7222    35.2826    10.1580    32.2658     0.7624   211.1395    37.7043   314.2528   215.9000     0.8892    33.6901
  3383.40    23.9513    59.0571    65.0646    35.1999    10.0352    31.7395     0.7516   210.7086    42.3916   315.3174   215.9000     0.9108    31.6200
  3383.60    24.6666    58.6674    65.0428    34.9279     9.8834    31.1593     0.7633   210.9935    47.8741   312.8310   215.9000     0.9160    29.6800
