~Version Information
#-------------------
Vers.        2.0: CWLS log ASCII Standart - VERSION 2.0
WRAP.         NO: One line per depth step
~Well Information Block
#----------------------
#MNEM.UNIT  VALUE: DESCRIPTION
#----.---- -------: -------------
STRT.M     90.00: 
STOP.M    460.00: 
STEP.M      0.20:  
NULL.  -9999.990:  
COMP.           : 
WELL.           : 115
FLD .           : Тэдинская
LOC .           : 
CNTY.           : 
SRVC.           : 
DATE.           : 21-03-04
UWI .           : 
~Parameter Information
#---------------------
#MNEM.UNIT  VALUE: DESCRIPTION
#----.---- -------: ---------------
~Curve Information Block
#-----------------------
#MNEM.UNIT       : CURVE DESCRIPTION
#----.----       : -----------------
DEPT.M          : 
Aя  .           : Амплитуда - волна по колонне 
Tя  .мкс        : Время пробега - волна по породе
Aъ  .           : Амплитуда - волна по породе
DK  .дБ         : Затухание
akz .           : контакт цемент-колонна
~Other Information
#-----------------
~Ascii Log Data
# ...
       114    167.503   1514.531          0     62.292          4 
     114.2    134.311   1522.969          0     62.292          4 
     114.4    105.102   1529.297          0     62.292          4 
     114.6     114.63   1525.078          0     62.292          4 
     114.8    139.161   1506.094      2.042     62.292          4 
       115    135.073   1516.941          0     62.292          4 
     115.2    116.863   1526.971          0     62.292          4 
     115.4    110.091   1521.586          0     62.292          4 
     115.6    103.439   1525.078          0     62.292          4 
     115.8      91.93   1525.078          0     62.292          4 
       116     85.713   1520.859          0     62.292          4 
     116.2     91.099   1514.531          0     62.292          4 
     116.4     98.642   1508.203          0     62.292          4 
     116.6     89.327   1501.875          0     62.292          4 
     116.8     60.397   1499.766          0     62.292          4 
       117     46.155   1501.875          0     62.292          4 
     117.2     71.279   1508.203          0     62.292          4 
     117.4    104.399   1516.641          0     62.292          4 
     117.6    123.893   1522.969     23.191     44.181          4 
     117.8    131.854    1518.75     60.368     26.679          4 
       118    137.199   1509.526     57.674     27.076          4 
     118.2    125.723   1503.422     30.938     37.854          4 
     118.4    103.992   1506.593       3.25     53.119          4 
     118.6      92.08   1511.114          0     62.292          4 
     118.8     93.937   1518.891     31.417     39.982          4 
       119    103.556   1524.175     15.708     51.137          4 
     119.2    109.474    1516.01          0     62.292          4 
     119.4     111.32   1503.838          0     62.292          4 
     119.6    107.088   1513.699          0     62.292          4 
     119.8     92.166   1524.376          0     62.292          4 
       120     80.913   1535.876          0     62.292          4 
     120.2     97.769   1550.176     22.833      41.83          4 
     120.4    129.587   1543.955     31.125     32.474          4 
     120.6    162.504   1544.611     18.667     42.997          4 
     120.8    220.127   1562.574          0     62.292          4 
       121    259.493   1584.669          0     62.292          4 
     121.2    241.848   1593.189          0     62.292          4 
     121.4    218.494   1590.502          0     62.292          4 
     121.6    218.873   1583.712          0     62.292          4 
     121.8    214.497   1592.232          0     62.292          4 
       122    188.747   1593.235          0     62.292          4 
     122.2    128.429   1583.808          0     62.292          4 
     122.4     74.112   1584.402          0     62.292          4 
     122.6     83.299   1570.497          0     62.292          4 
     122.8    116.622   1564.426          0     62.292          4 
       123     92.935    1569.86          0     62.292          4 
     123.2     34.647   1576.117     18.167     43.154          4 
     123.4     37.671   1566.794      9.083     52.723          4 
     123.6     54.795    1422.75          0     62.292          4 
     123.8     17.123   1049.775          0     62.292          4 
       124     17.123    855.707          0     62.292          4 
     124.2     54.795    885.659          0     62.292          4 
     124.4     30.822   1060.578          0     62.292          4 
     124.6     30.822   1355.064          0     62.292          4 
     124.8     23.973   1488.646          0     62.292          4 
       125     34.247   1489.146          0     62.292          4 
     125.2     41.096    1417.46          0     62.292          4 
     125.4     44.521   1427.233      3.014     55.917          4 
     125.6     44.521     1496.1     17.843     44.744          4 
     125.8     44.521   1503.331     13.843     51.053          4 
       126     44.521   1495.437      1.014     59.071          4 
     126.2    153.662   1501.484          0     62.292          4 
     126.4    148.024   1538.807          0     62.292          4 
     126.6    158.618   1597.024          0     62.292          4 
     126.8    148.228   1602.719          0     62.292          4 
       127    109.937   1596.698          0     62.292          4 
     127.2     71.287   1592.863          0     62.292          4 
     127.4     28.944   1620.737      4.683     51.004          4 
     127.6     27.397   1618.162      2.342     56.648          4 
     127.8     23.973   1592.618          0     62.292          4 
       128     66.661   1602.003          0     62.292          4 
     128.2     83.401   1601.826          0     62.292          4 
     128.4     48.141   1575.312        7.5     62.292          4 
     128.6     30.822   1528.556        7.5     62.292          4 
     128.8     23.973   1571.794      1.333     62.292          4 
       129     23.973   1573.508          0     62.292          4 
     129.2     62.372   1529.272          0     62.292          4 
     129.4     68.374   1525.878          0     62.292          4 
     129.6     83.951   1566.889          0     62.292          4 
     129.8     80.605   1610.079          0     62.292          4 
       130     46.983   1624.215          0     62.292          4 
     130.2     38.152   1570.866          0     62.292          4 
     130.4     55.008   1535.735          0     62.292          4 
     130.6     58.457   1546.582          0     62.292          4 
     130.8     86.536   1565.611          0     62.292          4 
       131    118.712   1570.148          0     62.292          4 
     131.2     95.818   1570.413          0     62.292          4 
     131.4     48.285   1442.463          0     62.292          4 
     131.6     37.671   1256.046          0     62.292          4 
     131.8     34.247   1407.464          0     62.292          4 
       132     30.822   1592.209          0     62.292          4 
     132.2     27.397   1594.696      2.342     56.648          4 
     132.4     44.521    1481.55     12.531     40.858          4 
     132.6     35.398   1019.055     15.595     38.434          4 
     132.8    109.229    714.194     19.006       36.8          4 
       133     177.54    713.613     20.827     35.982          3 
     133.2    184.773    696.819     37.302     31.786          3 
     133.4    144.684    640.586     77.719     24.566          3 
     133.6      95.89    621.015     93.324     22.957          3 
     133.8     99.315    626.299     80.024     23.187          3 
       134     102.74    644.376     59.655     25.762          3 
     134.2    106.164    639.179     74.956     23.098          3 
     134.4     102.74     641.96     88.954     23.356          3 
     134.6    106.164    653.468     86.171     23.695          3 
     134.8    113.014    639.662     89.486     23.329          3 
       135     99.315    661.646      54.49     28.144          4 
     135.2     78.767    805.839     28.667     33.412          4 
     135.4     44.521   1125.042     12.594     40.851          4 
     135.6     61.644   1282.834      7.225     45.271          4 
     135.8     54.795   1395.561       4.17     51.676          4 
       136    101.773   1515.479          0     62.292          4 
     136.2     72.114   1599.409          0     62.292          4 
     136.4     20.523   1618.939          0     62.292          4 
     136.6     23.973    1577.58          0     62.292          4 
     136.8     17.123   1565.248          0     62.292          4 
       137     17.123    1523.83          0     62.292          4 
     137.2      74.97   1486.383          0     62.292          4 
     137.4     72.364   1485.913          0     62.292          4 
     137.6     36.088   1476.754          0     62.292          4 
     137.8     21.096   1413.823          0     62.292          4 
