~Version information
  VERS.                            1.20: CWLS LAS  -  VERSION 1.20
  WRAP.                              NO: One line per depth step
~Well information
# MNEM.UNIT
# ====.================================:===================
  STRT.M                        3140.00: First depth in file
  STOP.M                        3450.00: Last depth in file
  STEP.M                           0.20: Depth increment
  NULL.                            9999: Null values
  COMP.                         COMPANY: 
  WELL.                            WELL: 115 
  FLD .                           FIELD: íùÑàçëäÄü
  CNTY.                          COUNTY: 
  STAT.                           STATE: 
  DATE.                        LOG DATE: 30-04-04
  SRVC.                 SERVICE COMPANY: 
  UWI.           Unique Well Identifier: 
~Parametr information block
# MNEM.UNIT
# ====.================================:===================
~Other information
# ------------------------- REMARKS  AREA ------------------
~Curve information
# MNEM.UNIT
# ====.================================:===================
  DEPT.M                               : Depth curve
MINV.OHMM                              : äÄÜ.ëéèê.èé åàäêéÉêÄÑàÖçí áéçÑì
MNOR.OHMM                              : äÄÜ.ëéèêéíàÇãÖçàÖ å/èéíÖçñàÄã áéçÑÄ
MLL.OHMM                               : äÄÜ.ëéèê/åàäêéÅéäéÇéâ äÄêéíÄÜ/åä-ìñ
MCAL.MM                                : ÑàÄåÖíê äÄÇÖêçéåÖêÄ åä-ìñ
LL3.OHMM                               : äÄÜ.ëéèêéíàÇãÖçàÖ áéçÑÄ Åä-3 /ÄÅäí
CILA.MMHO                              : áéçÑ àä 7à1.6,Ääí.ëàÉçÄã/àä-è/Äàä-5
BS.                                    : Ñ≠Æ¨=215,9¨¨
GR.UR/H                                : ÖëíÖëíÇÖççÄü ÉÄååÄ-ÄäíàÇçéëíú èé Éä
~ASCII Log Data
  3140.00       9999       9999       9999       9999       9999    42.3053   215.9000     5.3117
  3140.20       9999       9999       9999       9999       9999    42.9417   215.9000     5.6676
  3140.40       9999       9999       9999       9999       9999    43.7049   215.9000     6.0680
  3140.60       9999       9999       9999       9999       9999    43.5207   215.9000     6.2227
  3140.80       9999       9999       9999       9999       9999    43.3393   215.9000     6.2584
  3141.00       9999       9999       9999       9999       9999    43.9745   215.9000     6.3490
  3141.20       9999       9999       9999       9999       9999    44.0678   215.9000     6.5029
  3141.40       9999       9999       9999       9999       9999    44.9707   215.9000     6.5406
  3141.60       9999       9999       9999       9999       9999    46.0316   215.9000     6.5592
  3141.80       9999       9999       9999       9999       9999    47.6310   215.9000     6.2935
  3142.00       9999       9999       9999       9999       9999    50.1040   215.9000     5.8565
  3142.20       9999       9999       9999       9999       9999    52.0701   215.9000     5.6817
  3142.40       9999       9999       9999       9999       9999    53.8465   215.9000     5.8021
  3142.60       9999       9999       9999       9999       9999    56.6931   215.9000     6.0294
  3142.80       9999       9999       9999       9999       9999    59.8977   215.9000     5.9549
  3143.00       9999       9999       9999       9999       9999    63.9093   215.9000     5.8529
  3143.20       9999       9999       9999       9999       9999    68.2088   215.9000     6.1332
  3143.40       9999       9999       9999       9999    11.4377    71.7593   215.9000     6.8607
  3143.60       9999       9999       9999       9999    10.0983    77.1417   215.9000     8.0503
  3143.80       9999       9999       9999       9999    12.2035    75.4978   215.9000     9.1452
  3144.00       9999       9999       9999       9999    19.2817    71.4783   215.9000    10.0056
  3144.20       9999       9999       9999       9999    19.7073    64.8257   215.9000    10.3896
  3144.40       9999       9999       9999       9999    21.2344    56.9593   215.9000    10.1915
  3144.60       9999       9999       9999       9999    25.0251    47.9172   215.9000     9.3996
  3144.80       9999       9999       9999       9999    21.3194    45.7361   215.9000     8.1993
  3145.00       9999       9999       9999       9999    27.1961    46.2225   215.9000     7.1363
  3145.20       9999       9999       9999       9999    63.5948    41.5060   215.9000     6.3229
  3145.40       9999       9999       9999       9999    48.9374    37.5225   215.9000     5.9116
  3145.60       9999       9999       9999       9999    42.7327    35.0024   215.9000     5.6774
  3145.80       9999       9999       9999       9999    76.1254    32.4520   215.9000     5.3466
  3146.00       9999       9999       9999       9999    57.2197    32.9594   215.9000     5.0377
  3146.20       9999       9999       9999       9999    28.6031    33.2079   215.9000     5.1001
  3146.40       9999       9999       9999       9999    22.9111    33.7687   215.9000     5.2793
  3146.60       9999       9999       9999       9999    24.1287    39.6754   215.9000     5.0240
  3146.80       9999       9999       9999       9999    39.0195    37.4616   215.9000     4.7715
  3147.00       9999       9999       9999       9999    60.5639    34.9616   215.9000     5.0745
  3147.20       9999       9999       9999       9999    37.1903    34.7341   215.9000     5.9881
  3147.40       9999       9999       9999       9999    35.7237    31.8434   215.9000     6.5644
  3147.60       9999       9999       9999       9999    30.0327    35.6660   215.9000     6.2226
  3147.80     4.0900     3.1260     4.0490   213.5000    42.7413    34.7374   215.9000     5.3211
  3148.00     7.1030     3.4300     4.8150   212.7500    59.6389    32.6963   215.9000     4.5770
  3148.20     5.2800     3.1270     5.6940   212.7500    63.5869    34.1819   215.9000     4.5138
  3148.40     5.4820     3.0110     5.0340   212.7500    55.3855    33.6958   215.9000     4.7348
  3148.60     5.4030     2.6900     5.1460   212.8180    43.4985    38.8675   215.9000     4.6501
  3148.80     2.5270     1.6040     3.1240   212.8180    27.9956    38.1705   215.9000     4.1725
  3149.00     3.2040     2.9100     4.5140   213.5000    35.9121    43.0424   215.9000     3.7234
  3149.20     3.8930     1.5360     4.0280   213.5000    24.6541    47.9790   215.9000     3.7139
  3149.40     2.5410     2.6020     4.1730   213.5000    29.0110    46.5346   215.9000     4.1378
  3149.60     1.5960     1.9620     4.1490   219.0010    19.6325    50.9164   215.9000     4.6634
  3149.80     1.1900     1.6350     2.0570   214.7500    18.4079    52.1044   215.9000     4.9810
  3150.00     4.0690     2.6650     3.1330   214.4000    26.6530    53.9865   215.9000     5.0987
  3150.20     3.8720     2.5400     7.1350   214.7500    32.1509    54.5039   215.9000     5.1825
  3150.40     5.4610     2.7080     4.6100   214.7500    26.6151    53.0342   215.9000     5.4447
  3150.60     1.9270     2.0330     3.6510   216.6180    21.6311    53.8974   215.9000     5.5171
  3150.80     4.2000     1.9250     3.5750   217.8000    24.4615    52.0286   215.9000     5.1709
  3151.00     1.4550     1.5580     3.6030   227.4540    20.0616    55.7555   215.9000     4.6580
  3151.20     2.6800     2.5680     2.7760   211.5000    34.1424    55.9893   215.9000     4.3205
  3151.40     3.6010     2.9430     4.8110   211.5000    48.8803    56.9174   215.9000     4.4355
  3151.60     4.7170     3.1420     4.5320   211.5000    50.1125    55.5590   215.9000     5.0359
  3151.80     2.9800     2.5010     4.1150   214.2000    29.8792    54.0466   215.9000     5.8072
  3152.00     0.8690     1.5350     4.1420   229.7570    18.2382    59.5050   215.9000     6.0240
  3152.20     0.9700     1.2770     2.2380   227.9590    12.5908    64.6665   215.9000     5.3593
  3152.40     1.0270     1.4930     1.6530   222.0890    13.9984    69.5612   215.9000     4.6739
  3152.60     2.3870     1.5080     1.6260   221.1250    16.7154    75.8502   215.9000     4.9353
  3152.80     1.3790     1.6320     2.9190   216.5000    18.1867    77.6424   215.9000     6.0581
  3153.00     9.5140     0.6900     1.4740   215.6380    14.0502    78.9951   215.9000     7.4858
  3153.20     0.7690     1.1520     1.8630   230.7610    10.6860    76.3204   215.9000     8.2202
  3153.40     1.0860     1.5040     1.3930   235.1600    11.0029    81.7098   215.9000     8.1476
  3153.60     1.3610     1.1000     1.5800   235.3410    12.1468    87.2477   215.9000     7.7993
  3153.80     1.4250     1.5240     2.6390   232.6820    15.1859    87.8159   215.9000     8.2499
  3154.00     2.0610     2.0050     2.0290   217.6190    16.0291    86.9740   215.9000     9.5221
  3154.20     4.0480     2.3650     1.9350   209.7030    17.2319    75.9641   215.9000    10.6580
  3154.40     2.6360     1.0360     1.7800   213.5000    15.8712    74.3393   215.9000    11.2869
  3154.60     1.5970     1.9330     1.9740   214.5000    16.0521    74.1502   215.9000    11.7163
  3154.80     0.9510     1.5760     1.9030   223.1820    15.7413    74.8487   215.9000    11.9589
  3155.00     1.1440     2.3530     1.7080   224.7780    14.2667    76.1146   215.9000    11.7535
  3155.20     2.1940     1.7390     1.7350   217.3970    17.2449    75.6638   215.9000    11.1140
  3155.40     3.0790     1.4100     2.1360   217.0260    17.8259    74.5010   215.9000    10.7208
  3155.60     1.3500     1.2510     1.7240   218.5000    14.4304    74.6384   215.9000    10.8532
  3155.80     0.9510     1.5710     1.5820   219.6500    13.4249    70.4392   215.9000    11.2594
  3156.00     1.6370     1.3930     2.1470   225.7020    11.9312    71.6215   215.9000    11.3107
  3156.20     1.2070     1.5320     1.8050   227.9300    13.1260    76.2432   215.9000    11.0390
