~Version information
  VERS.                            1.20: CWLS LAS  -  VERSION 1.20
  WRAP.                              NO: One line per depth step
~Well information
# MNEM.UNIT
# ====.================================:===================
  STRT.M                        3140.00: First depth in file
  STOP.M                        3450.00: Last depth in file
  STEP.M                           0.20: Depth increment
  NULL.                            9999: Null values
  COMP.                         COMPANY: 
  WELL.                            WELL: 115 
  FLD .                           FIELD: íùÑàçëäÄü
  CNTY.                          COUNTY: 
  STAT.                           STATE: 
  DATE.                        LOG DATE: 30-04-04
  SRVC.                 SERVICE COMPANY: 
  UWI.           Unique Well Identifier: 
~Parametr information block
# MNEM.UNIT
# ====.================================:===================
~Other information
# ------------------------- REMARKS  AREA ------------------
~Curve information
# MNEM.UNIT
# ====.================================:===================
  DEPT.M                               : Depth curve
MINV.OHMM                              : äÄÜ.ëéèê.èé åàäêéÉêÄÑàÖçí áéçÑì
MNOR.OHMM                              : äÄÜ.ëéèêéíàÇãÖçàÖ å/èéíÖçñàÄã áéçÑÄ
MLL.OHMM                               : äÄÜ.ëéèê/åàäêéÅéäéÇéâ äÄêéíÄÜ/åä-ìñ
MCAL.MM                                : ÑàÄåÖíê äÄÇÖêçéåÖêÄ åä-ìñ
LL3.OHMM                               : äÄÜ.ëéèêéíàÇãÖçàÖ áéçÑÄ Åä-3 /ÄÅäí
CILA.MMHO                              : áéçÑ àä 7à1.6,Ääí.ëàÉçÄã/àä-è/Äàä-5
BS.                                    : Ñ≠Æ¨=215,9¨¨
GR.UR/H                                : ÖëíÖëíÇÖççÄü ÉÄååÄ-ÄäíàÇçéëíú èé Éä
~ASCII Log Data
# ...
  3189.20     4.9280     4.6100    17.5330   214.7500   213.5651    11.9266   215.9000     2.8738
  3189.40     4.9420     4.0860    16.4430   214.7500   232.5708    11.6746   215.9000     2.7617
  3189.60     6.5450     4.1940    15.0680   214.7500   249.1091    10.6500   215.9000     2.4772
  3189.80     6.8620     4.0950    12.5990   214.7500   199.9503    10.8710   215.9000     2.2434
  3190.00     6.5580     3.7420     9.7830   214.7500    97.8262    11.5350   215.9000     2.0550
  3190.20     5.6840     3.9130    11.5880   214.7500    82.0716    12.6234   215.9000     1.9157
  3190.40     5.3640     4.2750    12.3780   214.7500   115.4905    13.1298   215.9000     1.7923
  3190.60     7.8160     4.4930    12.9530   214.7500   143.8741    13.5482   215.9000     1.7533
  3190.80     5.6880     4.2700    13.8780   214.7500   167.4909    12.9034   215.9000     1.9851
  3191.00     6.8880     3.7870    14.2430   214.7500   179.8955    12.5543   215.9000     2.3138
  3191.20     7.2220     3.9620    12.6070   214.7500   142.1146    13.3562   215.9000     2.3992
  3191.40     5.0960     4.2980    12.9160   214.7500   144.0130    13.3366   215.9000     2.2956
  3191.60     7.0130     3.8980    12.4790   214.7500   130.8674    13.6686   215.9000     2.0484
  3191.80     6.7720     3.6030    11.8360   214.7500   110.6686    14.7490   215.9000     1.8255
  3192.00     6.9160     3.7960    10.6060   214.7500    81.8158    15.9513   215.9000     1.7549
  3192.20     7.0280     3.8870     9.8590   215.1000    71.7237    16.4761   215.9000     1.6769
  3192.40     7.5560     4.1510     8.6260   215.9320    65.8276    17.3319   215.9000     1.6721
  3192.60     7.1130     4.4090     8.6380   215.9320    56.4092    18.0396   215.9000     1.6178
  3192.80     6.8040     4.0170     7.5850   216.5000    56.3176    18.2075   215.9000     1.6123
  3193.00     6.4590     3.5690     7.5060   216.5000    72.6693    19.3363   215.9000     1.5819
  3193.20     7.3400     3.7550    10.8360   215.0450   115.4282    18.9254   215.9000     1.6137
  3193.40     7.8040     4.2800     9.1200   215.0680   106.6214    18.5415   215.9000     1.9186
  3193.60     9.4990     4.5550    10.3860   215.0910   143.9359    17.9892   215.9000     2.4261
  3193.80     9.7380     4.8200    10.5920   215.0000   135.0231    18.1584   215.9000     2.8475
  3194.00     8.3680     4.1600     8.7960   216.5000    91.9349    18.8513   215.9000     2.8577
  3194.20     9.7470     4.4330     8.2850   216.3990    82.8348    20.0431   215.9000     2.5160
  3194.40     7.4470     4.0390     8.5370   215.7510    85.9998    21.7024   215.9000     2.2469
  3194.60     8.5770     4.7770     8.8080   216.5000    62.4331    22.9350   215.9000     2.1790
  3194.80     8.8970     3.9270     5.9660   216.1000    62.4226    24.6053   215.9000     2.3777
  3195.00     8.7460     4.3050     7.0250   216.5000    69.9128    25.3734   215.9000     2.5491
  3195.20     8.7120     4.4430     6.8870   215.7500    64.4894    26.5533   215.9000     2.6702
  3195.40     7.5480     3.9490     6.6270   216.5000    39.3517    27.6022   215.9000     2.7967
  3195.60     5.7170     3.1750     5.2890   215.0000    36.2487    29.1350   215.9000     2.9471
  3195.80     4.6010     3.0290     6.5050   215.2500    35.2249    31.1629   215.9000     3.0229
  3196.00     4.5520     3.2790     6.0780   215.2500    37.5159    32.1558   215.9000     2.9929
  3196.20     6.2630     3.5440     5.5860   215.0000    51.0224    32.6291   215.9000     3.2353
  3196.40     6.3640     4.2090     7.6590   215.0000    55.9558    32.3054   215.9000     3.9670
  3196.60     7.7640     2.8510     6.9010   215.5630    46.5089    31.9550   215.9000     4.7617
  3196.80     5.7620     3.5550     6.1720   216.5000    44.0187    32.7846   215.9000     5.0410
  3197.00     7.7600     3.4500     7.2850   215.7500    59.5625    33.7744   215.9000     4.6530
  3197.20     6.8290     3.5520     8.1620   215.8990    72.2739    33.9838   215.9000     4.1111
  3197.40     5.4060     3.2280     8.6730   216.5000    49.5092    34.5725   215.9000     3.9327
  3197.60     4.8340     3.5740     7.0410   216.5000    39.0649    35.1014   215.9000     4.1244
  3197.80     5.4520     3.5890     6.6290   214.7500    39.1698    37.1820   215.9000     4.2318
  3198.00     4.9440     1.9890     4.5840   216.5250    20.2092    40.6801   215.9000     3.9650
  3198.20     3.5790     2.0240     4.1040   217.6670    26.6242    44.9724   215.9000     3.6693
  3198.40     3.3630     2.1300     8.0000   216.5000    30.1752    43.8597   215.9000     3.8723
  3198.60     4.7490     3.3910     6.5320   216.5000    39.8099    44.8153   215.9000     4.7778
  3198.80     5.4080     3.0000     7.8750   216.5000    39.7253    41.7570   215.9000     6.0593
  3199.00     3.3760     2.4120     6.2990   216.5000    38.7271    41.2794   215.9000     7.0102
  3199.20     5.7230     2.6660     8.4200   216.5000    36.2458    40.8993   215.9000     7.2534
  3199.40     6.1830     3.3120     8.6150   216.5000    42.3607    41.5022   215.9000     6.7149
  3199.60     3.0380     2.2780     3.7320   216.5000    33.0812    42.4333   215.9000     6.0880
  3199.80     2.8040     3.0540     5.4870   216.5680    28.4530    43.1446   215.9000     5.7635
  3200.00     3.5310     2.9290     6.9010   216.5000    30.4370    44.0382   215.9000     5.7612
  3200.20     2.7920     2.5110     3.9160   216.5000    25.0643    46.2834   215.9000     5.9212
  3200.40     4.2760     2.2170     7.3940   216.5000    23.3393    44.5574   215.9000     6.0085
  3200.60     2.0880     2.8240     3.2700   215.0000    30.5270    46.2135   215.9000     6.1371
  3200.80     4.0930     2.8720     5.9220   214.7500    30.2556    45.0163   215.9000     6.2393
  3201.00     2.9360     2.4850     3.9090   216.0920    24.6959    44.3905   215.9000     6.3219
  3201.20     2.4130     2.0310     3.8420   215.9010    24.0910    42.7808   215.9000     6.3523
  3201.40     3.6620     1.8160     4.9290   214.5000    27.8415    41.5884   215.9000     6.2394
  3201.60     2.4480     1.7270     3.8120   214.5000    29.4456    41.1965   215.9000     5.7989
  3201.80     4.6050     2.9720     5.9100   214.3180    43.1618    37.7968   215.9000     5.6076
  3202.00     4.4730     3.3370     6.8310   213.5910    36.9035    34.9867   215.9000     6.0097
  3202.20     4.3410     2.6650     5.2140   214.5000    33.3296    32.7751   215.9000     6.5765
  3202.40     4.4750     3.0180     6.5070   214.5000    57.0131    30.1040   215.9000     6.5626
  3202.60     5.4800     3.4770    10.3230   214.2730    85.5162    27.9727   215.9000     5.7055
  3202.80     5.9830     3.7710     8.0520   213.7730    85.2198    26.3743   215.9000     4.6965
  3203.00     6.3390     3.5120     8.1310   213.5000    72.4889    24.2216   215.9000     4.0982
  3203.20     6.4120     4.1760     7.5740   214.5000    68.4358    23.3231   215.9000     3.7389
  3203.40     5.4730     2.8570     7.3060   214.5000    58.9308    23.7721   215.9000     3.3252
  3203.60     4.0310     2.6110     8.3890   214.5000    51.4722    24.7195   215.9000     2.7166
  3203.80     4.9330     3.6430     7.4920   214.5000    55.0115    25.4025   215.9000     2.2675
  3204.00     4.7240     3.2710     8.9420   214.5000    69.9077    25.9112   215.9000     2.1903
  3204.20     4.5920     3.7620     9.5400   214.5000    71.0865    25.6115   215.9000     2.3410
  3204.40     4.3380     3.0570    11.0000   214.5000    68.9341    25.2182   215.9000     2.5740
  3204.60     5.5770     3.4950     9.3820   214.5000    59.3778    24.4480   215.9000     2.6699
  3204.80     4.2620     3.2560     7.8260   214.5000    47.5952    24.9342   215.9000     2.6568
  3205.00     3.8170     3.1990     7.2000   214.5000    49.6161    25.1657   215.9000     2.4372
  3205.20     4.6590     3.2800     8.9380   214.5000    38.4435    25.5499   215.9000     2.3054
  3205.40     4.3110     2.9960     6.3960   214.5000    24.3446    25.8339   215.9000     2.2649
