~Version Information
#-------------------
Vers.        2.0: CWLS log ASCII Standart - VERSION 2.0
WRAP.         NO: One line per depth step
~Well Information Block
#----------------------
#MNEM.UNIT  VALUE: DESCRIPTION
#----.---- -------: -------------
STRT.M     90.00: 
STOP.M    460.00: 
STEP.M      0.20:  
NULL.  -9999.990:  
COMP.           : 
WELL.           : 115
FLD .           : Тэдинская
LOC .           : 
CNTY.           : 
SRVC.           : 
DATE.           : 21-03-04
UWI .           : 
~Parameter Information
#---------------------
#MNEM.UNIT  VALUE: DESCRIPTION
#----.---- -------: ---------------
~Curve Information Block
#-----------------------
#MNEM.UNIT       : CURVE DESCRIPTION
#----.----       : -----------------
DEPT.M          : 
Aя  .           : Амплитуда - волна по колонне 
Tя  .мкс        : Время пробега - волна по породе
Aъ  .           : Амплитуда - волна по породе
DK  .дБ         : Затухание
akz .           : контакт цемент-колонна
~Other Information
#-----------------
~Ascii Log Data
# ...
       138     34.379   1414.517          0     62.292          4 
     138.2     38.409   1559.297          0     62.292          4 
     138.4     32.601    1626.25          0     62.292          4 
     138.6     14.596    1592.56          0     62.292          4 
     138.8     17.123   1539.261          0     62.292          4 
       139     17.123   1514.492          0     62.292          4 
     139.2     32.008   1561.668          0     62.292          4 
     139.4     46.573   1598.356          0     62.292          4 
     139.6      41.15   1594.125          0     62.292          4 
     139.8     40.559   1631.002          0     62.292          4 
       140     38.939       1627          0     62.292          4 
     140.2     25.227   1558.052          0     62.292          4 
     140.4      11.67   1524.419          0     62.292          4 
     140.6     30.289   1557.082          0     62.292          4 
     140.8     75.082   1588.794          0     62.292          4 
       141    126.473   1589.491          0     62.292          4 
     141.2    125.087   1579.106          0     62.292          4 
     141.4     59.697   1582.913          0     62.292          4 
     141.6     22.591   1628.172          0     62.292          4 
     141.8     60.765   1638.988          0     62.292          4 
       142     96.404   1640.605          0     62.292          4 
     142.2     73.774   1646.319          0     62.292          4 
     142.4     38.522   1581.201      1.408      58.12          4 
     142.6     23.973    1537.18      3.608     51.443          4 
     142.8     23.973   1590.531      0.792     59.788          4 
       143      51.37    1499.42          9     47.221          4 
     143.2      51.37    989.838     16.208     38.162          4 
     143.4     54.795    747.093     18.137     37.128          4 
     143.6     54.795    868.348     16.387     38.062          4 
     143.8     68.493    818.838     47.417     30.403          4 
       144     71.918    772.511     27.556     38.384          4 
     144.2     44.521    842.048      3.194     46.408          4 
     144.4     58.219    997.221       36.5     31.397          4 
     144.6     47.945   1221.094         18     50.743          4 
     144.8     34.247   1307.992          0     62.292          4 
       145     29.817   1343.801          0     62.292          4 
     145.2     67.056   1429.572          0     62.292          4 
     145.4    132.475   1471.475          0     62.292          4 
     145.6    184.519   1476.819          0     62.292          4 
     145.8    178.522   1473.949          0     62.292          4 
       146    120.395   1487.807          0     62.292          4 
     146.2     70.326   1518.938          0     62.292          4 
     146.4     68.557    1494.71          0     62.292          4 
     146.6      66.83   1494.108          0     62.292          4 
     146.8     56.957   1553.038          0     62.292          4 
       147     66.637   1577.782          0     62.292          4 
     147.2     45.935   1536.199          0     62.292          4 
     147.4     17.345   1509.289          0     62.292          4 
     147.6     57.536    1546.76          0     62.292          4 
     147.8    147.817   1580.928          0     62.292          4 
       148    182.208     1595.2          0     62.292          4 
     148.2    128.612   1604.755      3.208     55.736          4 
     148.4      42.91   1567.001      6.417      49.18          4 
     148.6     10.388   1526.137          0     62.292          4 
     148.8     32.751   1517.305          0     62.292          4 
       149     58.377   1490.362          0     62.292          4 
     149.2     51.909   1534.894      9.021     62.292          4 
     149.4     35.141   1631.905          0     62.292          4 
     149.6     23.973   1642.389          0     62.292          4 
     149.8     20.548   1618.885          0     62.292          4 
       150     17.123   1621.526          0     62.292          4 
     150.2     27.397   1611.569          0     62.292          4 
     150.4     27.397   1639.693          0     62.292          4 
     150.6      58.57   1630.334          0     62.292          4 
     150.8    119.421   1568.667          0     62.292          4 
       151    116.016   1546.913          0     62.292          4 
     151.2      51.37   1525.375          0     62.292          4 
     151.4      51.37   1531.357     15.333     51.207          4 
     151.6      51.37   1442.837     30.667     34.257          4 
     151.8     47.945   1142.329      0.833     55.135          4 
       152     30.822   1009.211      0.417     61.646          4 
     152.2     23.973    1177.32          0     62.292          4 
     152.4     20.548   1355.354          0     62.292          4 
     152.6     27.397   1339.669          0     62.292          4 
     152.8     34.247   1399.468          0     62.292          4 
       153     41.096    1562.88     10.681     52.254          4 
     153.2      43.61   1631.219     21.361     42.216          4 
     153.4     53.173   1575.608          0     62.292          4 
     153.6     65.915   1561.545          0     62.292          4 
     153.8     73.965   1586.195      3.408     55.561          4 
       154      64.73   1608.155      6.817      48.83          4 
     154.2     58.027   1605.559          0     62.292          4 
     154.4     63.982   1596.257      5.708     62.292          4 
     154.6    124.438   1583.292          0     62.292          4 
     154.8    188.923   1586.014          0     62.292          4 
       155    185.082   1591.346          0     62.292          4 
     155.2    147.438   1599.838          0     62.292          4 
     155.4    118.812   1604.675          0     62.292          4 
     155.6     84.886   1633.839      0.708      60.11          4 
     155.8     70.815   1631.556      1.417     57.927          4 
       156     95.892   1603.447          0     62.292          4 
     156.2     41.096   1606.138          0     62.292          4 
     156.4     41.096    1610.07         28     40.649          4 
     156.6     41.096   1618.865         14     51.471          4 
     156.8     37.671   1654.455     12.815     51.727          4 
       157     34.247   1650.861     25.631     41.161          4 
     157.2     27.397   1598.131          0     62.292          4 
     157.4     20.548   1624.047          0     62.292          4 
     157.6     17.123   1657.697          0     62.292          4 
     157.8     23.973   1659.726          0     62.292          4 
       158     30.822   1683.104          0     62.292          4 
     158.2     47.945    1644.75          0     62.292          4 
     158.4     61.644   1579.228          0     62.292          4 
     158.6     54.795   1523.103     37.429     38.968          4 
     158.8     41.096   1558.542     18.714      50.63          4 
       159     30.822   1598.191          0     62.292          4 
     159.2     30.822   1494.539          0     62.292          4 
     159.4     23.404   1110.432          0     62.292          4 
     159.6      53.73   1008.598          0     62.292          4 
     159.8     83.675   1009.323       1.75     62.292          4 
       160     96.311    903.696       1.75     62.292          4 
     160.2     85.015    941.706          0     62.292          4 
     160.4      49.19   1248.771          0     62.292          4 
     160.6     16.736   1416.254          0     62.292          4 
     160.8     23.509   1311.049          0     62.292          4 
       161      61.48   1275.216          0     62.292          4 
     161.2     78.261   1363.924          0     62.292          4 
     161.4     42.761   1510.298       33.5      39.61          4 
     161.6     34.247   1550.199      16.75     50.951          4 
     161.8     34.247   1552.742          0     62.292          4 
