~Version Information
#-------------------
Vers.        2.0: CWLS log ASCII Standart - VERSION 2.0
WRAP.         NO: One line per depth step
~Well Information Block
#----------------------
#MNEM.UNIT  VALUE: DESCRIPTION
#----.---- -------: -------------
STRT.M     90.00: 
STOP.M    460.00: 
STEP.M      0.20:  
NULL.  -9999.990:  
COMP.           : 
WELL.           : 115
FLD .           : Тэдинская
LOC .           : 
CNTY.           : 
SRVC.           : 
DATE.           : 21-03-04
UWI .           : 
~Parameter Information
#---------------------
#MNEM.UNIT  VALUE: DESCRIPTION
#----.---- -------: ---------------
~Curve Information Block
#-----------------------
#MNEM.UNIT       : CURVE DESCRIPTION
#----.----       : -----------------
DEPT.M          : 
Aя  .           : Амплитуда - волна по колонне 
Tя  .мкс        : Время пробега - волна по породе
Aъ  .           : Амплитуда - волна по породе
DK  .дБ         : Затухание
akz .           : контакт цемент-колонна
~Other Information
#-----------------
~Ascii Log Data
# ...
       282     92.466    670.324     75.267     24.819          3 
     282.2     82.192    672.901     58.689      26.99          4 
     282.4     78.767    669.854     37.843     32.462          4 
     282.6      27.06    769.203     11.409     41.148          4 
     282.8      19.54   1038.918      3.778     55.263          4 
       283     50.443    935.655          0     62.292          4 
     283.2     75.819    751.367      2.007      58.69          4 
     283.4      45.56     814.35     10.035     44.281          4 
     283.6     20.548   1102.892      4.014     55.088          4 
     283.8     17.123   1127.033          0     62.292          4 
       284     13.699    924.523          0     62.292          4 
     284.2     13.699    751.607          0     62.292          4 
     284.4     16.387     712.39          2     57.105          4 
     284.6     43.592    693.954          4     51.917          4 
     284.8     52.359    677.661          0     62.292          4 
       285     70.445     658.01        3.5      52.69          4 
     285.2    102.921    655.068     11.292      42.28          4 
     285.4    137.571    657.453     23.836     32.974          4 
     285.6    194.397    661.411     47.182     26.719          4 
     285.8    229.592    666.064     68.209     25.733          4 
       286    204.646    671.179     76.663     24.601          4 
     286.2    180.146    676.105     68.764     25.706          4 
     286.4    201.314    678.584     69.921     25.578          4 
     286.6    250.621    679.217    101.192      22.53          4 
     286.8    300.091    683.436    127.186     20.355          4 
       287    296.811    681.327     87.561     23.463          4 
     287.2    204.984     673.13      55.23     27.983          4 
     287.4    105.196    678.179     38.066     30.682          4 
     287.6     64.694    682.002      31.97     32.268          4 
     287.8     43.797    725.118       25.7      40.64          4 
       288     40.099    749.858      10.07     50.583          4 
     288.2     63.784    724.646      6.708      59.95          4 
     288.4     80.892    717.321      0.792     59.788          4 
     288.6     73.748     717.12          0     62.292          4 
     288.8     62.762    768.969          0     62.292          4 
       289     37.091    855.953          0     62.292          4 
     289.2     23.005     894.78      5.563     51.829          4 
     289.4     34.216    884.791      9.271     44.854          4 
     289.6     67.822    807.718      1.854     58.805          4 
     289.8    111.707     776.92       12.5     48.313          4 
       290    111.682    745.992     38.803     31.505          4 
     290.2    167.808    655.507      95.31     22.938          3 
     290.4    167.808    616.442    139.001     19.537          3 
     290.6    160.959    617.787    154.298     18.525          3 
     290.8    160.959    619.402    157.174     18.365          3 
       291    157.534    621.589    141.045     19.343          3 
     291.2    160.959    622.806    143.476     19.187          3 
     291.4    136.986    629.622    136.792     19.573          3 
     291.6    130.137    653.622     98.625     22.657          3 
     291.8    123.288    642.177     86.125     23.596          3 
       292     102.74    641.019     83.413     23.893          3 
     292.2     92.466    668.087     76.448      24.63          3 
     292.4     58.416    692.268     57.947      27.32          3 
     292.6     41.578    839.888     28.789     34.138          4 
     292.8     21.383   1048.248      9.333     41.013          4 
       293     44.521   1310.972          3     47.585          4 
     293.2     41.096   1437.117      34.25     35.387          4 
     293.4     41.096   1397.158     16.375     51.017          4 
     293.6     48.977   1375.002      2.701     62.292          4 
     293.8     21.886   1300.088      2.701     62.292          4 
       294     10.278   1105.029      2.214     55.341          4 
     294.2     21.388   1022.548      2.191      51.96          4 
     294.4     45.371   1059.708      2.167     55.467          4 
     294.6     75.452   1077.496          0     62.292          4 
     294.8     71.161   1078.048          0     62.292          4 
       295     60.113    983.358          0     62.292          4 
     295.2     70.139    842.881      0.445     61.459          4 
     295.4     84.146    797.583      0.445     61.459          4 
     295.6     99.772    797.751          0     62.292          4 
     295.8      91.07    797.775          0     62.292          4 
       296     57.555    790.991          0     62.292          4 
     296.2     20.284     768.53          0     62.292          4 
     296.4     17.563    798.833      0.667     60.285          4 
     296.6     30.532    873.479          0     62.292          4 
     296.8     24.133     946.92          0     62.292          4 
       297     49.663    940.464       15.5     47.379          4 
     297.2     91.351    912.436     20.667     42.407          4 
     297.4     79.327    915.731          0     62.292          4 
     297.6     44.521    925.113      2.482     56.479          4 
     297.8     17.015    880.193      4.964     50.666          4 
       298     68.493    814.622          0     62.292          4 
     298.2     30.822    782.072          0     62.292          4 
     298.4     30.822    793.068          0     62.292          4 
     298.6     61.644    866.253          0     62.292          4 
     298.8     68.493    989.619      1.083     59.481          4 
       299     18.996    976.872      1.875     60.184          4 
     299.2     30.822    867.793         14     51.471          4 
     299.4     34.247    790.967         28     40.649          4 
     299.6     34.247    850.203          0     62.292          4 
     299.8     34.247   1175.109          0     62.292          4 
       300     38.435   1322.338          0     62.292          4 
     300.2     51.106   1065.409          0     62.292          4 
     300.4     40.565    846.535          0     62.292          4 
     300.6     31.915    768.334     15.771     50.234          4 
     300.8     44.793    709.587      16.07     38.172          4 
       301     94.265     677.92     24.045     34.949          4 
     301.2    188.356      657.4     89.707     25.503          3 
     301.4    188.356    629.008    153.276     18.745          3 
     301.6    113.603    622.573     91.921     23.138          3 
     301.8    140.411    621.367    113.835     21.371          3 
       302    133.562    620.892    125.755     21.239          3 
     302.2    133.562     622.54    113.989     21.192          3 
     302.4    110.948     624.38    111.867     21.346          3 
     302.6    147.458    644.534     97.732     20.999          3 
     302.8    265.504    677.252     74.937     24.808          3 
       303    360.078    684.887     57.111     27.263          3 
     303.2    354.444    685.855     52.892     27.829          3 
     303.4    306.247    687.097     49.558     28.413          3 
     303.6    264.582    689.858     44.092     29.411          3 
     303.8    235.724    692.289     44.708     29.293          3 
       304    203.645     691.45      48.25     28.631          4 
     304.2    152.343    690.566         34     30.705          4 
     304.4     82.738    706.791      6.567     40.535          4 
     304.6     40.526    791.563      3.075     55.859          4 
     304.8     29.524    898.992          0     62.292          4 
       305      20.74    956.595          0     62.292          4 
     305.2     18.322    988.649          0     62.292          4 
     305.4     30.355   1232.759      5.417     54.337          4 
     305.6     40.587   1443.009      10.15     46.525          4 
     305.8     38.412   1422.107          0     62.292          4 
