~Version information
  VERS.                            1.20: CWLS LAS  -  VERSION 1.20
  WRAP.                              NO: One line per depth step
~Well information
# MNEM.UNIT
# ====.================================:===================
  STRT.M                        3148.00: First depth in file
  STOP.M                        3438.00: Last depth in file
  STEP.M                           0.20: Depth increment
  NULL.                            9999: Null values
  COMP.                         COMPANY: 
  WELL.                            WELL: 115 
  FLD .                           FIELD: íÌ§®≠·™†Ô
  CNTY.                          COUNTY: 
  STAT.                           STATE: 
  DATE.                        LOG DATE: 28-04-04
  SRVC.                 SERVICE COMPANY: 
  UWI.           Unique Well Identifier: 
~Parametr information block
# MNEM.UNIT
# ====.================================:===================
~Other information
# ------------------------- REMARKS  AREA ------------------
~Curve information
# MNEM.UNIT
# ====.================================:===================
  DEPT.M                               : Depth curve
IZ2.DEG                                : îÄáÄ1(ÉêÄÑ)
IZ3.DEG                                : îÄáÄ2(ÉêÄÑ)
IZ4.DEG                                : îÄáÄ3(ÉêÄÑ)
IZ5.DEG                                : îÄáÄ4(ÉêÄÑ)
IZ1.DEG                                : îÄáÄ5(ÉêÄÑ)
VIK1.OHMM                              : É0.4à0.1à(éåå)
VIK5.OHMM                              : É0.57à0.14à(éåå)
VIK4.OHMM                              : É0.8à0.2à(éåå)
VIK3.OHMM                              : É1.13à0.28à(éåå)
VIK2.OHMM                              : É1.6à0.4à(éåå)
~ASCII Log Data
# ...
  3228.40     5.1050     5.5750     2.8800     1.7500     1.9950    31.4800    28.5650    64.9800   117.8150   101.8100
  3228.60     5.8050     5.8450     3.0350     1.7900     2.0050    26.1200    25.1350    61.0400   116.8450   103.2950
  3228.80     5.9400     5.9250     3.1600     1.8600     1.9350    26.3400    25.4200    60.2000   116.6850   106.2450
  3229.00     6.0300     5.8400     3.0800     1.7650     1.8550    24.8750    25.4200    60.7950   122.9750   112.7750
  3229.20     6.1400     5.9850     3.0600     1.7250     1.7750    25.4950    24.6150    60.4200   127.5650   118.7100
  3229.40     5.7600     5.8350     2.9450     1.6450     1.6900    27.2000    25.7050    63.4750   133.6400   126.6200
  3229.60     5.5900     5.7650     2.9600     1.5650     1.6100    26.6500    26.0850    63.6850   134.9700   131.2100
  3229.80     6.2400     6.0500     3.1050     1.5850     1.5500    24.0900    24.3250    60.6300   130.2750   130.5000
  3230.00     5.9750     5.9050     2.9850     1.5500     1.5250    26.1350    26.0050    65.2000   140.3900   136.7250
  3230.20     5.3400     5.5100     2.7800     1.3800     1.4100    28.8150    28.1450    69.9250   161.9800   157.5750
  3230.40     5.6650     5.6550     2.8550     1.3300     1.3100    26.3800    26.0000    66.3650   161.2350   167.9000
  3230.60     6.2400     5.8750     3.0100     1.4750     1.3000    23.7800    24.7550    61.0450   152.0650   159.8800
  3230.80     6.0400     5.8050     2.9100     1.4950     1.3100    25.7200    26.5900    64.8000   151.0300   159.2550
  3231.00     5.1950     5.4850     2.7000     1.3100     1.2300    30.2100    28.9150    73.2250   167.9800   180.1600
  3231.20     4.7350     5.3100     2.5700     1.1700     1.1250    37.6150    31.0400    78.7100   192.2350   200.3150
  3231.40     4.4750     4.9900     2.3200     1.0350     1.0500    40.7900    33.1550    86.0000   219.5650   210.7750
  3231.60     4.4850     4.6700     2.2500     0.9850     0.9650    36.9350    33.8450    87.0700   222.1300   214.9950
  3231.80     4.8350     4.8800     2.4500     1.1050     1.0250    32.9950    32.1350    80.1500   195.4400   201.9200
  3232.00     5.6100     5.4050     2.6800     1.2300     1.1250    27.4050    28.3500    72.0550   179.9000   191.0550
  3232.20     6.0500     5.6700     2.7350     1.2750     1.1800    24.8150    26.5050    69.4000   170.8400   184.7800
  3232.40     5.9050     5.6200     2.6900     1.2950     1.1350    24.7850    26.8150    70.3800   170.8450   184.5850
  3232.60     6.1450     5.9000     2.8650     1.3500     1.0950    25.3950    25.9050    66.4850   166.0450   183.8850
  3232.80     5.6550     5.6000     2.7800     1.3050     1.1150    28.6350    27.9500    71.5050   162.8350   183.8850
  3233.00     5.2850     5.3450     2.7000     1.2850     1.1200    28.2050    28.5450    72.8250   161.9000   188.6500
  3233.20     5.3500     5.5300     2.8500     1.3500     1.2150    29.3300    28.6300    69.3050   159.9850   188.6500
  3233.40     4.9300     5.2100     2.6500     1.2750     1.2150    32.7050    31.1600    77.1100   171.5300   185.5550
  3233.60     5.0350     5.2050     2.5650     1.2600     1.1400    30.9600    30.0800    76.5750   166.4050   186.5950
  3233.80     5.4350     5.5350     2.7250     1.3250     1.2050    27.7500    27.5950    67.8550   148.8150   175.0150
  3234.00     6.5500     6.2500     3.1350     1.5500     1.3350    24.2150    23.3650    57.7750   129.7600   153.8050
  3234.20     6.3450     6.1250     3.1650     1.6250     1.3950    25.8350    24.4800    60.5450   135.8800   149.0200
  3234.40     5.3500     5.4700     2.8250     1.3800     1.2550    28.4900    28.0800    68.6800   155.0300   172.9850
  3234.60     5.5350     5.6250     2.8450     1.3600     1.1600    27.6300    27.1400    65.7750   149.4300   181.5300
  3234.80     5.6900     5.8100     2.9700     1.4850     1.2900    26.6800    25.9800    62.8700   143.3000   160.7850
  3235.00     5.6000     5.7700     3.0850     1.5400     1.4200    27.4200    26.4650    62.8700   138.3050   154.2100
  3235.20     5.5300     5.6900     3.0750     1.5800     1.4850    27.3450    26.7800    61.7100   133.6300   144.3400
  3235.40     5.7450     5.8750     3.1600     1.6800     1.5400    25.6300    25.1850    57.9900   124.9900   134.7050
  3235.60     5.8700     6.0800     3.3150     1.8200     1.6650    25.5700    24.1750    54.5450   114.1000   124.9200
  3235.80     5.9350     6.2200     3.4750     1.9550     1.8150    24.4850    23.2200    51.7900   102.9550   113.7000
  3236.00     6.3650     6.6750     3.8150     2.1700     1.9950    22.4000    20.9550    45.9700    87.6350   101.8700
  3236.20     7.4250     7.4150     4.3450     2.5750     2.3000    17.8900    17.4850    37.2200    70.9650    84.9200
  3236.40     8.5000     8.6000     5.0850     3.0800     2.5800    15.4650    14.6600    31.1050    60.0700    73.8750
  3236.60     7.6250     8.0750     4.6800     2.9250     2.4950    19.6700    17.5900    38.7800    72.0050    80.1450
  3236.80     6.7050     6.9050     3.9100     2.3650     2.1300    20.9450    20.3350    44.7050    86.8500    95.4100
  3237.00     7.1000     7.1800     4.1400     2.3800     2.0350    19.3100    19.0850    40.1350    80.7250    98.0750
  3237.20     6.9950     7.2000     4.2700     2.5750     2.1750    19.9150    19.2550    39.6750    73.6400    92.3300
  3237.40     6.7600     6.9050     4.1350     2.5900     2.2600    20.6700    20.3250    40.7850    73.0800    88.3950
  3237.60     6.9600     6.8050     4.1800     2.6400     2.3200    19.6750    20.6000    40.8250    71.9550    87.0700
  3237.80     7.1450     6.8250     4.1850     2.7200     2.3200    19.6050    21.0000    42.4000    71.9550    86.3500
  3238.00     6.4900     6.2750     3.7900     2.6000     2.3200    22.6800    23.7850    47.9600    76.7750    84.8100
  3238.20     6.0850     5.9400     3.6000     2.4700     2.3200    24.3950    25.0350    49.6800    79.9050    84.8100
  3238.40     6.4600     6.0850     3.7450     2.5950     2.4150    23.2500    24.0250    45.9850    75.9100    79.6100
  3238.60     6.4850     5.9450     3.7800     2.7550     2.6050    21.4800    24.0900    44.4600    69.2950    72.2300
  3238.80     6.9150     6.4450     4.1300     2.9950     2.8100    19.0550    21.8550    40.3350    61.4250    66.4800
  3239.00     7.5300     7.1050     4.5950     3.2850     3.0150    17.7200    19.3600    35.9150    54.8050    60.4550
  3239.20     7.6900     7.2700     4.7250     3.4100     3.1500    17.4350    18.7000    35.0300    52.4350    59.2450
  3239.40     7.0850     7.1050     4.5750     3.3600     3.1900    21.0100    20.0050    36.5100    53.8750    58.7800
  3239.60     6.2900     6.6950     4.3400     3.2400     3.1050    23.7750    21.3850    37.8150    56.5150    59.6950
  3239.80     6.5850     6.8850     4.5800     3.3550     3.1000    20.4700    19.7600    34.7000    53.1300    59.1350
  3240.00     7.1000     7.4100     5.0400     3.6300     3.3000    19.2800    18.3150    32.0900    47.8750    55.0750
  3240.20     8.0050     7.9450     5.2600     3.8450     3.4900    17.1300    16.2600    30.0650    45.0350    52.4300
  3240.40     8.4750     8.2400     5.4250     3.9550     3.5150    15.1100    15.5800    28.6950    43.8750    51.4950
  3240.60     7.4550     7.5100     5.0100     3.7200     3.3450    19.9150    19.2500    34.3150    49.4400    55.2050
  3240.80     5.9750     6.3000     4.1700     3.2000     2.9950    26.5650    24.4850    43.5150    59.8850    62.5250
  3241.00     5.5700     5.7850     3.8600     2.9250     2.8150    28.6650    26.6900    46.8350    65.2250    66.4350
  3241.20     5.8250     5.7350     3.8350     2.9950     2.9000    25.7800    25.9750    45.5350    63.0300    64.1100
  3241.40     5.5400     5.7900     3.7550     3.0050     2.9650    26.7100    26.2600    46.7450    63.3250    62.4850
  3241.60     5.3900     5.5750     3.6150     2.7850     2.8850    27.9700    27.8300    49.9800    69.9500    65.1400
