~Version information
  VERS.                            1.20: CWLS LAS  -  VERSION 1.20
  WRAP.                              NO: One line per depth step
~Well information
# MNEM.UNIT
# ====.================================:===================
  STRT.M                        3140.00: First depth in file
  STOP.M                        3450.00: Last depth in file
  STEP.M                           0.20: Depth increment
  NULL.                            9999: Null values
  COMP.                         COMPANY: 
  WELL.                            WELL: 115 
  FLD .                           FIELD: íùÑàçëäÄü
  CNTY.                          COUNTY: 
  STAT.                           STATE: 
  DATE.                        LOG DATE: 30-04-04
  SRVC.                 SERVICE COMPANY: 
  UWI.           Unique Well Identifier: 
~Parametr information block
# MNEM.UNIT
# ====.================================:===================
~Other information
# ------------------------- REMARKS  AREA ------------------
~Curve information
# MNEM.UNIT
# ====.================================:===================
  DEPT.M                               : Depth curve
GZ5.OHMM                               : äÄÜ. ëéèêéíàÇãÖçàÖ áéçÑÄ A8.0M1.0N
GZ4.OHMM                               : äÄÜ. ëéèêéíàÇãÖçàÖ áéçÑÄ A4.0M0.5N
GZ3.OHMM                               : äÄÜ. ëéèêéíàÇãÖçàÖ áéçÑÄ A2.0M0.5N
GZ2.OHMM                               : äÄÜ. ëéèêéíàÇãÖçàÖ áéçÑÄ A1.0M0.1N
GZ1.OHMM                               : äÄÜ.ëéèêéíàÇãÖçàÖ áéçÑÄ A0.4M0.1N
PZ.OHMM                                : äÄÜ.ëéèê.èé èéíÖçñàÄãáéçÑì Ä0.5å6.5N
RRB.OHMM                               : ëéèêéíàÇã.èêéåõÇéóç.ÜàÑäéëíà èÖêÇàó.
CALI.MM                                : ëìååÄêçõâ ÑàÄåÖíê äÄÇÖêçéåÖêÄ
CILA.MMHO                              : áéçÑ àä 7à1.6,Ääí.ëàÉçÄã/àä-è/Äàä-5
SP.MV                                  : ÖëíÖëíÇÖççÄü ëÄåéèéãüêàáÄñàü èé èë
BS.                                    : Ñ≠-216¨¨
GR.UR/H                                : ÖëíÖëíÇÖççÄü ÉÄååÄ-ÄäíàÇçéëíú èé Éä
GZB.OHMM                               : GZB
~ASCII Log Data
# ...
  3309.60    53.4979    77.2757    90.2417    40.9714    11.2768    37.3018     0.7664   205.7782    35.3885   256.2066   215.9000     0.9043    65.6522
  3309.80    52.0895    81.1997    91.2523    41.8545    11.6541    36.2675     0.7738   204.6278    33.2953   255.1401   215.9000     0.9869    66.9316
  3310.00    49.8003    82.5879    88.2877    40.6903    11.2656    35.0492     0.7709   204.7625    33.4810   254.8583   215.9000     0.9843    70.4907
  3310.20    47.1374    82.7196    82.8427    38.5312    10.6846    34.0520     0.7678   205.2246    35.1468   254.5826   215.9000     0.9703    75.3447
  3310.40    43.9741    82.7035    77.4117    37.0069    10.2176    33.4261     0.7649   205.5665    36.5195   255.7086   215.9000     0.9765    80.2319
  3310.60    41.3712    82.0717    71.5443    34.9247     9.7808    33.1073     0.7632   206.0047    37.4223   255.0028   215.9000     1.0058    85.8827
  3310.80    39.0491    79.4313    66.0448    32.0783     9.1732    33.5556     0.7685   205.1454    37.8868   257.9104   215.9000     1.0204    93.7002
  3311.00    37.0240    75.0009    60.4790    29.2362     8.4837    34.4361     0.7785   205.1721    39.7373   256.4142   215.9000     1.0109   102.2334
  3311.20    35.6348    70.7292    56.1341    26.6996     7.9551    35.8695     0.7680   204.8516    39.5126   254.1540   215.9000     1.0278   108.0603
  3311.40    34.5100    67.9202    54.0742    25.7253     7.7619    37.9287     0.7680   205.2354    37.9023   253.3708   215.9000     1.0029   109.9208
  3311.60    34.1285    67.5827    53.5646    26.2137     8.0486    40.1571     0.7680   205.1134    35.4559   253.1764   215.9000     0.9613   108.8854
  3311.80    34.0985    68.3846    54.3453    27.4928     8.4965    42.2547     0.7680   205.5567    32.7152   250.7325   215.9000     0.9301   105.7247
  3312.00    34.4709    69.3571    55.6515    28.9232     8.8727    43.8745     0.7682   205.9393    29.2560   252.5000   215.9000     0.9515   102.3426
  3312.20    35.2723    70.7569    56.6395    31.3249     9.3562    45.1766     0.7725   206.4426    26.5536   252.0152   215.9000     0.9575    97.9437
  3312.40    36.1405    72.5283    58.7945    33.0369     9.6564    45.9139     0.7621   206.5448    25.3040   252.4645   215.9000     0.8875    94.4729
  3312.60    37.0549    74.9411    61.8490    36.4487    10.2257    46.3851     0.7630   207.1819    23.7502   250.7601   215.9000     0.8189    90.9250
  3312.80    37.6751    77.4014    65.3151    37.8085    10.4488    46.7090     0.7624   207.0730    24.1813   249.7285   215.9000     0.7794    87.6847
  3313.00    38.3265    78.3176    67.4037    38.5090    10.4438    46.7192     0.7506   206.7988    24.0420   252.5171   215.9000     0.7745    84.7635
  3313.20    38.7704    79.4208    70.0418    38.6652    10.4402    46.9184     0.7630   206.2993    25.2895   253.2786   215.9000     0.8846    81.2231
  3313.40    39.1345    80.7410    73.5570    39.4955    10.4501    47.0079     0.7630   206.3423    26.2568   251.8112   215.9000     1.0127    78.5780
  3313.60    39.8108    82.5037    77.7747    40.0235    10.5668    47.1190     0.7632   207.4223    26.4220   251.4658   215.9000     1.0384    75.3940
  3313.80    41.0293    83.5952    81.6087    39.8313    10.5931    47.1087     0.7661   207.2900    26.7955   251.0865   215.9000     0.9244    72.0963
  3314.00    42.6747    85.0490    85.7805    41.0769    10.7976    46.8850     0.7677   208.2328    27.3373   253.0212   215.9000     0.7801    68.4541
  3314.20    44.7357    87.0958    89.4659    41.9521    11.0633    46.3045     0.7611   207.0349    26.2477   253.7592   215.9000     0.7634    64.3049
  3314.40    47.3489    89.3233    91.9146    42.7779    11.2229    45.7103     0.7639   207.4640    26.0860   251.7805   215.9000     0.7929    60.3565
  3314.60    50.3365    92.1381    94.1981    43.2837    11.2828    44.6772     0.7815   207.6418    27.8653   251.0833   215.9000     0.8720    56.5945
  3314.80    53.5092    94.8124    96.3661    43.9472    11.3625    43.6247     0.7706   206.7437    28.5415   253.9285   215.9000     0.9513    51.9029
  3315.00    56.3110    99.3377    99.7776    45.2042    11.5386    41.8666     0.7630   207.8100    30.1666   254.4305   215.9000     0.9933    48.7702
  3315.20    58.2725   105.6254   102.4506    46.9478    12.1684    40.2658     0.7630   207.5549    32.0666   254.4826   215.9000     0.9577    47.0269
  3315.40    59.0895   109.6432   102.2434    45.9412    11.9872    38.4551     0.7630   206.6857    33.6301   256.3909   215.9000     0.8916    46.7345
  3315.60    59.2478   109.2251    97.4651    43.3090    11.2323    37.2908     0.7630   206.8058    33.8053   257.0458   215.9000     0.8493    47.7358
  3315.80    58.7947   107.7360    92.7147    40.1317    10.5335    36.3889     0.7628   206.9942    39.3695   256.5282   215.9000     0.9136    48.0954
  3316.00    57.7901   108.4489    90.4789    39.7003    10.5380    35.5372     0.7582   206.7222    41.0500   256.4362   215.9000     0.9405    46.5963
  3316.20    56.8805   111.2657    90.3294    39.9088    10.8258    34.8628     0.7624   207.2505    41.7226   255.1337   215.9000     0.8860    44.2090
  3316.40    56.8955   112.9554    90.0804    40.1340    11.2200    33.8157     0.7520   207.4909    41.0346   258.4872   215.9000     0.7696    41.9728
  3316.60    56.6106   115.1208    90.5297    40.2147    11.2477    32.3106     0.7533   207.9097    38.8524   259.2102   215.9000     0.7472    40.2961
  3316.80    55.6311   113.5948    88.5337    41.2233    11.7413    30.4911     0.7773   207.9015    37.2043   260.7891   215.9000     0.8300    40.3992
  3317.00    54.0277   107.6498    82.4258    38.3225    11.0687    29.2336     0.7832   206.7523    36.5046   257.8792   215.9000     0.8864    42.4533
  3317.20    52.2587    98.0196    73.7309    35.3131    10.0602    28.0480     0.7885   206.8202    37.9813   258.5713   215.9000     0.8949    44.6297
  3317.40    49.7218    90.6889    66.9224    32.3750     9.0485    27.6943     0.7975   207.7031    39.5524   259.3350   215.9000     0.8957    45.0520
  3317.60    48.4958    86.4278    63.4506    31.0103     8.9211    27.4417     0.7878   209.2067    40.7324   258.1899   215.9000     0.9530    44.0684
  3317.80    46.8955    83.7281    61.1772    30.6645     9.2164    27.2333     0.7840   208.5540    39.6744   257.3094   215.9000     1.0489    42.2701
  3318.00    46.1216    81.8159    60.3134    30.1523     9.3868    26.9450     0.7842   209.6400    35.0222   256.1201   215.9000     1.0822    40.7477
  3318.20    44.8647    78.8284    59.2820    30.3261     9.6083    26.3520     0.7890   210.0024    29.7301   256.2710   215.9000     1.0278    39.5659
  3318.40    43.4200    74.9217    57.4318    29.8730     9.5567    25.5411     0.7890   208.5899    33.3766   258.6664   215.9000     1.0063    38.8486
  3318.60    41.9889    70.3251    54.6239    29.1334     9.1739    24.9004     0.7890   208.6801    32.0443   257.2306   215.9000     1.0349    38.6115
  3318.80    40.3742    65.1770    51.3577    28.3641     8.8463    24.5814     0.7891   208.6304    35.5305   256.8197   215.9000     1.1069    38.5541
  3319.00    38.9071    60.2648    48.0025    26.8886     8.4236    24.5356     0.7923   208.7979    38.2454   255.7134   215.9000     1.0798    38.3271
  3319.20    38.0257    56.6930    44.9524    25.8410     8.2248    24.5942     0.7990   210.0156    40.2170   256.9380   215.9000     0.9563    37.5268
  3319.40    37.4874    54.1881    44.2410    25.2452     8.2183    24.7890     0.7990   210.0327    40.5682   258.9391   215.9000     0.8443    36.2834
  3319.60    37.4606    53.1212    44.7271    25.9018     8.5441    24.7890     0.7990   209.4306    38.0072   262.3599   215.9000     0.7943    34.6735
  3319.80    37.5475    52.2521    45.6594    26.7505     8.8363    24.7762     0.7992   209.6224    40.8752   263.8390   215.9000     0.8415    33.1312
  3320.00    37.5485    51.1323    46.0232    27.0837     8.9648    24.5082     0.8028   208.6966    40.8258   264.8182   215.9000     0.9328    32.0916
