~Version Information
#-------------------
Vers.        2.0: CWLS log ASCII Standart - VERSION 2.0
WRAP.         NO: One line per depth step
~Well Information Block
#----------------------
#MNEM.UNIT  VALUE: DESCRIPTION
#----.---- -------: -------------
STRT.M     90.00: 
STOP.M    460.00: 
STEP.M      0.20:  
NULL.  -9999.990:  
COMP.           : 
WELL.           : 115
FLD .           : Тэдинская
LOC .           : 
CNTY.           : 
SRVC.           : 
DATE.           : 21-03-04
UWI .           : 
~Parameter Information
#---------------------
#MNEM.UNIT  VALUE: DESCRIPTION
#----.---- -------: ---------------
~Curve Information Block
#-----------------------
#MNEM.UNIT       : CURVE DESCRIPTION
#----.----       : -----------------
DEPT.M          : 
Aя  .           : Амплитуда - волна по колонне 
Tя  .мкс        : Время пробега - волна по породе
Aъ  .           : Амплитуда - волна по породе
DK  .дБ         : Затухание
akz .           : контакт цемент-колонна
~Other Information
#-----------------
~Ascii Log Data
# ...
       402    133.091    876.424     39.834      30.95          4 
     402.2     72.796    846.836     71.241     25.268          4 
     402.4     82.192    921.716      50.87      28.62          4 
     402.6     61.644    950.098      52.82     31.134          4 
     402.8     58.219   1011.265     51.351     29.266          4 
       403     35.349   1101.732     24.731     34.512          4 
     403.2     56.767   1109.268      29.09     33.633          4 
     403.4     94.345   1087.461     33.516     32.804          4 
     403.6    104.118   1083.179     16.225     38.123          4 
     403.8      80.72   1078.957     31.266     32.995          4 
       404     45.105   1045.335      39.53     33.296          4 
     404.2     68.493     981.71     64.746     28.895          4 
     404.4     71.918    1000.98     45.638     30.718          4 
     404.6     75.342    971.209     22.817     35.233          4 
     404.8     61.644    843.185      27.75     33.428          4 
       405     54.795    786.597     13.417     41.884          4 
     405.2     58.707    776.517      6.603      45.92          4 
     405.4     58.219    794.172      4.056     51.837          4 
     405.6     58.219    863.613       0.75      61.61          4 
     405.8      51.37    840.716     35.709     38.961          4 
       406     47.945    856.411     17.667     50.797          4 
     406.2     55.273    879.901       0.75     59.944          4 
     406.4     52.584    850.329       0.75     59.944          4 
     406.6     64.129    764.408      4.816     50.845          4 
     406.8      66.47    744.519      4.667     51.024          4 
       407     31.512    785.549          0     62.292          4 
     407.2     33.611    786.758      0.459      61.37          4 
     407.4     59.386    769.061      2.334     56.658          4 
     407.6     62.872    744.305     10.342     42.817          4 
     407.8     75.228    701.372     16.084     38.744          4 
       408     87.822    690.612     10.834     41.827          4 
     408.2     77.172    702.186     12.355     40.764          4 
     408.4     81.441     700.73     10.077      42.32          4 
     408.6    109.192    689.291     16.139     38.474          4 
     408.8    118.031    690.696         24     34.746          4 
       409     80.263    678.039     32.417     32.227          4 
     409.2     68.493    652.312     72.639     25.574          4 
     409.4     85.616    667.377      62.18     29.398          4 
     409.6     89.041    700.236       34.6     31.526          4 
     409.8     68.493     763.76         41     30.158          3 
       410     68.493    745.491     51.211     28.148          3 
     410.2     65.068    767.441     50.675     28.402          3 
     410.4     65.068    811.077     41.875     29.898          3 
     410.6     78.767    743.708     56.493     27.487          3 
     410.8     78.767    673.832     69.564     25.514          3 
       411     78.767      674.7     64.075     26.245          3 
     411.2     103.17    675.902     78.439     24.402          3 
     411.4     83.129    680.272     74.323      24.89          3 
     411.6     82.539    683.436     77.069     24.555          3 
     411.8     95.072     688.71     76.366     24.638          3 
       412    107.144    682.845     74.363     24.866          3 
     412.2    125.694    679.218     78.037     24.469          3 
     412.4    150.728    680.272     87.106     23.493          3 
     412.6    156.058    678.163     89.102     23.294          3 
     412.8    151.805    676.054     89.733     23.236          3 
       413    147.795    678.163     88.339     23.394          3 
     413.2    111.973    673.191     76.295     24.645          3 
     413.4     85.192    641.025     94.709     22.959          3 
     413.6    103.222    622.504     118.73     20.098          3 
     413.8    110.932    623.079    101.603     21.454          3 
       414    105.331    624.728    103.907     21.968          3 
     414.2    109.259    626.485    106.517     21.753          3 
     414.4    120.287    626.978    112.392     20.251          3 
     414.6    122.186    627.546     113.06       20.2          3 
     414.8    110.209    627.249    109.834     21.528          3 
       415    116.438    626.656     93.222     22.903          3 
     415.2    109.589    633.813     93.364      22.89          3 
     415.4     99.315    664.996     82.122     24.049          3 
     415.6    192.907    683.992     66.354     25.922          3 
     415.8     282.99     686.03     68.399     25.595          3 
       416    289.752    687.009     67.253     25.745          4 
     416.2    211.207    687.261     45.357     29.543          4 
     416.4    106.804    679.215     41.179      30.05          4 
     416.6     92.638     673.13         35     32.696          4 
     416.8    134.086    692.583         21     36.227          4 
       417    154.538    699.559      9.348     43.482          4 
     417.2    109.471     707.92      2.028     55.851          4 
     417.4     66.503    744.639          0     62.292          4 
     417.6     54.292    779.066       4.25     51.566          4 
     417.8     34.959    809.873     13.881     41.096          4 
       418     37.681    782.805     24.845     34.416          4 
     418.2     93.342    712.284     20.178     36.214          4 
     418.4    158.261     686.65     21.784     35.561          4 
     418.6    153.622    689.134     21.102     37.422          4 
     418.8    110.642    674.892     16.057     42.232          4 
       419    119.782    677.031     52.212     29.686          4 
     419.2    177.558    689.816     49.479      28.52          4 
     419.4    228.109    687.578     45.727     29.117          4 
     419.6    244.502     689.55     29.088     34.131          4 
     419.8    226.939    690.825     30.911     32.997          4 
       420    194.344    692.215     33.381     31.829          4 
     420.2    150.663    694.518     39.917       30.3          4 
     420.4     114.02    697.516     42.084      29.81          4 
     420.6     82.535    701.073     52.084     28.105          4 
     420.8     56.002    723.434     64.801     26.061          4 
       421     73.967    754.717     52.099     28.061          4 
     421.2     95.934     768.59     46.739     28.899          4 
     421.4     54.795    803.485     28.767     30.927          4 
     421.6     61.644    829.471     19.417     33.786          4 
     421.8     44.521    803.216     11.334     36.904          4 
       422     58.219    797.175      30.82     33.071          4 
     422.2     75.342    777.772     42.901     29.704          3 
     422.4     78.767    723.965      66.45     25.985          3 
     422.6    123.288    646.912     97.616     22.726          3 
     422.8    123.288    614.642    124.873     20.369          3 
       423    106.991    615.256    114.591     21.117          3 
     423.2    136.986    613.948    102.855     22.052          3 
     423.4    130.137    619.745    115.278     21.095          3 
     423.6    119.863    631.323    118.859     22.202          3 
     423.8    109.589    620.797    109.173     21.556          3 
       424    109.589    614.858     91.024      23.12          3 
     424.2    116.438    613.443     96.996     22.579          3 
     424.4    123.288    613.644    107.555     21.668          3 
     424.6    123.288    615.066    111.807     21.327          3 
     424.8    107.169    613.666    106.469     21.748          3 
       425    113.014    614.166    112.127     21.328          3 
     425.2    106.164    631.592     110.94     21.558          3 
     425.4     92.466    658.708     81.111     24.111          3 
     425.6     85.616    723.165     76.797     24.593          3 
     425.8     71.918      761.5     69.745     25.513          3 
