~Version information
  VERS.                            1.20: CWLS LAS  -  VERSION 1.20
  WRAP.                              NO: One line per depth step
~Well information
# MNEM.UNIT
# ====.================================:===================
  STRT.M                        3148.00: First depth in file
  STOP.M                        3438.00: Last depth in file
  STEP.M                           0.20: Depth increment
  NULL.                            9999: Null values
  COMP.                         COMPANY: 
  WELL.                            WELL: 115 
  FLD .                           FIELD: íÌ§®≠·™†Ô
  CNTY.                          COUNTY: 
  STAT.                           STATE: 
  DATE.                        LOG DATE: 28-04-04
  SRVC.                 SERVICE COMPANY: 
  UWI.           Unique Well Identifier: 
~Parametr information block
# MNEM.UNIT
# ====.================================:===================
~Other information
# ------------------------- REMARKS  AREA ------------------
~Curve information
# MNEM.UNIT
# ====.================================:===================
  DEPT.M                               : Depth curve
IZ2.DEG                                : îÄáÄ1(ÉêÄÑ)
IZ3.DEG                                : îÄáÄ2(ÉêÄÑ)
IZ4.DEG                                : îÄáÄ3(ÉêÄÑ)
IZ5.DEG                                : îÄáÄ4(ÉêÄÑ)
IZ1.DEG                                : îÄáÄ5(ÉêÄÑ)
VIK1.OHMM                              : É0.4à0.1à(éåå)
VIK5.OHMM                              : É0.57à0.14à(éåå)
VIK4.OHMM                              : É0.8à0.2à(éåå)
VIK3.OHMM                              : É1.13à0.28à(éåå)
VIK2.OHMM                              : É1.6à0.4à(éåå)
~ASCII Log Data
# ...
  3416.00    10.0950    16.2150    16.9800    17.3150    17.2950    11.9900     5.7000     5.3550     5.1200     5.0150
  3416.20     9.4450    13.7200    14.0850    14.7150    15.2600    12.6850     7.2950     7.2550     6.6400     6.0200
  3416.40    10.1750    12.6250    12.0750    12.9050    14.2600    11.1400     8.0850     8.9400     7.9700     6.7150
  3416.60    10.0600    11.9650    10.9500    12.0400    13.8000    12.0300     9.1150    10.3550     8.8500     6.9850
  3416.80     9.3650    11.4350    10.3950    11.6600    14.0650    13.4650     9.6600    10.8700     9.1200     6.5550
  3417.00    10.1050    12.0350    11.3450    12.6750    15.8750    11.0850     8.2900     9.0350     7.6650     5.2300
  3417.20    13.1850    15.4950    15.0450    16.0100    19.6200     7.2000     5.4800     5.6950     5.1050     3.5950
  3417.40    15.9600    21.6000    21.4150    21.3450    24.7350     5.2800     3.0400     3.1750     3.1250     2.4050
  3417.60    15.8050    25.9200    27.1000    27.4700    30.2700     5.7300     2.2750     2.0750     1.9900     1.6850
  3417.80    15.0450    28.2300    33.0050    34.5600    35.7550     6.1000     1.9600     1.4600     1.3350     1.2500
  3418.00    14.3550    30.5650    39.2200    40.4650    39.8950     6.3550     1.7200     1.0650     1.0100     1.0400
  3418.20    14.7250    31.4350    40.1900    41.4900    40.7950     6.2150     1.6800     1.0850     1.0050     1.0350
  3418.40    12.9850    27.9600    36.0950    39.6550    38.5300     8.2800     2.3450     1.3900     1.1150     1.1800
  3418.60    11.6750    23.5450    31.6300    36.7000    35.5150     8.7900     2.9300     1.6950     1.2900     1.3500
  3418.80    16.5800    24.5850    30.6600    35.2100    35.1600     5.0750     2.4850     1.7150     1.3400     1.3300
  3419.00    20.9200    28.0100    31.2450    35.5450    37.2500     3.4050     1.9750     1.7000     1.3250     1.2000
  3419.20    17.2250    27.4800    29.3000    33.4500    37.0550     5.3550     2.2100     1.9650     1.5400     1.2550
  3419.40    14.6650    24.3850    27.8000    30.9600    35.3200     6.0700     2.7550     2.0650     1.7250     1.3550
  3419.60    17.3000    24.0750    29.2450    30.8250    35.2400     4.6100     2.6700     1.8700     1.7100     1.3500
  3419.80    15.9000    24.9500    29.1250    30.7350    34.1800     5.7500     2.4750     1.9500     1.7450     1.4800
  3420.00    13.0600    24.2800    26.9000    28.9250    30.8200     7.6100     2.7900     2.2700     1.9950     1.8350
  3420.20    13.7550    23.1100    24.6750    25.8700    27.4000     7.2000     3.0000     2.6550     2.5200     2.2400
  3420.40    14.3200    21.3400    21.8350    22.8550    25.0500     6.7950     3.4050     3.3450     3.1400     2.5850
  3420.60    13.3700    19.1450    19.0950    20.9250    23.3950     7.4200     4.1400     4.2350     3.5200     2.9000
  3420.80    12.7200    17.5050    17.3000    20.0050    22.6200     7.8500     4.7250     4.7600     3.7400     3.0150
  3421.00    13.2750    18.7500    18.7300    19.3850    23.3550     7.4450     4.1300     3.9850     3.9400     2.8000
  3421.20    12.2550    21.9850    23.1000    19.6600    23.6750     8.4000     2.9750     2.7400     3.6450     2.7900
  3421.40    12.2250    25.0950    24.9900    20.9900    21.7800     8.3550     2.5100     2.5950     3.4000     3.3250
  3421.60    13.7950    24.0750    21.1550    18.9500    19.2850     7.2200     2.9400     3.9100     4.7350     4.2050
  3421.80    12.0350    19.2400    16.2950    14.6200    15.9450     9.3000     4.3700     5.5750     6.9350     6.1250
  3422.00    11.2100    15.3550    14.0100    12.5500    12.6600     9.8200     6.3300     7.1250     8.3850     8.5100
  3422.20    11.1700    12.6800    12.0150    11.5400    11.1000     9.2650     8.3250     9.3150     9.5450    10.1150
  3422.40    11.7700    12.0900    10.4800    10.5700    10.2600     8.8850     8.7700    11.2300    10.9750    11.3450
  3422.60    10.8900    10.8300     8.8900     9.2350     9.5050    11.1300    11.6100    15.8100    14.2200    13.0850
  3422.80     9.9750     9.5050     7.3750     7.6500     8.5600    12.0500    13.2000    19.4150    18.5400    15.2300
  3423.00    10.7500     9.9050     7.1850     6.7950     8.1600    10.7900    11.7100    18.7800    21.0900    16.0550
  3423.20    10.1300     9.7200     7.2800     6.5350     7.6800    12.3100    12.2350    18.9150    22.4750    17.9000
  3423.40    10.0000     9.1800     7.0800     6.4150     7.1550    12.0550    12.8400    19.3850    22.5450    19.3350
  3423.60    10.2400     9.5550     7.4100     6.7000     7.3150    11.4000    12.3200    17.6550    20.7050    18.3050
  3423.80    10.4450    10.1950     8.4050     7.4850     7.7000    10.5950    10.8150    14.4350    17.5100    16.9350
  3424.00    11.9600    11.4050     9.4750     8.3900     8.1400     8.5450     9.0100    12.0800    14.7900    15.7250
  3424.20    12.7450    12.7150    10.1300     8.8050     8.3450     7.9100     7.7250    11.0700    14.0100    15.2200
  3424.40    13.6000    13.7250    10.7900     9.1400     8.4500     6.8000     6.8000    10.0400    13.1900    14.7550
  3424.60    13.6050    14.1200    11.3450     9.5150     8.6150     7.3000     6.7250     9.3950    12.3850    14.5100
  3424.80    11.8750    13.8950    11.4700     9.5150     8.6050     9.3000     7.0700     9.3100    12.4000    14.6450
  3425.00    12.3450    14.1850    11.8200     9.6350     8.5050     8.1250     6.6250     8.9000    12.1750    14.9150
  3425.20    13.5150    14.4950    11.7600     9.7100     8.3550     7.2100     6.4700     9.2850    12.4550    15.5750
  3425.40    12.7350    14.2650    10.9750     9.1200     7.9600     8.2600     6.7400    10.2950    13.8000    16.8300
  3425.60    12.1350    13.5050    10.2800     8.4400     7.5550     8.8400     7.4500    11.3300    15.3750    18.1150
  3425.80    11.4050    12.0050     9.3250     7.8000     7.2150    10.3950     9.2250    13.6050    17.5450    19.4300
  3426.00     9.7100    10.3900     8.1700     7.0950     6.8350    11.8550    11.2800    16.2950    19.6950    20.5950
  3426.20    10.1600    10.2050     7.7050     6.7150     6.7850    11.2150    11.4200    17.4700    21.1400    20.6900
  3426.40     9.6000     9.7350     7.2650     6.3750     6.8950    13.7800    12.7400    19.5400    23.1800    20.2800
  3426.60     8.5800     8.5400     6.5850     6.2000     7.0600    15.0000    14.8900    21.9250    23.5850    19.4600
  3426.80     8.3850     8.3800     6.7050     6.6950     7.7700    15.2400    14.7400    20.7300    20.5800    16.6050
  3427.00     9.0750     9.7200     8.3600     8.2850     9.6650    13.1700    11.4900    14.8150    14.7300    11.7150
  3427.20    14.8450    14.7800    13.4350    12.7200    13.6200     6.1600     6.0000     7.2050     7.7850     6.7650
  3427.40    25.4250    26.0850    23.0700    21.1650    20.1250     2.3100     2.3500     2.7450     3.3150     3.4800
  3427.60    32.0100    34.6350    30.9200    28.5500    27.1300     1.5400     1.3200     1.6150     1.8550     2.0250
  3427.80    33.9100    38.3400    34.8200    33.5050    33.1600     1.4200     1.1100     1.3150     1.4200     1.4350
  3428.00    35.5550    44.2950    40.2300    39.4800    38.4100     1.3200     0.8350     0.9950     1.0400     1.1050
  3428.20    29.3550    47.2050    45.4400    43.8400    41.5400     2.5000     0.7800     0.8150     0.8700     0.9750
  3428.40    20.7200    46.0700    47.9600    45.7650    42.0350     3.7800     0.8200     0.7400     0.8150     0.9650
  3428.60    22.5650    47.2900    50.7250    47.7200    41.6950     3.0000     0.7700     0.6650     0.7450     0.9800
  3428.80    25.9900    47.6000    52.3300    49.3600    41.6750     2.1700     0.7800     0.6350     0.7050     0.9750
  3429.00    30.9800    47.0100    52.6550    51.0950    42.1600     1.7750     0.7850     0.6250     0.6600     0.9550
  3429.20    36.6500    47.7500    52.1300    52.9600    41.9400     1.2300     0.7550     0.6600     0.6150     0.9850
