~Version information
  VERS.                            1.20: CWLS LAS  -  VERSION 1.20
  WRAP.                              NO: One line per depth step
~Well information
# MNEM.UNIT
# ====.================================:===================
  STRT.M                        3140.00: First depth in file
  STOP.M                        3450.00: Last depth in file
  STEP.M                           0.20: Depth increment
  NULL.                            9999: Null values
  COMP.                         COMPANY: 
  WELL.                            WELL: 115 
  FLD .                           FIELD: íùÑàçëäÄü
  CNTY.                          COUNTY: 
  STAT.                           STATE: 
  DATE.                        LOG DATE: 30-04-04
  SRVC.                 SERVICE COMPANY: 
  UWI.           Unique Well Identifier: 
~Parametr information block
# MNEM.UNIT
# ====.================================:===================
~Other information
# ------------------------- REMARKS  AREA ------------------
~Curve information
# MNEM.UNIT
# ====.================================:===================
  DEPT.M                               : Depth curve
GZ5.OHMM                               : äÄÜ. ëéèêéíàÇãÖçàÖ áéçÑÄ A8.0M1.0N
GZ4.OHMM                               : äÄÜ. ëéèêéíàÇãÖçàÖ áéçÑÄ A4.0M0.5N
GZ3.OHMM                               : äÄÜ. ëéèêéíàÇãÖçàÖ áéçÑÄ A2.0M0.5N
GZ2.OHMM                               : äÄÜ. ëéèêéíàÇãÖçàÖ áéçÑÄ A1.0M0.1N
GZ1.OHMM                               : äÄÜ.ëéèêéíàÇãÖçàÖ áéçÑÄ A0.4M0.1N
PZ.OHMM                                : äÄÜ.ëéèê.èé èéíÖçñàÄãáéçÑì Ä0.5å6.5N
RRB.OHMM                               : ëéèêéíàÇã.èêéåõÇéóç.ÜàÑäéëíà èÖêÇàó.
CALI.MM                                : ëìååÄêçõâ ÑàÄåÖíê äÄÇÖêçéåÖêÄ
CILA.MMHO                              : áéçÑ àä 7à1.6,Ääí.ëàÉçÄã/àä-è/Äàä-5
SP.MV                                  : ÖëíÖëíÇÖççÄü ëÄåéèéãüêàáÄñàü èé èë
BS.                                    : Ñ≠-216¨¨
GR.UR/H                                : ÖëíÖëíÇÖççÄü ÉÄååÄ-ÄäíàÇçéëíú èé Éä
GZB.OHMM                               : GZB
~ASCII Log Data
# ...
  3426.20     6.8330    12.9530    19.4910     9.1363     4.4758     9.8340     0.7430   224.1504    64.1956   312.3819   215.9000     0.5353     4.1580
  3426.40     6.8173    12.9530    19.4910     9.1610     4.4362     9.8340     0.7430   227.3917    67.4196   310.4141   215.9000     0.6188     4.1580
  3426.60     6.4882    12.9530    19.4918     9.1623     4.4780     9.8340     0.7430   218.0352    72.4998   309.4361   215.9000     0.6547     4.1580
  3426.80     5.8587    12.9530    19.5062     9.1863     4.4780     9.8340     0.7430   210.3646    79.2618   307.7755   215.9000     0.6768     4.1580
  3427.00     4.9738    12.9530    19.4910     9.1719     4.4780     9.8340     0.7430   209.3008    79.2487   307.5725   215.9000     0.8181     4.1580
  3427.20     3.6928    12.9530    19.4910     9.1683     4.4780     9.8340     0.7430   209.5025    79.1926   306.8394   215.9000     0.6994     4.1580
  3427.40     2.1279    12.9530    19.4931     9.1355     4.4780     9.8340     0.7430   210.5038    88.8675   308.1414   215.9000     0.5563     4.1580
  3427.60     1.3320    12.9530    19.5309     9.1435     4.4780     9.8340     0.7430   210.2501    99.6778   306.3334   215.9000     0.5762     4.1580
  3427.80     1.0421    12.9530    19.4910     9.1357     4.4780     9.8340     0.7430   210.9020   109.6954   305.3982   215.9000     0.4906     4.1580
  3428.00     0.9480    12.9530    19.4910     9.1473     4.4780     9.8340     0.7430   210.9986   126.5434   305.4511   215.9000     0.5816     4.1580
  3428.20     0.9480    12.9530    19.4910     9.1369     4.4780     9.8340     0.7430   211.3557   142.7518   304.2672   215.9000     0.6533     4.1580
  3428.40     0.9480    12.9530    19.4910     9.1711     4.4780     9.8340     0.7430   211.0939   161.6277   305.3303   215.9000     0.7283     4.1580
  3428.60     0.9498    12.9530    19.4910     9.1547     4.4780     9.8340     0.7430   211.5916   180.0573   307.7163   215.9000     0.5811     4.1580
  3428.80     0.9837    12.9530    19.4910     9.1851     4.4780     9.8340     0.7430   210.5465   190.3112   307.1706   215.9000     0.5649     4.1580
  3429.00     0.9980    12.9530    19.4910     9.1473     4.4780     9.8340     0.7430   209.6967   198.7686   308.1559   215.9000     0.6006     4.1580
  3429.20     0.9980    12.9530    19.4910     9.1372     4.4780     9.8340     0.7430   210.9727   213.7050   306.8035   215.9000     0.6082     4.1580
  3429.40     0.9980    12.9530    19.4910     9.1768     4.4771     9.8340     0.7430   209.3059   231.2823   306.8452   215.9000     0.5411     4.1580
  3429.60     0.9980    12.9530    19.4910     9.1350     4.4599     9.8340     0.7430   208.8056   239.5134   308.1975   215.9000     0.6196     4.1580
  3429.80     0.9980    12.9530    19.4910     9.1354     4.4780     9.8340     0.7430   208.7382   244.2964   308.6311   215.9000     0.6592     4.1580
  3430.00     0.9980    12.9530    19.4910     9.1432     4.4780     9.8340     0.7430   209.0398   246.3493   310.5082   215.9000     0.8102     4.1580
  3430.20     0.9980    12.9530    19.4910     9.1473     4.4780     9.8340     0.7430   209.2310   248.0553   309.9781   215.9000     0.7413     4.1580
  3430.40     1.0005    12.9530    19.4910     9.1354     4.4780     9.8340     0.7430   208.2823   240.0120   308.8807   215.9000     0.8168     4.1580
  3430.60     1.0446    12.9530    19.4910     9.1448     4.4780     9.8340     0.7430   209.3629   205.0150   309.4563   215.9000     0.7046     4.1580
  3430.80     1.0005    12.9530    19.4910     9.1778     4.4780     9.8340     0.7430   208.7814   159.5015   306.1909   215.9000     0.8136     4.1580
  3431.00     1.0464    12.9530    19.4910     9.1350     4.4780     9.8340     0.7430   207.9738   117.6610   308.9750   215.9000     0.8487     4.1580
  3431.20     1.0337    12.9530    19.4910     9.1350     4.4780     9.8340     0.7430   209.8463   114.6093   308.0370   215.9000     0.9145     4.1580
  3431.40     1.0105    12.9530    19.4910     9.1376     4.4780     9.8340     0.7430   210.4322   124.6224   306.2466   215.9000     0.8277     4.1580
  3431.60     1.0369    12.9530    19.4910     9.1849     4.4780     9.8340     0.7430   209.9245   162.6791   308.8513   215.9000     0.8030     4.1580
  3431.80     0.9980    12.9530    19.4910     9.1457     4.4755     9.8340     0.7430   210.3277   190.4520   311.5283   215.9000     0.7785     4.1580
  3432.00     1.0001    12.9530    19.4910     9.1759     4.4305     9.8340     0.7430   210.3361   226.3186   310.9730   215.9000     0.6949     4.1580
  3432.20     1.0413    12.9530    19.4910     9.1371     4.4780     9.8340     0.7430   212.7209   217.0334   309.6190   215.9000     0.7177     4.1580
  3432.40     1.0450    12.9530    19.4910     9.1759     4.4780     9.8340     0.7430   211.7953   198.7131   308.2083   215.9000     0.8206     4.1580
  3432.60     1.0056    12.9530    19.4910     9.1365     4.4780     9.8340     0.7430   211.9784   173.5296   310.7803   215.9000     0.7239     4.1580
  3432.80     0.9991    12.9530    19.4910     9.1661     4.4759     9.8340     0.7430   212.9855   143.2744   313.2657   215.9000     0.8357     4.1580
  3433.00     1.0180    12.9530    19.4926     9.1844     4.4372     9.8340     0.7430   209.5336   113.5667       9999   215.9000     0.8129     4.1580
  3433.20     0.9991    12.9530    19.5214     9.1355     4.4780     9.8340     0.7430   208.3519   103.5284       9999   215.9000     0.8288     4.1580
  3433.40     1.0190    12.9530    19.4910     9.1461     4.4775     9.8340     0.7430   208.1130    90.4182       9999   215.9000     0.7976     4.1580
  3433.60     1.0194    12.9530    19.4910     9.1848     4.4676     9.8340     0.7430   208.6352    81.9375       9999   215.9000     0.6481     4.1580
  3433.80     1.0446    12.9530    19.4910     9.1433     4.4619     9.8340     0.7430   208.4585    82.2388       9999   215.9000     0.8151     4.1580
  3434.00     0.9980    12.9530    19.4910     9.1493     4.4780     9.8340     0.7430   208.3551    99.4604       9999   215.9000     0.7269     4.1580
  3434.20     1.0005    12.9530    19.4910     9.1355     4.4780     9.8340     0.7430   210.0624   115.8875       9999   215.9000     0.8447     4.1580
  3434.40     1.0470    12.9530    19.4910     9.1435     4.4755     9.8340     0.7430   214.4806   129.0226       9999   215.9000     0.9450     4.1580
  3434.60     1.0446    12.9530    19.4910     9.1355     4.4280     9.8340     0.7430   210.9648   122.5171       9999   215.9000     0.7932     4.1580
  3434.80     0.9980    12.9530    19.4910     9.1448     4.4280     9.8340     0.7430   211.4206   108.7868       9999   215.9000     0.7911       9999
  3435.00     1.0005    12.9530    19.4910     9.1597     4.4280     9.8340     0.7430   210.8084    94.5043       9999   215.9000     0.6659       9999
  3435.20     1.0446    12.9530    19.4910     9.1363     4.4280     9.8340     0.7430   211.5196    88.9927       9999   215.9000     0.7567       9999
  3435.40     0.9980    12.9530    19.4910     9.1602     4.4280     9.8340     0.7430   209.9463    90.3780       9999   215.9000     0.7398       9999
  3435.60     0.9992    12.9530    19.4910     9.1435     4.4280     9.8340     0.7430   207.4781    91.8059       9999   215.9000     0.8952       9999
  3435.80     1.0220    12.9530    19.4910     9.1376     4.4280     9.8340     0.7430   204.4563    89.6587       9999   215.9000     0.6560       9999
  3436.00     1.0224    12.9530    19.4910     9.1844     4.4280     9.8340     0.7430   203.2932    88.9807       9999   215.9000     0.7566       9999
  3436.20     1.0318    12.9530    19.4910     9.1366     4.4280     9.8340     0.7430   202.1246    89.2102       9999   215.9000     0.8698       9999
  3436.40     1.0454    12.9530    19.4910     9.1680     4.4280     9.8340     0.7430   196.8918    89.3600       9999   215.9000     0.9760       9999
  3436.60     1.0157    12.9530    19.4910     9.1870     4.4280     9.8340     0.7430   197.9846    89.2699       9999   215.9000     0.9194       9999
