~Version information
  VERS.                            1.20: CWLS LAS  -  VERSION 1.20
  WRAP.                              NO: One line per depth step
~Well information
# MNEM.UNIT
# ====.================================:===================
  STRT.M                        3148.00: First depth in file
  STOP.M                        3438.00: Last depth in file
  STEP.M                           0.20: Depth increment
  NULL.                            9999: Null values
  COMP.                         COMPANY: 
  WELL.                            WELL: 115 
  FLD .                           FIELD: íÌ§®≠·™†Ô
  CNTY.                          COUNTY: 
  STAT.                           STATE: 
  DATE.                        LOG DATE: 28-04-04
  SRVC.                 SERVICE COMPANY: 
  UWI.           Unique Well Identifier: 
~Parametr information block
# MNEM.UNIT
# ====.================================:===================
~Other information
# ------------------------- REMARKS  AREA ------------------
~Curve information
# MNEM.UNIT
# ====.================================:===================
  DEPT.M                               : Depth curve
IZ2.DEG                                : îÄáÄ1(ÉêÄÑ)
IZ3.DEG                                : îÄáÄ2(ÉêÄÑ)
IZ4.DEG                                : îÄáÄ3(ÉêÄÑ)
IZ5.DEG                                : îÄáÄ4(ÉêÄÑ)
IZ1.DEG                                : îÄáÄ5(ÉêÄÑ)
VIK1.OHMM                              : É0.4à0.1à(éåå)
VIK5.OHMM                              : É0.57à0.14à(éåå)
VIK4.OHMM                              : É0.8à0.2à(éåå)
VIK3.OHMM                              : É1.13à0.28à(éåå)
VIK2.OHMM                              : É1.6à0.4à(éåå)
~ASCII Log Data
# ...
  3282.00     6.8700     6.6850     4.4950     3.3050     3.1350    19.9500    21.1450    37.0950    52.9500    58.7200
  3282.20     7.5950     7.2600     4.9150     3.6250     3.3300    17.7400    18.4500    32.2350    47.2600    53.7400
  3282.40     7.9000     7.5550     5.1250     3.8400     3.4850    17.1000    17.3750    31.0750    45.3000    51.2800
  3282.60     7.9000     7.7550     5.2750     3.9100     3.5200    17.0750    16.8500    30.0450    44.9150    51.3250
  3282.80     7.9350     7.9750     5.4350     3.9600     3.5000    16.8750    16.2050    28.4750    43.9050    51.3250
  3283.00     8.2300     8.1500     5.5350     4.0300     3.5250    15.6200    15.6350    27.3500    42.4500    51.4300
  3283.20     8.1950     8.0400     5.5050     4.1050     3.5050    16.1250    16.6400    28.0750    42.3300    52.0950
  3283.40     7.9350     7.5650     5.2700     4.0050     3.4250    17.1900    18.2900    30.3000    43.7600    52.9750
  3283.60     7.5500     7.0900     4.9750     3.8450     3.3500    18.3450    19.4600    32.9850    45.6100    52.9750
  3283.80     7.3600     6.7600     4.8150     3.7450     3.3800    18.2750    20.3000    33.9050    46.8450    53.2800
  3284.00     7.8800     7.0250     4.9150     3.8550     3.5500    16.2300    19.3800    32.0250    44.9900    51.6750
  3284.20     8.3500     7.4850     5.1050     4.0450     3.6700    15.2150    18.0550    30.6650    43.1550    48.6650
  3284.40     8.3950     7.5150     5.1200     3.9950     3.6700    15.2300    17.8700    31.2400    44.0050    48.2150
  3284.60     8.4600     7.5100     5.0350     3.9350     3.6100    14.8000    17.6850    31.6850    45.4200    49.2550
  3284.80     8.5050     7.5900     5.0600     3.8550     3.5250    14.8700    17.6300    32.0500    46.3200    49.8800
  3285.00     8.5150     7.4200     4.9400     3.6700     3.4350    15.1150    18.2400    33.1200    49.3300    52.1900
  3285.20     7.9000     7.1300     4.5500     3.4200     3.2850    16.6150    19.5850    36.3700    55.2300    57.2200
  3285.40     7.5950     7.1650     4.4450     3.2400     3.1200    18.8050    19.8750    37.7900    58.3200    60.7550
  3285.60     7.0250     6.6000     4.2550     3.0550     3.0200    21.0350    21.8500    40.6100    60.5900    61.8200
  3285.80     6.7050     6.2400     4.2300     3.0350     3.0150    21.2950    22.0000    40.4850    59.1750    61.0250
  3286.00     7.3250     6.8050     4.4250     3.2900     3.2050    19.0600    19.6250    36.2800    53.9450    57.0700
  3286.20     7.4550     7.1400     4.5600     3.4700     3.4550    17.8500    18.9950    34.8350    50.3950    51.8350
  3286.40     7.7100     7.4850     4.9450     3.7300     3.7050    16.8000    17.5450    32.2900    45.7150    47.3950
  3286.60     8.4050     8.1200     5.4150     4.1650     3.9550    14.7050    15.5400    28.6200    40.1300    42.8300
  3286.80     9.1650     8.9150     5.9750     4.5650     4.2300    13.1300    13.7000    24.5700    35.7750    39.2800
  3287.00     9.1850     9.1850     6.2200     4.7300     4.4700    13.3300    13.3300    23.3900    34.2650    37.7100
  3287.20     9.0550     9.1900     6.3150     4.8100     4.5900    13.5450    13.1700    22.7900    33.0250    36.6650
  3287.40     9.2150     9.4900     6.6550     5.0650     4.6500    13.0450    12.3650    21.0700    30.7750    34.7550
  3287.60     9.4900     9.8800     7.0700     5.3850     4.7900    12.3400    11.6500    19.4850    28.7400    33.0050
  3287.80     9.7600    10.1250     7.3150     5.6050     4.9750    12.0250    11.3750    18.7200    27.5500    32.3050
  3288.00     9.5750     9.9250     7.2500     5.6000     4.9800    12.8250    12.0550    19.0450    27.8550    32.5450
  3288.20     9.2050     9.5050     6.8850     5.4150     4.9100    13.6750    12.8700    20.5100    28.7800    33.5200
  3288.40     8.7900     9.1100     6.6050     5.3150     4.8300    14.8450    13.6050    21.8050    29.5550    33.7300
  3288.60     8.5650     8.8050     6.5150     5.3800     4.8500    15.0650    14.0850    21.9100    29.0800    32.8700
  3288.80     8.6250     8.8700     6.6900     5.6550     5.1750    14.3150    13.7900    20.8700    26.6500    29.9300
  3289.00     8.9350     9.1350     7.1050     6.0500     5.6600    13.2800    13.0200    19.0600    23.7700    26.2600
  3289.20     9.8950     9.8150     7.6950     6.5350     6.1050    11.3350    11.7200    17.0650    21.5350    23.8850
  3289.40    10.7450    10.5450     8.1450     6.8800     6.3750    10.1750    10.5250    15.8250    20.3600    22.5000
  3289.60    10.7100    10.7350     8.2200     6.9000     6.4300    10.2700    10.3150    15.7950    20.5650    22.5450
  3289.80    10.4600    10.8300     8.1950     6.7450     6.3100    10.9300    10.3650    15.9150    21.4850    23.8700
  3290.00    10.4650    10.7850     8.0900     6.5450     6.0400    11.0300    10.3750    16.1300    22.2600    25.3100
  3290.20    10.3150    10.4700     7.8450     6.3300     5.7800    11.1900    10.8250    17.0600    23.3700    26.7100
  3290.40     9.3900     9.7650     7.3350     5.9750     5.5050    13.4100    12.5200    19.0000    25.4350    28.6100
  3290.60     8.3000     8.7650     6.6850     5.5750     5.2150    15.6750    14.6050    21.5300    27.5300    30.4300
  3290.80     8.3600     8.5700     6.5200     5.4700     5.1350    15.4600    14.8200    22.2900    27.8300    30.6350
  3291.00     8.6000     8.5950     6.4400     5.5350     5.2400    14.7600    14.7500    22.5550    27.5750    29.2700
  3291.20     8.8850     8.6450     6.4250     5.6450     5.4300    13.7700    14.3200    22.3350    27.3600    28.1850
  3291.40     9.4250     9.1300     6.7100     5.7850     5.6750    12.5650    13.1450    21.0850    26.2550    26.9650
  3291.60     9.7400     9.5050     6.8750     5.8350     5.8050    12.0150    12.4250    20.4000    25.7200    25.9600
  3291.80     9.5050     9.5300     6.8900     5.7650     5.8150    12.7000    12.6250    20.2500    26.1750    25.6900
  3292.00     9.1500     9.4800     6.9050     5.7550     5.8750    13.2300    12.6950    19.8650    25.8200    25.1850
  3292.20     9.4750     9.9500     7.3500     6.0600     6.0450    12.3750    11.5150    18.0100    23.9150    24.2600
  3292.40    10.1000    10.5900     7.9750     6.4750     6.2950    11.3150    10.3500    15.8900    21.8100    22.8700
  3292.60    10.3150    11.0500     8.3900     6.8150     6.4850    10.9650     9.8350    14.9050    20.4300    21.9050
  3292.80    10.2600    11.2800     8.6200     7.0250     6.5300    11.0100     9.6100    14.5850    19.8200    21.9400
  3293.00    10.2950    11.3600     8.6850     7.0700     6.5300    11.0750     9.4750    14.4100    19.8600    22.1900
  3293.20     9.9850    11.3100     8.6350     7.0350     6.4750    11.6750     9.6350    14.4750    19.9550    22.3350
  3293.40     9.8650    11.2150     8.6800     7.1050     6.5050    11.6750     9.6500    14.1850    19.3850    22.1550
  3293.60    10.1250    11.2600     8.8550     7.3300     6.6550    11.1800     9.5450    13.8050    18.4850    21.4300
  3293.80    10.2900    11.2950     8.9550     7.5100     6.7750    11.0850     9.6150    13.7950    18.0250    20.7600
  3294.00    10.3450    11.2700     8.9300     7.5650     6.8450    10.9550     9.5750    13.8000    17.7450    20.3950
  3294.20    10.4950    11.4650     8.9950     7.5950     6.8750    10.7000     9.2550    13.6000    17.5400    20.2500
  3294.40    10.5150    11.6650     9.0100     7.5350     6.8750    10.7600     9.1350    13.7750    17.9500    20.4600
  3294.60    10.3150    11.5400     8.7750     7.2700     6.7150    11.2100     9.3700    14.2950    19.0850    21.2600
  3294.80     9.8850    11.0500     8.4450     6.8850     6.3900    12.2550    10.1350    15.3350    21.0350    23.0000
  3295.00     9.2200    10.3000     7.8700     6.4400     6.0550    13.5150    11.3600    17.2350    23.3050    25.0650
  3295.20     8.7050     9.6500     7.3200     6.0600     5.7800    14.9350    12.5400    19.1200    25.0650    26.6300
