~Version information
  VERS.                            1.20: CWLS LAS  -  VERSION 1.20
  WRAP.                              NO: One line per depth step
~Well information
# MNEM.UNIT
# ====.================================:===================
  STRT.M                        3148.00: First depth in file
  STOP.M                        3438.00: Last depth in file
  STEP.M                           0.20: Depth increment
  NULL.                            9999: Null values
  COMP.                         COMPANY: 
  WELL.                            WELL: 115 
  FLD .                           FIELD: íÌ§®≠·™†Ô
  CNTY.                          COUNTY: 
  STAT.                           STATE: 
  DATE.                        LOG DATE: 28-04-04
  SRVC.                 SERVICE COMPANY: 
  UWI.           Unique Well Identifier: 
~Parametr information block
# MNEM.UNIT
# ====.================================:===================
~Other information
# ------------------------- REMARKS  AREA ------------------
~Curve information
# MNEM.UNIT
# ====.================================:===================
  DEPT.M                               : Depth curve
IZ2.DEG                                : îÄáÄ1(ÉêÄÑ)
IZ3.DEG                                : îÄáÄ2(ÉêÄÑ)
IZ4.DEG                                : îÄáÄ3(ÉêÄÑ)
IZ5.DEG                                : îÄáÄ4(ÉêÄÑ)
IZ1.DEG                                : îÄáÄ5(ÉêÄÑ)
VIK1.OHMM                              : É0.4à0.1à(éåå)
VIK5.OHMM                              : É0.57à0.14à(éåå)
VIK4.OHMM                              : É0.8à0.2à(éåå)
VIK3.OHMM                              : É1.13à0.28à(éåå)
VIK2.OHMM                              : É1.6à0.4à(éåå)
~ASCII Log Data
# ...
  3255.20    10.8900    11.5750     8.6000     6.8800     6.6700     9.9200     9.0250    14.2500    19.8400    21.1600
  3255.40    12.0400    13.1800     9.9500     7.8700     7.1550     8.4400     7.3100    11.3700    16.1150    18.8550
  3255.60    12.4050    13.7800    10.6800     8.5850     7.7000     8.1100     6.8750    10.3700    14.4500    17.1750
  3255.80    13.0200    14.0400    11.0050     8.9100     7.9050     7.3600     6.6950     9.8300    13.7900    16.8350
  3256.00    13.4550    14.1600    11.1600     9.1000     7.9400     7.2000     6.7800     9.7850    13.4300    16.6900
  3256.20    13.1150    13.6600    10.7600     8.9250     7.7950     8.0150     7.2900    10.5300    14.1100    17.1050
  3256.40    11.8150    12.3900     9.9250     8.4550     7.4450     9.3750     8.4450    11.8800    15.4550    18.0700
  3256.60    13.0950    12.2050     9.7750     8.2650     7.2350     8.6850     8.4750    12.1200    15.8950    18.8500
  3256.80    11.6450    11.0750     8.8800     7.7200     6.9600    13.7950    11.8500    15.9950    18.9750    20.7400
  3257.00     7.3200     8.1650     6.6750     6.2850     6.1450    20.8400    17.4250    23.0500    25.7650    25.1650
  3257.20     7.5050     7.3850     5.8450     5.5050     5.5300    16.9250    17.5650    24.9500    28.6350    28.1500
  3257.40     7.7900     7.7800     5.9250     5.4150     5.4550    15.6250    16.6200    25.6300    29.5850    28.4550
  3257.60     7.1600     7.9700     5.7350     5.0900     5.3550    18.4300    16.5750    27.0600    32.4900    28.9750
  3257.80     8.0000     8.4750     5.9300     4.9900     5.3350    17.0500    14.8000    24.7800    32.0300    28.7250
  3258.00     9.0250     9.0750     6.5050     5.3550     5.5400    13.2650    12.9100    21.4850    28.7200    27.3300
  3258.20    10.5550    10.0100     6.9900     5.7300     5.7250    10.9400    12.6850    20.2350    26.6500    26.3900
  3258.40     9.4100     9.1350     6.2000     5.3250     5.4850    16.1350    16.3600    27.1200    31.8000    28.4650
  3258.60     7.1600     7.4200     5.1500     4.4650     5.0000    17.5700    18.1950    30.9900    36.9100    32.6550
  3258.80     8.5650     9.3400     6.3600     4.7700     4.8600    15.8350    14.4050    23.7750    33.0900    33.6050
  3259.00    10.0950    10.0150     6.6250     4.9100     4.7600    17.6300    13.1200    23.4300    35.5400    35.6250
  3259.20     8.1350     7.4150     4.9900     3.9400     4.1800    21.0400    19.1000    34.0750    49.9900    43.6050
  3259.40     6.1450     6.3700     4.3350     3.2700     3.5100    23.8600    22.5250    39.7850    58.4200    51.9550
  3259.60     6.3700     6.7400     4.5250     3.2550     3.3600    23.1750    19.9300    37.2500    54.7250    53.0250
  3259.80     7.2800     7.6300     4.9450     3.6700     3.5750    19.8950    16.7600    31.6700    47.3800    49.0950
  3260.00     7.5600     8.1500     5.1700     3.8650     3.7350    18.2250    15.9800    29.0150    45.7750    47.3800
  3260.20     6.5300     7.2750     4.9800     3.6500     3.6000    21.9250    19.9050    33.4400    50.5550    50.3950
  3260.40     5.8900     6.4200     4.2600     3.3100     3.3500    25.3300    23.1900    40.3800    57.8600    55.7100
  3260.60     6.5350     6.9800     4.2050     3.1800     3.2900    21.9550    20.1300    38.3650    57.7000    55.7300
  3260.80     7.9100     8.2600     5.0800     3.5450     3.5050    17.2900    15.3450    30.1900    49.1700    49.7900
  3261.00     7.5550     8.3200     5.2050     3.7250     3.6600    20.4200    15.9800    30.4600    47.9950    47.5300
  3261.20     7.1150     7.8050     5.0050     3.5250     3.5800    20.4350    17.1150    32.0400    50.7550    49.8900
  3261.40     8.2250     8.2450     5.2450     3.6750     3.6100    15.5750    14.9250    29.2950    47.3300    48.6100
  3261.60     8.0350     8.5050     5.4800     3.9750     3.7850    17.2300    15.1150    28.5550    43.5150    45.2450
  3261.80     8.0100     8.3150     5.5150     4.1200     3.9600    16.4150    15.4800    27.4800    40.5750    42.5950
  3262.00     9.1900     8.7500     5.9850     4.5400     4.2200    12.8100    13.9700    24.1600    35.3500    39.2750
  3262.20     9.2600     8.8100     6.1350     4.7550     4.4150    12.9750    14.5250    24.3100    34.2700    38.0850
  3262.40     9.6800     8.8750     6.2100     4.8200     4.5050    12.3000    14.1850    23.6150    34.0700    37.3200
  3262.60    10.0900     9.0450     6.4350     5.0200     4.6500    12.0450    13.8200    22.6200    32.7650    35.7400
  3262.80     9.2000     8.5300     6.1700     4.9250     4.5900    13.8900    15.4750    24.1800    33.1900    36.3850
  3263.00     8.0900     7.9350     5.9650     4.8650     4.4650    15.1400    16.6600    24.8300    32.7800    36.8800
  3263.20    10.2700     9.1200     6.8350     5.4450     4.8000    11.8850    13.4450    20.4100    27.9250    33.3600
  3263.40    10.5250     9.0350     7.1100     5.8200     5.1000    12.7800    14.2050    21.2150    27.0350    30.8250
  3263.60     6.6800     6.9600     5.6200     4.9050     4.6500    29.2200    22.3950    32.2800    37.1350    37.5050
  3263.80     6.2200     6.5400     4.6650     4.0550     4.0600    28.2150    22.3800    34.9300    42.4200    43.6750
  3264.00     9.1400     8.5550     5.8200     4.6100     4.1650    12.1500    14.1450    25.3450    34.9750    40.0000
  3264.20    11.1500    10.9050     7.1950     5.3950     4.6400     9.4750     9.7450    18.3850    28.6100    35.1550
  3264.40    10.6500    10.9850     7.2800     5.3850     4.7000    10.9700    10.6850    19.1700    29.8750    36.4700
  3264.60     8.8200     9.1550     6.4200     4.7400     4.2500    15.9550    15.3550    25.6150    36.7100    42.6200
  3264.80     6.9750     7.0000     5.0450     3.9050     3.6250    22.3450    21.4000    34.7400    47.6250    51.2650
  3265.00     5.3550     5.5600     3.9500     3.2400     3.1500    36.9400    30.5200    49.4150    60.4100    58.1500
  3265.20     4.5700     4.7650     3.1850     2.7900     2.9450    40.8850    35.2100    60.2600    70.6650    62.2200
  3265.40     4.6950     4.7400     3.0150     2.5750     2.9200    33.3550    33.4500    61.1350    75.6500    64.9600
  3265.60     4.9950     5.0150     3.0650     2.4400     2.9250    30.7550    31.8800    62.2100    81.1350    66.3000
  3265.80     5.2750     5.4600     3.0100     2.3200     2.9000    26.9650    28.4550    62.9250    87.7200    67.0350
  3266.00     5.5000     5.8900     3.1100     2.2150     2.8850    26.1400    25.6850    58.0850    90.6050    65.4350
  3266.20     6.0700     6.1750     3.4600     2.3750     2.9950    23.6050    23.6050    50.1750    80.5750    61.1900
  3266.40     6.0100     6.2800     3.8050     2.6550     3.1650    24.6600    23.7000    47.3350    68.6950    56.1750
  3266.60     5.7450     6.0000     3.7850     2.8450     3.4050    26.5450    25.4150    47.0850    62.9300    51.2450
  3266.80     6.5900     6.4550     4.1800     3.3600     3.9000    22.0150    22.2250    39.9050    51.3400    43.9000
  3267.00     7.6300     7.4250     5.0700     4.2250     4.6350    17.6000    17.3050    29.6750    38.6700    34.6800
  3267.20     8.4850     8.4350     6.1700     5.2550     5.3950    14.4300    14.2800    22.7050    28.7850    27.8700
  3267.40     9.3950     9.8150     7.5000     6.3150     6.1450    12.4500    11.5150    17.2950    22.0600    23.3950
  3267.60    10.3750    11.2100     8.7550     7.2350     6.7900    10.8000     9.3500    13.7900    18.2500    20.2650
  3267.80    11.4500    12.9900     9.9450     8.0500     7.2350     9.3450     7.4250    11.4200    15.7550    18.7500
  3268.00    11.4100    13.7600    10.4300     8.3300     7.3050     9.6650     7.0700    10.9400    15.6000    19.2800
  3268.20    10.3150    12.8600     9.9700     7.8550     6.8300    11.5650     8.0550    11.9000    17.5100    21.6850
  3268.40     9.4900    12.0400     9.5050     7.3850     6.2550    12.6900     8.8650    12.6550    18.7050    23.8600
