~Version information
  VERS.                            1.20: CWLS LAS  -  VERSION 1.20
  WRAP.                              NO: One line per depth step
~Well information
# MNEM.UNIT
# ====.================================:===================
  STRT.M                        3148.00: First depth in file
  STOP.M                        3438.00: Last depth in file
  STEP.M                           0.20: Depth increment
  NULL.                            9999: Null values
  COMP.                         COMPANY: 
  WELL.                            WELL: 115 
  FLD .                           FIELD: íÌ§®≠·™†Ô
  CNTY.                          COUNTY: 
  STAT.                           STATE: 
  DATE.                        LOG DATE: 28-04-04
  SRVC.                 SERVICE COMPANY: 
  UWI.           Unique Well Identifier: 
~Parametr information block
# MNEM.UNIT
# ====.================================:===================
~Other information
# ------------------------- REMARKS  AREA ------------------
~Curve information
# MNEM.UNIT
# ====.================================:===================
  DEPT.M                               : Depth curve
IZ2.DEG                                : îÄáÄ1(ÉêÄÑ)
IZ3.DEG                                : îÄáÄ2(ÉêÄÑ)
IZ4.DEG                                : îÄáÄ3(ÉêÄÑ)
IZ5.DEG                                : îÄáÄ4(ÉêÄÑ)
IZ1.DEG                                : îÄáÄ5(ÉêÄÑ)
VIK1.OHMM                              : É0.4à0.1à(éåå)
VIK5.OHMM                              : É0.57à0.14à(éåå)
VIK4.OHMM                              : É0.8à0.2à(éåå)
VIK3.OHMM                              : É1.13à0.28à(éåå)
VIK2.OHMM                              : É1.6à0.4à(éåå)
~ASCII Log Data
# ...
  3295.40     8.3150     9.0450     6.9150     5.7950     5.5700    15.9450    13.6450    20.6950    26.0100    27.6100
  3295.60     8.2100     8.8100     6.6650     5.7200     5.5250    15.5550    13.9750    21.2550    25.9350    27.5550
  3295.80     8.6450     9.0550     6.7800     5.8350     5.6400    14.1600    13.3550    20.7250    25.6300    26.7350
  3296.00     9.1550     9.2950     6.8750     5.8800     5.7000    13.2650    12.9650    20.6100    25.9750    26.4750
  3296.20     9.3450     9.2750     6.7150     5.6550     5.6150    12.9150    13.0850    21.2850    27.4100    27.4150
  3296.40     9.5500     9.1750     6.5850     5.3550     5.4250    12.2650    13.1700    22.0550    29.3400    29.0300
  3296.60     9.4450     9.1300     6.4350     5.1450     5.1900    12.9150    13.5900    22.9700    31.4350    31.0900
  3296.80     9.0000     8.7850     6.1600     4.8500     4.9300    14.0000    14.4600    24.3350    33.9100    33.6250
  3297.00     8.6950     8.4300     5.9650     4.6550     4.6850    14.5000    15.1750    25.4200    35.7450    35.2600
  3297.20     8.3150     8.0950     5.7950     4.5850     4.5450    15.5950    16.2400    26.4350    36.4300    35.8550
  3297.40     8.1250     7.9100     5.6950     4.5850     4.5150    16.2850    16.6350    26.6650    36.2750    36.4050
  3297.60     8.5150     8.1900     5.8600     4.7650     4.6150    15.0750    15.5550    25.0050    34.0600    35.3350
  3297.80     8.9000     8.4250     6.1450     4.9950     4.7700    13.6000    14.8950    23.9000    31.8100    33.5250
  3298.00     9.0800     8.7650     6.3150     5.0700     4.8400    13.4550    14.3150    23.6200    31.8450    33.2000
  3298.20     9.2600     9.0200     6.3450     4.9950     4.8150    13.2050    13.5800    23.2750    32.3600    33.6900
  3298.40     9.2650     9.0800     6.3450     4.9250     4.8000    12.8750    13.2500    23.1400    32.3600    34.5150
  3298.60     9.1250     9.4250     6.4800     4.9300     4.7800    13.7950    12.7850    22.3600    31.9350    34.7350
  3298.80     8.9050     9.3900     6.5950     5.0200     4.8250    14.3050    12.8350    21.5100    31.2750    33.6700
  3299.00     8.9250     9.2700     6.7550     5.2700     4.9900    13.7000    12.8600    20.5750    29.2900    31.7350
  3299.20     9.5000     9.7850     7.1600     5.6550     5.2100    12.4100    11.8750    18.7550    26.5100    29.6750
  3299.40    10.3350    10.5350     7.6750     6.0650     5.5300    10.7550    10.5400    17.0050    24.1100    27.5850
  3299.60    10.8750    11.0600     8.0300     6.4000     5.7700    10.0500     9.7500    16.1000    22.4150    26.0150
  3299.80    10.9300    11.2150     8.1500     6.4550     5.8700    10.1250     9.6400    15.9600    22.0800    25.6300
  3300.00    10.6350    11.1750     8.1700     6.4100     5.8900    10.6500     9.7950    15.9200    22.3900    25.5450
  3300.20    10.4300    11.1150     8.1600     6.4600     5.8700    10.8850     9.8950    15.7700    22.2100    25.4750
  3300.40    10.3350    11.0300     8.1350     6.4800     5.8650    11.0350    10.0150    15.9350    22.1600    25.7200
  3300.60     9.9550    10.6700     7.9500     6.3950     5.8050    11.8850    10.6250    16.6350    22.9100    26.4550
  3300.80     9.2150    10.0000     7.5500     6.1400     5.6250    13.6750    11.9250    17.9250    24.2700    27.4000
  3301.00     8.8450     9.5350     7.2150     5.9700     5.4850    14.1400    12.5150    18.6650    24.9250    28.1150
  3301.20     9.3150     9.7300     7.2900     6.0900     5.5900    12.6950    11.8100    18.1200    24.1650    27.5200
  3301.40     9.6800    10.0250     7.4300     6.1900     5.7000    11.9800    11.5350    18.0300    23.9800    26.6350
  3301.60     9.9300    10.0650     7.3700     6.0350     5.6500    11.7000    11.5800    18.7650    24.9700    26.9600
  3301.80    10.0650     9.9700     7.1350     5.7450     5.5300    11.8600    11.7350    19.9200    26.7800    28.2300
  3302.00     9.5200     9.4500     6.6650     5.4700     5.3400    12.9950    12.9200    21.8450    29.2000    29.8300
  3302.20     8.6450     8.7850     6.2650     5.1850     5.1950    14.9050    14.4500    23.6600    31.0650    30.6450
  3302.40     7.6800     8.1550     5.9900     4.9800     5.1500    17.5700    16.1700    24.9800    32.1400    30.7850
  3302.60     7.6900     7.9000     6.0250     5.1150     5.2450    16.8750    16.3550    24.2400    30.5300    29.3200
  3302.80     8.5750     8.5650     6.6250     5.6450     5.6250    13.9700    14.4350    21.2600    26.5250    26.5600
  3303.00     9.4450     9.4900     7.2950     6.2150     6.1200    12.4300    12.4600    18.4950    23.1100    23.8250
  3303.20    10.7000    10.3650     7.9050     6.7550     6.5300    10.4700    10.6000    16.1400    20.4850    21.5450
  3303.40    11.5500    11.2500     8.5150     7.2100     6.8550     9.1700     9.2700    14.4950    18.8050    20.2950
  3303.60    11.4700    11.7850     8.8900     7.3000     6.9250     9.3100     8.8650    13.9400    18.6850    20.2600
  3303.80    11.5600    11.9200     8.9500     7.1400     6.7250     9.3050     8.8400    13.8100    19.3950    21.3300
  3304.00    11.3700    11.5250     8.6350     6.8700     6.4400     9.7050     9.4200    14.5750    20.6700    22.7750
  3304.20    10.5200    10.9200     8.1600     6.5650     6.1350    10.9200    10.3550    15.8400    21.9800    24.1150
  3304.40    10.0050    10.5250     8.0050     6.4950     6.0350    11.5150    10.7500    16.2100    21.9350    24.5150
  3304.60    10.2300    10.5500     8.3050     6.8200     6.2600    11.1800    10.2950    15.3600    20.2400    23.1900
  3304.80    10.7600    11.0450     8.7000     7.3100     6.6350    10.2200     9.5150    14.1450    18.1650    21.0800
  3305.00    10.6800    11.4850     8.9800     7.6350     6.9600    10.4900     9.3750    13.7150    17.3550    19.7850
  3305.20    10.5800    11.5650     8.9850     7.6650     7.1050    10.7300     9.2450    13.6850    17.3400    19.3650
  3305.40    11.0150    12.0000     9.1750     7.8000     7.1400     9.8650     8.5100    12.9650    16.9150    19.0600
  3305.60    11.4050    12.6750     9.6650     7.9750     7.2400     9.3800     7.8300    12.0900    16.4500    18.8050
  3305.80    11.6550    12.9950     9.9400     7.9650     7.2500     9.0050     7.5600    11.6250    16.4700    19.0750
  3306.00    11.6100    12.9300     9.7950     7.7650     6.9650     9.2750     7.8150    12.0400    17.3800    20.3800
  3306.20    10.9600    12.1150     9.1400     7.2000     6.5000    10.3750     8.8900    13.8950    19.5600    23.1100
  3306.40    10.0000    10.9900     8.2950     6.5050     5.9400    11.9750    10.3550    16.1550    22.6900    26.5800
  3306.60     9.1200    10.0300     7.4500     5.9250     5.4750    13.7350    11.9100    18.7350    26.1050    29.6650
  3306.80     8.9150     9.4050     6.8750     5.5600     5.2500    14.7850    12.9800    20.6600    28.1850    30.9100
  3307.00     8.3900     8.7100     6.4450     5.3900     5.1950    16.5200    14.7600    22.8550    29.5100    30.5800
  3307.20     7.2350     7.7650     5.8850     5.1900     5.1950    19.3800    17.5750    26.4400    30.7900    30.2550
  3307.40     7.1900     7.4200     5.6650     5.0900     5.2750    18.8600    18.1300    27.0650    30.9800    29.2650
  3307.60     8.0400     7.7300     5.8550     5.2650     5.5300    15.5450    16.7350    25.1850    29.7600    27.7200
  3307.80     8.4250     8.0450     6.0200     5.4300     5.8000    14.7700    15.8250    24.4850    28.3300    26.1100
  3308.00     8.2950     8.3250     6.3300     5.5700     6.0150    16.0000    15.0600    23.0050    27.1650    24.4850
  3308.20     8.1450     8.6850     6.8000     5.8400     6.2450    16.3300    13.8250    20.3250    25.2300    23.0750
  3308.40     8.4100     9.5000     7.6550     6.4950     6.5250    14.9600    11.9800    16.8750    21.4600    21.5400
  3308.60     8.9800    10.6700     8.8350     7.4550     6.9500    13.4350    10.2000    13.5300    17.4900    19.7550
