~Version information
  VERS.                            1.20: CWLS LAS  -  VERSION 1.20
  WRAP.                              NO: One line per depth step
~Well information
# MNEM.UNIT
# ====.================================:===================
  STRT.M                        3140.00: First depth in file
  STOP.M                        3450.00: Last depth in file
  STEP.M                           0.20: Depth increment
  NULL.                            9999: Null values
  COMP.                         COMPANY: 
  WELL.                            WELL: 115 
  FLD .                           FIELD: íùÑàçëäÄü
  CNTY.                          COUNTY: 
  STAT.                           STATE: 
  DATE.                        LOG DATE: 30-04-04
  SRVC.                 SERVICE COMPANY: 
  UWI.           Unique Well Identifier: 
~Parametr information block
# MNEM.UNIT
# ====.================================:===================
~Other information
# ------------------------- REMARKS  AREA ------------------
~Curve information
# MNEM.UNIT
# ====.================================:===================
  DEPT.M                               : Depth curve
GZ5.OHMM                               : äÄÜ. ëéèêéíàÇãÖçàÖ áéçÑÄ A8.0M1.0N
GZ4.OHMM                               : äÄÜ. ëéèêéíàÇãÖçàÖ áéçÑÄ A4.0M0.5N
GZ3.OHMM                               : äÄÜ. ëéèêéíàÇãÖçàÖ áéçÑÄ A2.0M0.5N
GZ2.OHMM                               : äÄÜ. ëéèêéíàÇãÖçàÖ áéçÑÄ A1.0M0.1N
GZ1.OHMM                               : äÄÜ.ëéèêéíàÇãÖçàÖ áéçÑÄ A0.4M0.1N
PZ.OHMM                                : äÄÜ.ëéèê.èé èéíÖçñàÄãáéçÑì Ä0.5å6.5N
RRB.OHMM                               : ëéèêéíàÇã.èêéåõÇéóç.ÜàÑäéëíà èÖêÇàó.
CALI.MM                                : ëìååÄêçõâ ÑàÄåÖíê äÄÇÖêçéåÖêÄ
CILA.MMHO                              : áéçÑ àä 7à1.6,Ääí.ëàÉçÄã/àä-è/Äàä-5
SP.MV                                  : ÖëíÖëíÇÖççÄü ëÄåéèéãüêàáÄñàü èé èë
BS.                                    : Ñ≠-216¨¨
GR.UR/H                                : ÖëíÖëíÇÖççÄü ÉÄååÄ-ÄäíàÇçéëíú èé Éä
GZB.OHMM                               : GZB
~ASCII Log Data
# ...
  3288.40   125.1564   114.9072    79.5021    35.3624    10.1280    34.2195     0.8550   211.3300    24.8993   219.8758   215.9000     1.2368    53.9013
  3288.60   122.2179   115.7555    79.1283    36.4935    10.5736    33.3418     0.8553   211.3636    24.3560   218.2393   215.9000     1.2496    52.6405
  3288.80   118.2926   113.1515    76.5248    36.4972    10.7044    32.3152     0.8602   212.0159    23.6732   216.0962   215.9000     1.1751    52.0267
  3289.00   112.3505   108.7158    72.8880    35.5884    10.4474    31.2512     0.8650   212.3047    23.7889   216.1392   215.9000     0.9858    52.1623
  3289.20   105.3355   103.2587    67.9064    34.3496    10.0761    30.4287     0.8652   212.3830    25.6821   217.3474   215.9000     0.9464    53.5151
  3289.40    97.9229    95.0150    63.6012    31.8629     9.3450    29.9100     0.8708   211.8257    27.8017   219.3129   215.9000     0.9941    56.1389
  3289.60    92.3905    88.7895    58.4315    30.1618     8.7615    29.9263     0.8853   212.0181    28.7664   219.6702   215.9000     1.0156    58.7439
  3289.80    87.8953    83.6948    55.7075    28.5128     8.4763    30.2693     0.8912   211.1014    29.8742   219.1880   215.9000     1.0048    60.3140
  3290.00    85.2384    80.1098    54.2876    27.2032     8.2942    30.9610     0.8958   211.3409    29.7721   217.4352   215.9000     0.9622    60.9311
  3290.20    83.3370    78.1102    54.2455    26.9661     8.3315    31.7753     0.8915   210.9919    28.3967   215.1553   215.9000     0.9293    60.6479
  3290.40    82.4287    77.7042    54.7453    27.4859     8.6457    32.4763     0.9010   210.2130    26.6934   214.5803   215.9000     0.9377    58.7561
  3290.60    82.1214    77.1186    55.8007    28.7227     9.0326    33.0619     0.9018   210.6552    24.7315   211.9583   215.9000     1.0115    56.6672
  3290.80    81.4044    76.7565    56.6737    29.9947     9.3235    33.2418     0.9159   211.1515    23.7320   214.5172   215.9000     1.0807    54.4085
  3291.00    80.5659    76.8670    57.5402    32.3036     9.9316    33.0674     0.9135   211.4807    22.9874   216.9878   215.9000     1.1381    52.4886
  3291.20    79.5555    76.2084    58.2424    33.3394    10.1156    32.6814     0.9036   211.3925    23.3301   213.2346   215.9000     1.2575    50.8270
  3291.40    77.9937    74.7742    58.1344    34.0111    10.1514    32.0380     0.8954   210.8733    24.3153   211.4628   215.9000     1.3046    50.0851
  3291.60    76.2101    72.2217    57.7555    33.6365     9.9050    31.5727     0.8850   210.5150    25.4047   214.8173   215.9000     1.2935    50.0292
  3291.80    74.0909    70.5079    57.6623    33.3626     9.7766    31.0217     0.8846   209.4131    27.2318   215.4216   215.9000     1.2283    49.6184
  3292.00    71.9460    69.0100    58.2664    33.7240     9.8441    30.3865     0.8780   210.1568    27.4411   215.2239   215.9000     1.2535    48.9689
  3292.20    69.7518    67.5476    58.7889    33.0717     9.8161    29.9567     0.8784   210.4625    28.2595   214.4629   215.9000     1.2849    49.2279
  3292.40    67.3178    65.6409    58.0355    31.8074     9.6066    29.5417     0.8848   209.4536    29.0865   214.0415   215.9000     1.3415    51.0237
  3292.60    65.0929    63.3549    57.0636    30.5866     9.2119    29.3342     0.8800   209.2997    31.2782   212.5702   215.9000     1.3683    53.1814
  3292.80    63.2535    60.9927    56.0438    29.9821     9.0520    29.0910     0.8807   210.4951    31.6195   212.7256   215.9000     1.3161    55.3763
  3293.00    61.8437    59.0382    55.1912    29.4521     8.9585    29.0910     0.8940   210.5977    32.6705   214.8572   215.9000     1.3183    56.9216
  3293.20    60.8530    57.6772    54.5242    29.0877     9.0110    29.0910     0.8938   211.0440    33.2352   214.2670   215.9000     1.3041    57.7186
  3293.40    60.5194    56.2699    53.6205    28.9932     9.1045    29.0901     0.8915   210.9825    31.5518   212.2692   215.9000     1.2606    58.6367
  3293.60    59.9550    55.4129    52.5731    28.7464     9.0570    29.0697     0.8991   211.2927    32.3314   210.4017   215.9000     1.0933    60.0861
  3293.80    59.5540    54.6439    51.1938    28.6635     9.0511    28.9932     0.8637   211.8827    32.0495   210.0182   215.9000     0.9694    61.8553
  3294.00    59.1291    53.7124    49.7369    27.9795     8.9241    29.1049     0.8781   210.5767    31.9234   213.2915   215.9000     1.0583    64.6265
  3294.20    59.0205    52.6363    47.6457    27.0556     8.6252    29.3948     0.8791   211.1972    31.0722   213.3590   215.9000     1.1612    68.9995
  3294.40    59.1071    52.2841    45.7819    26.2416     8.3322    29.9318     0.8641   211.9342    29.5855   214.4311   215.9000     1.1998    73.0609
  3294.60    59.5202    52.3584    44.4217    25.3378     8.0836    30.8830     0.8848   212.5392    29.7725   213.7895   215.9000     1.1344    77.6199
  3294.80    60.5232    53.0885    44.6739    24.9880     8.0151    32.1140     0.8800   213.1077    29.5075   212.3971   215.9000     1.0247    80.0519
  3295.00    61.1182    54.6241    46.0513    26.0508     8.3288    33.1695     0.8800   212.6451    28.4739   212.4039   215.9000     0.9414    77.7776
  3295.20    61.5298    56.2523    47.7815    27.5321     8.8566    34.1383     0.8795   212.6391    25.5921   211.1002   215.9000     0.9003    75.3115
  3295.40    61.6952    57.1934    49.2018    28.7397     9.2002    34.6758     0.8695   212.5034    24.8492   211.9685   215.9000     1.0461    73.6808
  3295.60    61.6708    57.6097    50.4111    30.0292     9.3767    35.0397     0.8586   212.4259    21.4827   211.4673   215.9000     1.1822    72.8319
  3295.80    61.4860    57.4432    51.0850    30.8447     9.4052    35.1954     0.8507   212.2345    20.9612   212.2641   215.9000     1.1954    73.0926
  3296.00    61.3069    57.2584    51.1952    31.0799     9.3158    35.4021     0.8451   212.2451    20.9764   213.2256   215.9000     1.0032    74.5083
  3296.20    61.5201    56.8919    51.1067    30.2456     8.9798    35.9686     0.8467   212.2357    22.3050   213.7413   215.9000     0.8173    75.1814
  3296.40    61.9976    56.6548    51.2235    29.9350     8.8050    36.6185     0.8405   212.0284    22.9440   212.7883   215.9000     0.8292    74.7745
  3296.60    62.3909    57.3103    52.2593    29.9331     8.8034    37.6132     0.8504   212.1660    24.1933   211.5475   215.9000     0.9327    72.8134
  3296.80    63.1829    59.1559    55.0056    29.9957     8.8001    38.6725     0.8573   212.4972    22.9997   212.0971   215.9000     1.0186    68.6514
  3297.00    63.8411    62.1647    59.7487    32.0458     9.3931    39.2320     0.8446   212.6648    22.1609   213.4055   215.9000     0.9506    63.1990
  3297.20    64.0900    65.6936    65.7182    35.4455    10.5386    39.1705     0.8344   212.5546    21.1580   214.7732   215.9000     0.8698    59.0157
  3297.40    64.0775    68.2598    69.2007    37.3296    10.9564    37.9559     0.8028   212.6930    21.2969   214.7780   215.9000     0.9092    57.1207
  3297.60    63.7941    68.7663    70.2969    37.8967    10.6925    37.0493     0.7985   212.5850    21.7967   211.6294   215.9000     0.9946    56.5797
  3297.80    62.8772    68.7255    69.8883    37.6173    10.2410    36.4440     0.7887   212.3430    21.9865   213.2526   215.9000     1.1020    56.4734
  3298.00    62.0147    68.5974    69.3932    37.0942    10.1305    35.9971     0.7835   212.4330    22.6297   214.3854   215.9000     1.1400    55.9781
  3298.20    61.4219    69.3263    69.6945    36.8339    10.1899    35.3937     0.7749   212.2731    25.8320   215.1179   215.9000     1.1399    55.4091
  3298.40    61.0871    71.2359    71.0951    37.2089    10.4175    34.6882     0.7738   211.3717    23.0119   215.1635   215.9000     1.1351    54.9824
  3298.60    60.8705    73.5889    72.6879    36.8079    10.4700    33.9670     0.7690   211.2119    25.3116   215.1282   215.9000     1.0799    54.0392
  3298.80    60.3066    75.7663    74.3809    36.7589    10.5584    33.1470     0.7689   211.5165    23.9457   217.5850   215.9000     1.0551    53.6630
