~Version information
  VERS.                            1.20: CWLS LAS  -  VERSION 1.20
  WRAP.                              NO: One line per depth step
~Well information
# MNEM.UNIT
# ====.================================:===================
  STRT.M                        3140.00: First depth in file
  STOP.M                        3450.00: Last depth in file
  STEP.M                           0.20: Depth increment
  NULL.                            9999: Null values
  COMP.                         COMPANY: 
  WELL.                            WELL: 115 
  FLD .                           FIELD: íùÑàçëäÄü
  CNTY.                          COUNTY: 
  STAT.                           STATE: 
  DATE.                        LOG DATE: 30-04-04
  SRVC.                 SERVICE COMPANY: 
  UWI.           Unique Well Identifier: 
~Parametr information block
# MNEM.UNIT
# ====.================================:===================
~Other information
# ------------------------- REMARKS  AREA ------------------
~Curve information
# MNEM.UNIT
# ====.================================:===================
  DEPT.M                               : Depth curve
GZ5.OHMM                               : äÄÜ. ëéèêéíàÇãÖçàÖ áéçÑÄ A8.0M1.0N
GZ4.OHMM                               : äÄÜ. ëéèêéíàÇãÖçàÖ áéçÑÄ A4.0M0.5N
GZ3.OHMM                               : äÄÜ. ëéèêéíàÇãÖçàÖ áéçÑÄ A2.0M0.5N
GZ2.OHMM                               : äÄÜ. ëéèêéíàÇãÖçàÖ áéçÑÄ A1.0M0.1N
GZ1.OHMM                               : äÄÜ.ëéèêéíàÇãÖçàÖ áéçÑÄ A0.4M0.1N
PZ.OHMM                                : äÄÜ.ëéèê.èé èéíÖçñàÄãáéçÑì Ä0.5å6.5N
RRB.OHMM                               : ëéèêéíàÇã.èêéåõÇéóç.ÜàÑäéëíà èÖêÇàó.
CALI.MM                                : ëìååÄêçõâ ÑàÄåÖíê äÄÇÖêçéåÖêÄ
CILA.MMHO                              : áéçÑ àä 7à1.6,Ääí.ëàÉçÄã/àä-è/Äàä-5
SP.MV                                  : ÖëíÖëíÇÖççÄü ëÄåéèéãüêàáÄñàü èé èë
BS.                                    : Ñ≠-216¨¨
GR.UR/H                                : ÖëíÖëíÇÖççÄü ÉÄååÄ-ÄäíàÇçéëíú èé Éä
GZB.OHMM                               : GZB
~ASCII Log Data
# ...
  3330.80    58.2941    48.4536    55.3059    27.5717     7.9023    55.4051     0.7580   210.5561    14.4681   258.0735   215.9000     0.8000   128.8620
  3331.00    58.1149    52.4449    59.0634    29.3312     8.3635    58.2367     0.7563   212.8326    11.3514   260.0387   215.9000     0.7650   114.1169
  3331.20    58.3433    56.9049    62.1614    32.6392     9.0642    60.4389     0.7431   220.8306    11.9011   258.5015   215.9000     0.8400    98.5855
  3331.40    59.1678    63.1192    67.5095    34.7213     9.2576    61.6242     0.7461   217.0762     9.7072   257.6340   215.9000     1.2168    84.9961
  3331.60    60.7174    72.9208    75.7561    40.6123    10.4009    62.0728     0.7482   218.6205    12.6046   258.8541   215.9000     1.5156    75.3764
  3331.80    61.7644    87.2704    88.4277    47.6804    11.7505    60.6684     0.7508   221.5056    16.3612   262.8777   215.9000     1.4707    69.1711
  3332.00    62.7766   102.4660    99.6969    53.4496    12.8902    58.8773     0.7480   214.3932    17.2460   262.4059   215.9000     1.1287    63.4986
  3332.20    63.0408   113.7837   110.0026    55.0345    13.0708    56.7402     0.7480   213.6332    19.2652   262.6301   215.9000     0.8959    57.9179
  3332.40    61.9755   121.1492   117.7943    56.0195    13.1753    54.5657     0.7480   212.4399    21.3861   263.4249   215.9000     0.9115    52.1671
  3332.60    60.1093   126.4099   125.4676    55.3516    13.0375    52.4232     0.7479   212.0909    25.2085   265.1643   215.9000     0.8974    47.4615
  3332.80    58.2967   130.9109   131.3996    54.3702    12.8401    49.9619     0.7441   212.0513    26.8068   266.2498   215.9000     0.8224    44.2037
  3333.00    56.1517   136.2177   137.2507    54.3383    12.8954    47.3845     0.7290   213.5784    29.7127   268.7758   215.9000     0.7099    42.3491
  3333.20    54.0005   141.5085   141.3631    55.0592    13.1605    44.5489     0.7478   214.4881    32.8704   269.6003   215.9000     0.5953    41.5242
  3333.40    51.7551   143.5576   140.9995    53.6844    12.9423    42.3459     0.7430   210.3815    36.8890   270.8958   215.9000     0.6215    41.3262
  3333.60    49.6186   143.0079   135.9436    50.5074    12.2138    40.1422     0.7432   211.3866    41.7264   270.9738   215.9000     0.6492    41.0634
  3333.80    47.5098   144.1139   130.5293    48.4726    11.9863    37.9138     0.7479   211.1765    43.7393   273.3041   215.9000     0.6528    39.8952
  3334.00    45.7776   148.5152   127.6812    48.3163    12.0935    35.8352     0.7459   211.3161    43.8197   273.9764   215.9000     0.6496    38.0702
  3334.20    44.6106   154.7883   125.5732    48.6704    12.5740    33.4689     0.7440   211.5609    41.7336   274.5623   215.9000     0.6445    36.5205
  3334.40    43.0214   159.0574   121.1203    47.5609    12.4628    30.9020     0.7435   210.7871    36.9622   276.8563   215.9000     0.6679    36.3385
  3334.60    40.5844   157.1557   112.3364    44.8691    12.1125    28.2913     0.7528   211.2939    38.9506   276.3773   215.9000     0.5820    38.0570
  3334.80    37.3013   144.4655    98.9946    39.9873    10.8413    26.6729     0.7485   211.4971    40.3389   277.9436   215.9000     0.4464    43.6789
  3335.00    34.2133   125.7385    82.2327    33.6186     9.1938    25.7764     0.7580   211.4452    43.6549   277.2388   215.9000     0.4198    47.6297
  3335.20    31.2603   110.1142    69.3059    29.0145     8.1197    25.7566     0.7575   211.5343    48.2749   276.2451   215.9000     0.5164    48.2565
  3335.40    29.1262   101.9674    62.2872    27.1994     8.0145    26.3331     0.7483   211.7148    49.1708   276.2338   215.9000     0.6381    46.0695
  3335.60    28.1921    97.0645    59.1689    26.4717     8.3069    26.9772     0.7535   211.8212    44.0181   276.9768   215.9000     0.6338    43.5403
  3335.80    28.4505    92.3426    56.8156    26.2414     8.6397    27.2470     0.7627   212.4185    40.1585   275.8465   215.9000     0.5317    40.6500
  3336.00    29.0534    87.8135    54.9955    26.7078     8.8860    27.2470     0.7752   211.7700    35.8068   279.7795   215.9000     0.4690    37.8512
  3336.20    29.9057    83.6618    53.3465    27.5331     8.9898    27.2367     0.7786   211.1990    36.7880   281.4415   215.9000     0.4891    35.5179
  3336.40    30.7892    79.8411    51.6693    28.4733     9.1494    27.0369     0.7721   211.2066    38.5985   281.7858   215.9000     0.5308    34.0458
  3336.60    31.1133    75.7088    49.4569    28.5785     8.9959    26.9357     0.7742   211.4329    40.0017   281.6166   215.9000     0.5877    33.1227
  3336.80    31.4424    71.7322    47.3708    28.3150     8.8092    26.8438     0.7803   212.9770    44.2917   280.7246   215.9000     0.6384    32.1943
  3337.00    31.8337    68.7059    46.7924    28.9762     8.9113    26.6408     0.8042   212.3644    48.1309   282.8032   215.9000     0.6039    30.8475
  3337.20    31.9073    66.6636    47.9295    30.4058     9.3585    26.4154     0.8066   211.9350    52.0102   284.8984   215.9000     0.5233    29.2978
  3337.40    31.9800    64.9146    50.3152    31.4801     9.8259    25.4009     0.8005   212.2655    54.9079   285.2823   215.9000     0.4764    28.1993
  3337.60    32.1700    61.9872    51.4634    31.3964     9.8557    24.3299     0.8291   211.6739    60.3153   285.3159   215.9000     0.5856    28.3592
  3337.80    32.1571    58.6966    51.9621    31.2911     9.7716    23.1012     0.8297   211.0652    65.3398   287.3398   215.9000     0.7128    28.7903
  3338.00    31.8809    55.9223    52.6190    32.7556    10.0863    21.7623     0.8240   211.0587    74.0408   288.2845   215.9000     0.7654    29.4087
  3338.20    31.2510    53.6740    52.3018    32.2789    10.0637    20.3616     0.8242   210.4641    80.7259   288.2644   215.9000     0.7307    31.1194
  3338.40    30.8172    49.1816    50.0198    30.1051     9.4824    19.2598     0.8259   210.0668    83.4595   288.1179   215.9000     0.6694    34.7015
  3338.60    29.7258    43.3400    45.8475    27.3104     8.6153    18.6616     0.8041   209.7248    87.4883   289.4659   215.9000     0.7013    38.9098
  3338.80    28.7355    38.0354    41.1954    23.8738     7.8745    18.5547     0.8052   210.4867    95.4794   288.5056   215.9000     0.7884    43.0532
  3339.00    27.6382    33.8447    37.6806    21.5590     7.4029    18.8586     0.8088   209.5460    99.9386   290.5199   215.9000     0.8940    46.1105
  3339.20    26.8046    31.2917    35.3009    20.6349     7.3024    19.3750     0.8058   209.8471   100.1074   291.0039   215.9000     0.9518    47.4832
  3339.40    26.4112    30.5215    33.4571    20.7299     7.5872    19.9806     0.8017   210.1817    93.8998   290.8874   215.9000     0.9675    48.1862
  3339.60    26.3035    29.9915    31.5544    19.9735     7.7733    20.7090     0.7957   210.6770    82.8880   291.7039   215.9000     0.9506    50.0946
  3339.80    26.3426    28.7220    29.2428    18.6724     7.2761    21.7372     0.7891   209.7383    73.1878   293.7394   215.9000     0.8196    53.1811
  3340.00    26.1890    27.5380    27.7767    19.0806     7.0977    22.9585     0.7922   210.3710    69.6888   294.2176   215.9000     0.6568    55.3516
  3340.20    26.2990    27.4490    27.4165    20.2260     7.3038    24.5002     0.7964   211.3662    68.9703   294.3028   215.9000     0.5998    56.1993
  3340.40    26.6089    27.5570    27.5900    21.2388     7.7031    25.8780     0.8038   210.0190    68.6029   291.0188   215.9000     0.6793    57.6304
  3340.60    27.0970    27.8530    28.6753    21.8813     7.8528    27.1012     0.7990   209.3212    65.6097   290.7730   215.9000     0.7998    57.1738
  3340.80    27.3920    28.8486    31.0364    24.9779     8.9080    27.5728     0.7998   210.8112    67.6085   290.6409   215.9000     0.8378    55.1371
  3341.00    27.5710    30.1085    34.0340    28.9397     9.9105    27.4044     0.8125   210.2509    66.9292   292.8889   215.9000     0.8980    53.7781
  3341.20    27.3545    30.6891    36.4216    30.6268    10.1941    26.7862     0.7835   211.4299    64.6586   294.0773   215.9000     1.0153    55.2091
