~Version Information
#-------------------
Vers.        2.0: CWLS log ASCII Standart - VERSION 2.0
WRAP.         NO: One line per depth step
~Well Information Block
#----------------------
#MNEM.UNIT  VALUE: DESCRIPTION
#----.---- -------: -------------
STRT.M     90.00: 
STOP.M    460.00: 
STEP.M      0.20:  
NULL.  -9999.990:  
COMP.           : 
WELL.           : 115
FLD .           : Тэдинская
LOC .           : 
CNTY.           : 
SRVC.           : 
DATE.           : 21-03-04
UWI .           : 
~Parameter Information
#---------------------
#MNEM.UNIT  VALUE: DESCRIPTION
#----.---- -------: ---------------
~Curve Information Block
#-----------------------
#MNEM.UNIT       : CURVE DESCRIPTION
#----.----       : -----------------
DEPT.M          : 
Aя  .           : Амплитуда - волна по колонне 
Tя  .мкс        : Время пробега - волна по породе
Aъ  .           : Амплитуда - волна по породе
DK  .дБ         : Затухание
akz .           : контакт цемент-колонна
~Other Information
#-----------------
~Ascii Log Data
        90  -9999.990  -9999.990          0     62.292  -9999.990 
      90.2  -9999.990  -9999.990          0     62.292  -9999.990 
      90.4  -9999.990  -9999.990          0     62.292  -9999.990 
      90.6  -9999.990  -9999.990          0     62.292  -9999.990 
      90.8  -9999.990  -9999.990          0     62.292  -9999.990 
        91  -9999.990  -9999.990          0     62.292  -9999.990 
      91.2  -9999.990  -9999.990          0     62.292  -9999.990 
      91.4  -9999.990  -9999.990          0     62.292  -9999.990 
      91.6  -9999.990  -9999.990          0     62.292  -9999.990 
      91.8  -9999.990  -9999.990          0     62.292  -9999.990 
        92  -9999.990  -9999.990          0     62.292  -9999.990 
      92.2  -9999.990  -9999.990          0     62.292  -9999.990 
      92.4  -9999.990  -9999.990          0     62.292  -9999.990 
      92.6  -9999.990  -9999.990     22.683     41.868  -9999.990 
      92.8  -9999.990  -9999.990     11.342      52.08  -9999.990 
        93  -9999.990  -9999.990          0     62.292  -9999.990 
      93.2  -9999.990  -9999.990          0     62.292  -9999.990 
      93.4  -9999.990  -9999.990          0     62.292  -9999.990 
      93.6     17.123  -9999.990          0     62.292  -9999.990 
      93.8     17.123  -9999.990          0     62.292  -9999.990 
        94     20.548  -9999.990          0     62.292  -9999.990 
      94.2     20.548  -9999.990          0     62.292  -9999.990 
      94.4     10.274   1795.206          0     62.292  -9999.990 
      94.6     10.274       1800          0     62.292  -9999.990 
      94.8     10.274       1800          0     62.292  -9999.990 
        95     10.274  -9999.990          0     62.292  -9999.990 
      95.2     10.274  -9999.990      13.25     57.187  -9999.990 
      95.4     17.123  -9999.990     35.917     36.768  -9999.990 
      95.6     23.973   1795.206     11.333     52.082  -9999.990 
      95.8     37.671   1795.206          0     62.292  -9999.990 
        96     41.096   1795.206          0     62.292  -9999.990 
      96.2     47.945   1795.206          0     62.292  -9999.990 
      96.4     53.654   1795.206          0     62.292  -9999.990 
      96.6      62.92       1800          0     62.292  -9999.990 
      96.8     62.497       1800          0     62.292  -9999.990 
        97     45.951       1800          0     62.292  -9999.990 
      97.2      40.21       1800          0     62.292  -9999.990 
      97.4     34.644       1800          0     62.292  -9999.990 
      97.6     24.405       1800          0     62.292  -9999.990 
      97.8     24.366       1800          0     62.292  -9999.990 
        98     20.637       1800          0     62.292  -9999.990 
      98.2     36.137   1795.206          0     62.292  -9999.990 
      98.4     63.095   1795.206          0     62.292  -9999.990 
      98.6     54.087   1795.206       27.5     40.753  -9999.990 
      98.8     35.477   1795.206      13.75     51.523  -9999.990 
        99      39.35   1795.206          0     62.292  -9999.990 
      99.2     32.989   1795.206          0     62.292  -9999.990 
      99.4     11.843   1795.206          0     62.292  -9999.990 
      99.6      4.849   1795.206          0     62.292  -9999.990 
      99.8     13.805   1795.206      0.208     61.969  -9999.990 
       100     13.805   1795.206      1.042     60.677  -9999.990 
     100.2      4.217   1795.206      0.417     61.646  -9999.990 
     100.4     11.357   1790.411          0     62.292  -9999.990 
     100.6     36.725   1790.411          0     62.292  -9999.990 
     100.8      48.56   1790.411          0     62.292  -9999.990 
       101     43.321       1800          0     62.292  -9999.990 
     101.2     48.982   1795.206          0     62.292  -9999.990 
     101.4      62.01   1790.411          0     62.292  -9999.990 
     101.6     67.662   1790.411      7.417     62.292  -9999.990 
     101.8     56.662   1785.616          0     62.292  -9999.990 
       102     46.298   1785.616          0     62.292  -9999.990 
     102.2     59.319   1766.666          0     62.292  -9999.990 
     102.4     82.169   1753.286          0     62.292  -9999.990 
     102.6     94.267   1741.804     18.083     43.181  -9999.990 
     102.8     89.205   1719.896      9.042     52.736  -9999.990 
       103     84.026   1706.151          0     62.292  -9999.990 
     103.2     82.051   1695.933          0     62.292  -9999.990 
     103.4     72.892   1687.231          0     62.292  -9999.990 
     103.6     58.536   1681.649          0     62.292  -9999.990 
     103.8     50.171     1680.3      5.358     54.251  -9999.990 
       104     50.608   1674.933     10.717      46.21  -9999.990 
     104.2     54.246   1678.667          0     62.292  -9999.990 
     104.4     56.832     1680.5          0     62.292  -9999.990 
     104.6     54.468    1677.19          0     62.292  -9999.990 
     104.8     52.314   1672.746          0     62.292  -9999.990 
       105     55.755   1667.667          0     62.292  -9999.990 
     105.2     58.563   1668.778          0     62.292  -9999.990 
     105.4     52.517   1662.667          0     62.292  -9999.990 
     105.6     38.397     1653.5          0     62.292  -9999.990 
     105.8     35.272    1647.19      0.673      60.26  -9999.990 
       106     45.517   1644.492      1.345     58.227  -9999.990 
     106.2     50.889   1630.333          0     62.292  -9999.990 
     106.4     44.037   1614.556          0     62.292  -9999.990 
     106.6      35.02   1596.155          0     62.292  -9999.990 
     106.8     30.028     1584.6          0     62.292  -9999.990 
       107     41.096   1569.964          0     62.292  -9999.990 
     107.2     37.671   1558.828          0     62.292  -9999.990 
     107.4     34.247   1556.719          0     62.292  -9999.990 
     107.6     34.247   1556.719          0     62.292  -9999.990 
     107.8     37.671   1554.609          0     62.292  -9999.990 
       108     37.671   1548.281          0     62.292  -9999.990 
     108.2     41.096   1544.063          0     62.292  -9999.990 
     108.4     41.096   1541.599          0     62.292  -9999.990 
     108.6     41.096   1542.667          0     62.292  -9999.990 
     108.8      71.49   1548.878          0     62.292  -9999.990 
       109      66.87   1556.456          0     62.292  -9999.990 
     109.2     58.555   1555.867          0     62.292  -9999.990 
     109.4     48.979   1551.533          0     62.292  -9999.990 
     109.6     37.871   1551.997          0     62.292  -9999.990 
     109.8     37.671     1552.5          0     62.292          4 
       110     37.671   1550.391          0     62.292          4 
     110.2     37.671   1541.953          0     62.292          4 
     110.4     34.247   1525.078          0     62.292          4 
     110.6     34.247   1512.422          0     62.292          4 
     110.8    128.549   1508.203          0     62.292          4 
       111    130.524   1516.641          0     62.292          4 
     111.2    133.706   1525.078     19.014     50.584          4 
     111.4    144.088   1531.406     38.028     38.876          4 
     111.6    162.905   1531.406          0     62.292          4 
     111.8    171.505   1525.078          0     62.292          4 
       112    179.433    1518.75          0     62.292          4 
     112.2    188.252    1518.75          0     62.292          4 
     112.4    183.285   1521.286          0     62.292          4 
     112.6    163.546   1524.397     18.342     46.292          4 
     112.8     153.32     1526.4     33.333     39.639          4 
       113    148.491   1528.148          0     62.292          4 
     113.2    144.561   1531.406         16     51.084          4 
     113.4     175.82   1529.297     32.339     39.824          4 
     113.6    208.503   1525.078      0.679      62.19          4 
     113.8     194.93   1516.641          0     62.292          4 
