~Version information
  VERS.                            1.20: CWLS LAS  -  VERSION 1.20
  WRAP.                              NO: One line per depth step
~Well information
# MNEM.UNIT
# ====.================================:===================
  STRT.M                        3140.00: First depth in file
  STOP.M                        3450.00: Last depth in file
  STEP.M                           0.20: Depth increment
  NULL.                            9999: Null values
  COMP.                         COMPANY: 
  WELL.                            WELL: 115 
  FLD .                           FIELD: íùÑàçëäÄü
  CNTY.                          COUNTY: 
  STAT.                           STATE: 
  DATE.                        LOG DATE: 30-04-04
  SRVC.                 SERVICE COMPANY: 
  UWI.           Unique Well Identifier: 
~Parametr information block
# MNEM.UNIT
# ====.================================:===================
~Other information
# ------------------------- REMARKS  AREA ------------------
~Curve information
# MNEM.UNIT
# ====.================================:===================
  DEPT.M                               : Depth curve
MINV.OHMM                              : äÄÜ.ëéèê.èé åàäêéÉêÄÑàÖçí áéçÑì
MNOR.OHMM                              : äÄÜ.ëéèêéíàÇãÖçàÖ å/èéíÖçñàÄã áéçÑÄ
MLL.OHMM                               : äÄÜ.ëéèê/åàäêéÅéäéÇéâ äÄêéíÄÜ/åä-ìñ
MCAL.MM                                : ÑàÄåÖíê äÄÇÖêçéåÖêÄ åä-ìñ
LL3.OHMM                               : äÄÜ.ëéèêéíàÇãÖçàÖ áéçÑÄ Åä-3 /ÄÅäí
CILA.MMHO                              : áéçÑ àä 7à1.6,Ääí.ëàÉçÄã/àä-è/Äàä-5
BS.                                    : Ñ≠Æ¨=215,9¨¨
GR.UR/H                                : ÖëíÖëíÇÖççÄü ÉÄååÄ-ÄäíàÇçéëíú èé Éä
~ASCII Log Data
# ...
  3222.00     4.7020     3.6970    39.5400   214.5000   593.8158    10.0188   215.9000     2.4274
  3222.20     5.4610     4.0990    16.8970   214.5000   187.0060     9.7449   215.9000     2.5252
  3222.40     5.9210     3.4870    13.6950   214.5000   126.6354     9.6925   215.9000     2.4158
  3222.60     4.8280     3.5170    11.8030   214.5000   119.0161     9.8592   215.9000     2.0774
  3222.80     4.4990     3.6680    14.3730   214.5000   161.1951    10.6988   215.9000     1.8619
  3223.00     5.0770     4.0010    23.2040   214.5000   261.0283    11.0185   215.9000     1.9724
  3223.20     5.0300     4.0970    15.2450   214.5000   166.6935    10.3260   215.9000     2.3189
  3223.40     4.1730     3.3530    11.6150   214.5000   117.1875    10.7034   215.9000     2.6373
  3223.60     5.1000     3.8250    15.6500   214.5000   158.8147    11.0379   215.9000     2.5884
  3223.80     5.0810     3.4310    19.3850   214.5000   149.2518    11.5025   215.9000     2.2385
  3224.00     4.4610     3.4750    15.3370   214.1000   179.2710    12.0467   215.9000     1.9411
  3224.20     5.5030     3.9360    18.4430   213.5000   227.1642    11.7102   215.9000     1.8687
  3224.40     5.1390     3.7990    18.5480   213.5000   481.2683    11.5649   215.9000     1.8966
  3224.60     5.0070     3.9390    21.7120   213.5000   914.9715    11.6359   215.9000     1.8064
  3224.80     6.7590     4.3680    19.7340   213.5000   376.3069    11.6108   215.9000     1.6741
  3225.00     5.7720     2.9870    10.4270   214.2000    78.9679    12.3382   215.9000     1.5334
  3225.20     4.1430     3.1990     8.7320   214.1260    75.9100    14.0054   215.9000     1.3433
  3225.40     4.9480     3.2430    11.3900   214.5000    74.4129    15.0127   215.9000     1.2048
  3225.60     3.8990     3.1420     8.7900   214.5000    66.2212    16.3300   215.9000     1.3637
  3225.80     4.1220     3.0830     9.0600   214.5000    81.4531    16.1637   215.9000     1.9439
  3226.00     4.4550     3.4910    11.8290   214.5000    95.6676    15.5075   215.9000     2.6298
  3226.20     5.0150     3.3800    13.1770   214.5000    68.8925    14.6699   215.9000     3.0846
  3226.40     4.3490     3.2100    11.2900   214.5000    88.6292    14.0845   215.9000     3.1449
  3226.60     3.8290     3.4360    15.5390   214.5000    92.0042    13.4474   215.9000     3.0052
  3226.80     3.9130     3.3270    12.6940   214.5000    89.0367    12.9926   215.9000     2.9162
  3227.00     4.7460     3.1560    17.8520   214.5000   154.8431    11.7052   215.9000     2.9385
  3227.20     4.3000     3.6570    23.7630   214.5000   318.8793     9.7313   215.9000     2.8990
  3227.40     4.8680     3.5830    28.0850   214.5000   219.2728     8.9206   215.9000     2.6549
  3227.60     5.7030     3.4270    30.1870   214.5000    91.2074     8.1861   215.9000     2.3362
  3227.80     5.2630     3.6830    27.1390   214.5000   337.1913     7.6949   215.9000     2.0819
  3228.00     5.1260     4.0460    27.3770   214.5000  1022.4984     6.9199   215.9000     1.8720
  3228.20     6.0140     3.9270    27.5170   214.5000  1951.7528     5.9040   215.9000     1.8966
  3228.40     5.2130     4.0420    28.7460   214.5000  1043.1903     5.3481   215.9000     2.0216
  3228.60     5.7040     3.8130    26.9900   214.5000   382.5932     4.1866   215.9000     2.0001
  3228.80     5.5300     3.3410    17.8480   214.5000   423.7768     4.8014   215.9000     1.7195
  3229.00     5.2860     3.8250    27.7900   213.7000   687.2048     4.3361   215.9000     1.4083
  3229.20     6.2550     3.9500    23.6940   213.5750   710.6447     4.3854   215.9000     1.4661
  3229.40     6.4000     3.8480    18.8820   213.5000  1724.9269     4.2239   215.9000     1.7508
  3229.60     6.3050     3.9580    21.4220   214.2280  1021.7473     4.2172   215.9000     2.0851
  3229.80     8.5800     4.4660    18.9800   214.5000   571.1870     3.7530   215.9000     2.3709
  3230.00     5.9050     4.6500    17.4410   214.5000   301.9099     3.9249   215.9000     2.3382
  3230.20     7.3070     4.1130    21.1140   214.5000   775.5419     4.3061   215.9000     2.1180
  3230.40     7.1080     4.1510    23.4410   214.5000  1139.0649     4.3602   215.9000     1.8451
  3230.60     6.8010     4.1220    19.5770   214.5000   418.5117     4.2319   215.9000     1.7111
  3230.80     4.8330     3.9390    16.9590   214.5000   360.1260     3.9053   215.9000     1.6284
  3231.00     5.5910     3.5570    21.2960   214.5000  1660.4945     4.2387   215.9000     1.4811
  3231.20     5.2010     4.0060    17.5150   213.8630  3012.6482     4.3162   215.9000     1.4338
  3231.40     7.7510     4.0500    20.0520   214.5000  2753.5085     4.0757   215.9000     1.6098
  3231.60     6.6120     3.9270    21.8490   214.5000  1681.1981     3.4020   215.9000     1.7713
  3231.80     7.2680     4.0520    25.0130   214.5000   867.9135     3.3372   215.9000     1.6528
  3232.00     6.6210     3.8310    23.8010   214.5000   294.4978     3.5608   215.9000     1.4763
  3232.20     5.6290     3.3710    19.5880   214.5000   381.7520     3.7783   215.9000     1.4268
  3232.40     5.9070     3.5550    20.5290   214.5000   784.7207     4.3976   215.9000     1.4370
  3232.60     4.4720     3.2410    25.4320   214.5000  1926.9242     4.5141   215.9000     1.3383
  3232.80     6.4000     4.1490    28.5600   214.5000  1943.0928     4.7098   215.9000     1.2541
  3233.00     5.9710     4.0440    27.4430   214.5000   411.8658     4.4151   215.9000     1.3738
  3233.20     4.9200     3.4550    19.5120   214.5000   357.5643     4.2817   215.9000     1.4405
  3233.40     5.5980     3.9620    28.8420   214.5000  1228.1169     4.2818   215.9000     1.3065
  3233.60     5.8290     3.7770    26.7960   214.5000  1778.1445     4.7830   215.9000     1.0891
  3233.80     6.9810     4.0520    25.1880   214.5000   690.3539     4.9849   215.9000     1.0984
  3234.00     5.9700     3.7630    25.7440   214.5000   182.0186     4.8911   215.9000     1.2224
  3234.20     5.6010     3.6890    19.8010   214.5000   322.1020     5.6584   215.9000     1.2419
  3234.40     5.8940     3.7840    26.1880   214.5000   556.2404     5.3906   215.9000     1.1256
  3234.60     6.0240     3.8460    26.2470   214.5000   517.2611     5.5957   215.9000     1.1303
  3234.80     6.4640     3.7630    23.6670   214.5000   515.6194     6.0395   215.9000     1.3744
  3235.00     4.7200     3.7680    23.8140   214.5000   624.1745     5.9233   215.9000     1.5517
  3235.20     6.0230     4.0100    26.1890   214.5000   666.7446     6.0920   215.9000     1.5386
  3235.40     5.6080     3.7130    26.2540   214.5000   527.6716     6.6519   215.9000     1.4102
  3235.60     5.1400     3.7870    21.2860   214.5000   369.6914     6.8249   215.9000     1.2783
  3235.80     5.3210     3.8040    22.9130   214.5000   391.6978     6.9035   215.9000     1.2247
  3236.00     5.6300     4.1850    20.3180   214.5000   212.7289     7.4078   215.9000     1.1624
  3236.20     5.4820     4.0780    18.5890   214.5000   149.3341     8.1938   215.9000     1.1930
  3236.40     4.0730     3.3120    12.4000   214.5000    60.8097     9.1586   215.9000     1.2926
  3236.60     4.5980     3.6150    11.0890   214.5000   126.4063    10.2733   215.9000     1.3824
  3236.80     5.3730     3.2450    22.3050   214.5000   287.7704    10.6486   215.9000     1.4379
  3237.00     4.4660     3.4870    20.6200   214.5000   225.7766    10.3755   215.9000     1.6398
  3237.20     4.5130     3.4950    16.8450   214.5000   191.4653     9.2869   215.9000     1.9042
  3237.40     4.8870     3.7940    20.4910   214.5000   223.8557     8.6777   215.9000     1.9495
  3237.60     4.6300     4.0670    19.4880   214.5000   170.6695     9.0784   215.9000     1.6603
  3237.80     4.8460     3.6460    16.9740   214.5000   183.2099     9.6293   215.9000     1.4223
  3238.00     5.0070     3.4840    17.4860   214.5000   399.6650    10.1953   215.9000     1.4732
  3238.20     5.2830     3.6490    34.8990   214.5000   499.8192     9.9963   215.9000     1.5913
