~Version information
  VERS.                            1.20: CWLS LAS  -  VERSION 1.20
  WRAP.                              NO: One line per depth step
~Well information
# MNEM.UNIT
# ====.================================:===================
  STRT.M                        3148.00: First depth in file
  STOP.M                        3449.00: Last depth in file
  STEP.M                           0.20: Depth increment
  NULL.                            9999: Null values
  COMP.                         COMPANY: 
  WELL.                            WELL: 115 
  FLD .                           FIELD: íÌ§®≠·™†Ô
  CNTY.                          COUNTY: 
  STAT.                           STATE: 
  DATE.                        LOG DATE: 29-04-04
  SRVC.                 SERVICE COMPANY: 
  UWI.           Unique Well Identifier: 
~Parametr information block
# MNEM.UNIT
# ====.================================:===================
~Other information
# ------------------------- REMARKS  AREA ------------------
~Curve information
# MNEM.UNIT
# ====.================================:===================
  DEPT.M                               : Depth curve
SFND.1/CM                              : SFND
SFFD.1/CM                              : SFFD
TCND.                                  : àçíÖÉêÄãúçõâ ëóÖí, åÄãõâ áéçÑ / àçä
TCFD.                                  : àçíÖÉêÄãúçõâ ëóÖí, Å. áéçÑ / àçä
TCNC.                                  : äéåè.àçíÖÉê. ëóÖí, åÄãõâ áéçÑ / àçä
TCFC.                                  : äéåè.àçíÖÉêÄãúçõâ ëóÖí,Å.áéçÑ / àçä
~ASCII Log Data
# ...
  3296.40    12.6780     9.3430  5639.0000   802.0000  6197.0000  1860.0000
  3296.60    12.9200    10.0140  6243.0000   847.0000  6697.0000  2123.0000
  3296.80    12.4260     9.4270  6849.0000   788.0000  8024.0000  2035.0000
  3297.00    12.6020     8.9810  5807.0000   796.0000  6308.0000  1869.0000
  3297.20    13.0800    10.1470  6448.0000   802.0000  7110.0000  2056.0000
  3297.40    12.1950     9.7390  4968.0000   675.0000  5169.0000  1674.0000
  3297.60    12.5050    10.1100  5810.0000   826.0000  6594.0000  2034.0000
  3297.80    12.6850    10.4460  5810.0000   826.0000  6594.0000  2034.0000
  3298.00    12.6180     9.6700  4532.0000   767.0000  4747.0000  1940.0000
  3298.20    11.5930     9.6200  5334.0000  1022.0000  5344.0000  2534.0000
  3298.40    12.5230     9.9700  5317.0000  1028.0000  5483.0000  2438.0000
  3298.60    12.5220     9.6610  6313.0000  1092.0000  6739.0000  2379.0000
  3298.80    13.0010     8.9310  6193.0000   938.0000  6571.0000  2091.0000
  3299.00    13.1670     8.2750  4555.0000   719.0000  4905.0000  1671.0000
  3299.20    12.7570     9.3190  5420.0000   869.0000  5957.0000  2080.0000
  3299.40    12.8600     9.3160  6179.0000   942.0000  6649.0000  2404.0000
  3299.60    12.7680     9.6810  7208.0000  1031.0000  7684.0000  2506.0000
  3299.80    12.2180     9.9570  5469.0000  1001.0000  5915.0000  2158.0000
  3300.00    14.3330    10.2080  8951.0000  1166.0000  9553.0000  2763.0000
  3300.20    13.5370     8.9000  6364.0000   940.0000  7042.0000  2248.0000
  3300.40    12.3050     9.3820  5000.0000   798.0000  5081.0000  1787.0000
  3300.60    13.8730    10.7180  6776.0000   930.0000  7668.0000  2162.0000
  3300.80    13.9510    11.1650  5640.0000   802.0000  5957.0000  1987.0000
  3301.00    12.9370    10.7170  5203.0000   739.0000  5574.0000  1797.0000
  3301.20    13.0300    10.0950  6839.0000   780.0000  7233.0000  2105.0000
  3301.40    13.6540     9.7740  5257.0000   832.0000  5433.0000  1948.0000
  3301.60    13.6470    10.3260  6834.0000   891.0000  7519.0000  2247.0000
  3301.80    12.5360    10.4120  7212.0000   939.0000  8522.0000  2293.0000
  3302.00    12.1350    10.2700  6631.0000   960.0000  7117.0000  2229.0000
  3302.20    13.4310     9.6190  7474.0000  1075.0000  8033.0000  2721.0000
  3302.40    12.5040     9.3010  5481.0000   880.0000  5907.0000  2073.0000
  3302.60    13.6100     9.4860  7313.0000  1041.0000  8668.0000  2428.0000
  3302.80    13.1080     9.2530  7313.0000  1041.0000  8668.0000  2428.0000
  3303.00    13.4890     9.2660  6194.0000   794.0000  7116.0000  1976.0000
  3303.20    13.4660    10.6170  5886.0000   836.0000  6642.0000  2010.0000
  3303.40    14.0080    10.0830  6179.0000   821.0000  6784.0000  2035.0000
  3303.60    13.6820    10.0450  7441.0000  1022.0000  8033.0000  2473.0000
  3303.80    12.9800     9.8960  7362.0000  1029.0000  7799.0000  2503.0000
  3304.00    13.3040    10.1250  6593.0000   972.0000  7442.0000  2317.0000
  3304.20    13.6610    10.6790  7009.0000  1058.0000  7807.0000  2581.0000
  3304.40    13.9750     9.9570  6838.0000   909.0000  7350.0000  2331.0000
  3304.60    13.0260    10.5570  5514.0000   732.0000  5979.0000  1866.0000
  3304.80    12.9720     9.8410  6710.0000   820.0000  7069.0000  2214.0000
  3305.00    13.4340     9.5050  7722.0000   955.0000  8298.0000  2545.0000
  3305.20    13.4500    10.5730  6420.0000  1061.0000  6700.0000  2532.0000
  3305.40    13.1810    10.4090  7583.0000  1006.0000  8391.0000  2565.0000
  3305.60    12.1480    10.0400  5775.0000   921.0000  6031.0000  2147.0000
  3305.80    13.8120    10.2130  9807.0000  1135.0000 10793.0000  2987.0000
  3306.00    12.8590    10.3350  8381.0000  1145.0000 10644.0000  3012.0000
  3306.20    13.2690    10.5430  6202.0000   896.0000  6858.0000  2281.0000
  3306.40    13.9340    10.5280  7107.0000   931.0000  8604.0000  2350.0000
  3306.60    14.2530    10.1920  7147.0000   946.0000  8276.0000  2451.0000
  3306.80    12.3320     9.9890  5942.0000   793.0000  6174.0000  2011.0000
  3307.00    12.3120     9.7150  5514.0000   683.0000  5747.0000  1807.0000
  3307.20    13.1950     9.6910  5514.0000   683.0000  5747.0000  1807.0000
  3307.40    13.4300    10.1790  5561.0000   895.0000  5998.0000  2235.0000
  3307.60    12.8670    10.0000  6402.0000   888.0000  6662.0000  2260.0000
  3307.80    11.9680     9.3940  5327.0000   886.0000  5404.0000  2198.0000
  3308.00    12.8760     9.3570  7627.0000  1356.0000  7993.0000  3149.0000
  3308.20    12.2500     8.4300  6561.0000  1451.0000  6636.0000  3106.0000
  3308.40    11.8390     8.1760  9486.0000  1794.0000 10415.0000  3909.0000
  3308.60    11.6560     7.4310  7730.0000  1497.0000  7713.0000  3033.0000
  3308.80    10.8510     7.1670  5895.0000  1205.0000  5753.0000  2418.0000
  3309.00    11.4110     8.1330  5979.0000  1166.0000  6253.0000  2501.0000
  3309.20    11.8630     8.5820  7002.0000  1421.0000  6980.0000  2921.0000
  3309.40    11.8930     8.6720  8876.0000  1439.0000  9329.0000  3087.0000
  3309.60    12.5010     8.0170  7747.0000  1209.0000  8131.0000  2640.0000
  3309.80    12.3320     7.7960  5167.0000   907.0000  5322.0000  1918.0000
  3310.00    11.7890     8.0420  6396.0000  1090.0000  6768.0000  2248.0000
  3310.20    11.8290     7.9800  4972.0000   943.0000  4872.0000  1965.0000
  3310.40    11.2080     7.9700  8379.0000  1373.0000  8955.0000  2989.0000
  3310.60    10.8600     7.9660  5843.0000  1294.0000  5932.0000  2613.0000
  3310.80    11.8030     7.8790  5665.0000  1309.0000  5801.0000  2758.0000
  3311.00    12.2520     8.3280  6866.0000  1417.0000  7333.0000  2976.0000
  3311.20    12.7510     8.8010  6863.0000  1298.0000  6946.0000  2944.0000
  3311.40    12.8080     9.0130  7328.0000  1351.0000  8036.0000  3244.0000
  3311.60    12.5840     9.0330  5490.0000  1039.0000  5755.0000  2495.0000
  3311.80    10.9350     9.6420  5458.0000  1046.0000  5711.0000  2412.0000
  3312.00    12.4660     9.5530  6130.0000  1071.0000  6411.0000  2430.0000
  3312.20    12.9220     9.1470  6130.0000  1071.0000  6411.0000  2430.0000
  3312.40    12.4230     8.9130  6500.0000  1082.0000  6586.0000  2338.0000
  3312.60    12.1480     8.9090  9785.0000  1292.0000 10491.0000  3037.0000
  3312.80    11.7470     8.1690  6766.0000  1062.0000  6979.0000  2399.0000
  3313.00    11.0050     8.6060  6109.0000  1070.0000  6166.0000  2331.0000
  3313.20    12.0430     9.3560  7068.0000  1294.0000  7241.0000  2782.0000
  3313.40    12.4280     8.8120  8400.0000  1496.0000  9352.0000  3366.0000
  3313.60    12.5040     9.0670  6471.0000  1517.0000  6645.0000  3199.0000
  3313.80    12.2520     9.6150  6530.0000  1668.0000  7047.0000  3709.0000
  3314.00    11.7430     9.4690  6286.0000  1360.0000  6403.0000  2973.0000
  3314.20    10.3180     8.5500  6424.0000  1472.0000  6438.0000  3147.0000
  3314.40    12.2460     8.9660  5109.0000  1156.0000  5076.0000  2392.0000
  3314.60    11.3250     8.5090  5633.0000  1084.0000  5802.0000  2344.0000
  3314.80    11.2610     7.5390  7276.0000  1350.0000  7176.0000  3034.0000
  3315.00    11.5090     7.9950  6654.0000  1441.0000  7383.0000  2915.0000
  3315.20    11.7680     8.5400  5363.0000  1376.0000  5481.0000  2812.0000
  3315.40    11.7550     9.1280  5284.0000  1330.0000  5431.0000  2859.0000
  3315.60    11.5040     8.3220  4839.0000  1288.0000  4695.0000  2769.0000
  3315.80    12.6470     8.9390  7895.0000  1706.0000  8789.0000  3811.0000
  3316.00    12.2080     8.7060  9935.0000  2149.0000 10803.0000  5018.0000
  3316.20    12.2310     9.1790  5139.0000  1250.0000  5252.0000  2772.0000
  3316.40    12.2490     9.3510  7036.0000  1318.0000  7478.0000  3074.0000
  3316.60    12.3630     8.9680  7562.0000  1302.0000  7926.0000  2858.0000
  3316.80    12.2040     9.1810  5387.0000  1159.0000  5193.0000  2324.0000
  3317.00    11.9870     8.0730  8372.0000  1475.0000  9294.0000  3243.0000
  3317.20    11.4560     8.1860  8372.0000  1475.0000  9294.0000  3243.0000
  3317.40    13.5220     9.0810  9803.0000  1572.0000 13508.0000  3593.0000
