~Version information
  VERS.                            1.20: CWLS LAS  -  VERSION 1.20
  WRAP.                              NO: One line per depth step
~Well information
# MNEM.UNIT
# ====.================================:===================
  STRT.M                        3140.00: First depth in file
  STOP.M                        3450.00: Last depth in file
  STEP.M                           0.20: Depth increment
  NULL.                            9999: Null values
  COMP.                         COMPANY: 
  WELL.                            WELL: 115 
  FLD .                           FIELD: íùÑàçëäÄü
  CNTY.                          COUNTY: 
  STAT.                           STATE: 
  DATE.                        LOG DATE: 30-04-04
  SRVC.                 SERVICE COMPANY: 
  UWI.           Unique Well Identifier: 
~Parametr information block
# MNEM.UNIT
# ====.================================:===================
~Other information
# ------------------------- REMARKS  AREA ------------------
~Curve information
# MNEM.UNIT
# ====.================================:===================
  DEPT.M                               : Depth curve
GZ5.OHMM                               : äÄÜ. ëéèêéíàÇãÖçàÖ áéçÑÄ A8.0M1.0N
GZ4.OHMM                               : äÄÜ. ëéèêéíàÇãÖçàÖ áéçÑÄ A4.0M0.5N
GZ3.OHMM                               : äÄÜ. ëéèêéíàÇãÖçàÖ áéçÑÄ A2.0M0.5N
GZ2.OHMM                               : äÄÜ. ëéèêéíàÇãÖçàÖ áéçÑÄ A1.0M0.1N
GZ1.OHMM                               : äÄÜ.ëéèêéíàÇãÖçàÖ áéçÑÄ A0.4M0.1N
PZ.OHMM                                : äÄÜ.ëéèê.èé èéíÖçñàÄãáéçÑì Ä0.5å6.5N
RRB.OHMM                               : ëéèêéíàÇã.èêéåõÇéóç.ÜàÑäéëíà èÖêÇàó.
CALI.MM                                : ëìååÄêçõâ ÑàÄåÖíê äÄÇÖêçéåÖêÄ
CILA.MMHO                              : áéçÑ àä 7à1.6,Ääí.ëàÉçÄã/àä-è/Äàä-5
SP.MV                                  : ÖëíÖëíÇÖççÄü ëÄåéèéãüêàáÄñàü èé èë
BS.                                    : Ñ≠-216¨¨
GR.UR/H                                : ÖëíÖëíÇÖççÄü ÉÄååÄ-ÄäíàÇçéëíú èé Éä
GZB.OHMM                               : GZB
~ASCII Log Data
# ...
  3277.80   270.3748   337.9693   144.0922    41.8498    10.2924    47.4414     0.8228   211.5024    22.7269   232.8590   215.9000     0.9336   125.7728
  3278.00   253.0904   297.9310   124.7176    35.9938     9.5140    47.8007     0.8195   211.4039    20.3866   229.8061   215.9000     0.8069   137.5613
  3278.20   239.9590   268.8671   107.7935    33.2753     8.9625    49.1541     0.8297   211.5225    18.6026   230.5690   215.9000     0.7295   148.8850
  3278.40   227.2052   240.7243    93.7874    29.9721     8.2240    50.9410     0.8238   211.2852    19.3875   229.1347   215.9000     0.7444   160.5586
  3278.60   221.5686   217.8501    83.5040    28.1043     7.7500    53.6125     0.8202   211.3906    17.0014   229.3009   215.9000     0.8502   165.3139
  3278.80   218.7500   203.8380    78.1562    28.0450     7.7750    56.4888     0.8240   213.0316    15.1117   228.5696   215.9000     0.9086   163.4552
  3279.00   219.1044   200.0000    76.9783    29.7864     8.2750    59.4957     0.8240   214.6316    13.9763   228.0898   215.9000     0.8587   157.4124
  3279.20   226.3371   200.1061    78.5356    31.9569     8.7750    62.3249     0.8238   212.3125    11.6695   228.3754   215.9000     0.7790   150.0214
  3279.40   236.4426   202.1371    82.2360    34.2525     9.2822    64.6642     0.8190   212.1662    11.9391   225.9487   215.9000     0.8220   141.0659
  3279.60   248.4353   202.6664    86.9327    38.0459     9.9439    66.6087     0.8198   213.8603     8.5416   226.6562   215.9000     0.8990   131.2457
  3279.80   258.5406   207.3942    93.4664    42.2615    10.9359    67.4113     0.8350   213.0764     8.1502   226.8675   215.9000     0.9398   121.1825
  3280.00   268.6749   209.5758    99.9343    45.9772    11.7619    67.5957     0.8349   211.8502     7.0303   227.4904   215.9000     0.9761   112.7977
  3280.20   279.2760   207.0100   104.8319    48.2372    11.9905    67.3845     0.8338   212.9243     7.7120   226.1874   215.9000     1.0158   106.5057
  3280.40   283.6646   201.6536   108.8376    49.9637    12.0554    67.0337     0.8298   212.6770     7.7951   226.9779   215.9000     1.0070   102.0122
  3280.60   291.5682   194.4597   113.3948    50.5616    12.0225    66.2924     0.8252   212.5511    11.8227   227.8475   215.9000     0.9097    97.7908
  3280.80   297.6407   187.6366   118.0806    50.5261    11.9822    65.6287     0.8275   212.6386    10.4846   229.0965   215.9000     0.8695    94.2518
  3281.00   300.4858   182.9693   123.3616    51.4761    12.1248    64.7214     0.8190   211.7524    12.9856   226.1758   215.9000     0.9592    91.1593
  3281.20   303.8750   181.7555   129.1517    51.8242    12.2387    63.7914     0.8186   211.6358    13.3615   223.9290   215.9000     1.0196    87.9421
  3281.40   306.2678   180.6060   134.1262    51.9901    12.3382    62.5183     0.8119   211.4444    13.0053   224.0667   215.9000     0.9892    85.4089
  3281.60   306.4622   180.7272   139.0483    53.3157    12.5711    60.8642     0.8297   211.8551    11.9461   226.6953   215.9000     0.9376    82.6518
  3281.80   303.5000   183.0300   142.5443    54.2299    12.9558    59.2365     0.8238   211.9545    14.0337   226.9770   215.9000     0.9725    81.2141
  3282.00   298.3122   183.0300   141.1739    52.8714    12.6117    57.7924     0.8188   212.0242    12.9260   227.9548   215.9000     1.0794    81.3861
  3282.20   289.5879   183.0303   138.0088    51.2497    12.2808    56.4570     0.8145   212.1323    14.4706   229.1752   215.9000     1.1425    81.4234
  3282.40   281.3400   183.1570   135.0934    50.1655    12.2067    55.0517     0.8228   212.6350    16.4199   228.5092   215.9000     1.1117    82.1943
  3282.60   270.6486   185.4550   130.8075    48.7328    11.9564    53.9256     0.8202   211.9579    17.0883   226.2824   215.9000     1.0469    83.8699
  3282.80   258.9892   185.4550   125.8433    46.8625    11.5953    52.8294     0.8238   211.7181    16.4409   226.8064   215.9000     1.0031    87.2573
  3283.00   247.0607   185.4550   119.9062    44.5182    11.0514    52.3071     0.8205   211.5526    15.9180   225.4042   215.9000     0.9283    90.7380
  3283.20   234.2604   185.5762   115.5155    43.0573    10.7145    51.6186     0.8288   211.9888    15.0771   224.5155   215.9000     0.8941    92.4753
  3283.40   223.8371   188.0002   113.1805    42.3504    10.6803    51.4542     0.8240   212.0829    15.6737   222.3601   215.9000     0.8791    91.3928
  3283.60   213.4140   190.3463   111.8606    42.8965    10.9473    50.9655     0.8240   211.7961    15.0703   222.0139   215.9000     0.8969    88.6348
  3283.80   206.5950   191.0129   110.2893    42.9567    11.2091    50.6189     0.8245   212.1539    15.2025   222.2309   215.9000     0.8568    86.4553
  3284.00   197.9654   187.8319   107.0866    42.0740    10.9894    49.9504     0.8347   212.0307    14.4016   221.7229   215.9000     0.8591    85.8696
  3284.20   190.6626   183.5707   103.3352    41.2293    10.7353    49.5668     0.8295   211.8939    15.2185   222.1189   215.9000     0.9986    85.4224
  3284.40   183.5764   180.0164    99.8966    40.3301    10.4494    49.3832     0.8195   211.5419    15.0362   220.3694   215.9000     1.0876    84.6716
  3284.60   177.3861   175.2215    96.4472    39.6594    10.2875    49.5975     0.8293   211.4663    15.6845   221.8551   215.9000     1.1149    84.7377
  3284.80   173.2820   171.6203    93.7991    38.0608     9.9243    50.0126     0.8347   212.5459    15.3539   222.4979   215.9000     1.0519    85.3179
  3285.00   171.8015   170.7449    92.6352    37.5628     9.7003    50.5154     0.8305   212.0282    16.4616   222.7183   215.9000     0.9899    83.5176
  3285.20   171.4669   174.8783    95.3299    38.8326    10.0872    50.8172     0.8413   212.3405    16.2596   221.5939   215.9000     0.9246    77.1710
  3285.40   171.8385   180.7202   101.2261    42.5718    10.8988    50.9864     0.8454   212.0706    16.1875   222.8561   215.9000     0.8022    70.5471
  3285.60   172.4290   184.4760   105.8961    44.9234    11.8204    50.4324     0.8335   212.1603    16.3805   222.3783   215.9000     0.7937    65.7870
  3285.80   172.6080   185.6884   109.5061    46.7993    12.1000    49.0843     0.8422   212.2013    15.3765   222.8987   215.9000     0.9075    61.8342
  3286.00   172.2693   184.5182   111.3605    48.4353    12.5665    47.3864     0.8453   212.1451    12.9434   221.0759   215.9000     1.0089    59.1343
  3286.20   169.2653   183.9279   113.3215    50.2111    12.7520    45.2361     0.8498   212.0375    17.0196   220.2033   215.9000     0.9637    56.0273
  3286.40   166.0442   179.0626   113.0723    50.8708    12.8117    43.1260     0.8449   212.1155    16.3867   221.3702   215.9000     0.8431    53.9100
  3286.60   162.2687   170.2483   109.7262    48.0595    12.1050    41.1572     0.8417   212.0224    17.6502   221.8000   215.9000     0.8325    53.2671
  3286.80   157.7220   159.8686   105.0717    45.1909    11.4109    39.4150     0.8360   212.9271    20.1368   222.2589   215.9000     0.9785    52.9048
  3287.00   152.4461   151.3874   102.0574    43.8423    11.2037    37.9652     0.8347   212.2490    20.8118   221.2278   215.9000     1.0421    52.0836
  3287.20   148.0590   144.8847   100.2622    41.9647    10.8766    36.7348     0.8309   211.6073    22.1851   221.1425   215.9000     0.9829    51.3927
  3287.40   144.1888   137.4051    96.0838    39.6150    10.5424    35.9704     0.8487   211.6696    22.7566   220.3375   215.9000     0.8836    52.2378
  3287.60   139.0029   129.3000    90.7007    36.4972    10.0698    35.2171     0.8446   211.2964    23.5180   220.6970   215.9000     0.8450    54.0668
  3287.80   134.5410   121.6184    85.0329    34.6231     9.6012    34.8394     0.8548   210.8943    24.4224   220.1582   215.9000     0.9829    55.7045
  3288.00   130.1958   117.0417    81.3321    33.9507     9.4434    34.8159     0.8503   211.3832    24.9787   220.7997   215.9000     1.0961    56.1608
  3288.20   127.6561   114.7610    79.6376    33.8324     9.6471    34.5879     0.8550   211.1866    24.9345   221.3116   215.9000     1.1400    55.5592
