~Version information
  VERS.                            1.20: CWLS LAS  -  VERSION 1.20
  WRAP.                              NO: One line per depth step
~Well information
# MNEM.UNIT
# ====.================================:===================
  STRT.M                        3140.00: First depth in file
  STOP.M                        3450.00: Last depth in file
  STEP.M                           0.20: Depth increment
  NULL.                            9999: Null values
  COMP.                         COMPANY: 
  WELL.                            WELL: 115 
  FLD .                           FIELD: íùÑàçëäÄü
  CNTY.                          COUNTY: 
  STAT.                           STATE: 
  DATE.                        LOG DATE: 30-04-04
  SRVC.                 SERVICE COMPANY: 
  UWI.           Unique Well Identifier: 
~Parametr information block
# MNEM.UNIT
# ====.================================:===================
~Other information
# ------------------------- REMARKS  AREA ------------------
~Curve information
# MNEM.UNIT
# ====.================================:===================
  DEPT.M                               : Depth curve
MINV.OHMM                              : äÄÜ.ëéèê.èé åàäêéÉêÄÑàÖçí áéçÑì
MNOR.OHMM                              : äÄÜ.ëéèêéíàÇãÖçàÖ å/èéíÖçñàÄã áéçÑÄ
MLL.OHMM                               : äÄÜ.ëéèê/åàäêéÅéäéÇéâ äÄêéíÄÜ/åä-ìñ
MCAL.MM                                : ÑàÄåÖíê äÄÇÖêçéåÖêÄ åä-ìñ
LL3.OHMM                               : äÄÜ.ëéèêéíàÇãÖçàÖ áéçÑÄ Åä-3 /ÄÅäí
CILA.MMHO                              : áéçÑ àä 7à1.6,Ääí.ëàÉçÄã/àä-è/Äàä-5
BS.                                    : Ñ≠Æ¨=215,9¨¨
GR.UR/H                                : ÖëíÖëíÇÖççÄü ÉÄååÄ-ÄäíàÇçéëíú èé Éä
~ASCII Log Data
# ...
  3172.80     6.8150     4.0730    12.4600   214.5000   162.9159    17.5434   215.9000     4.2611
  3173.00     5.9150     3.6580    10.8920   214.5000    99.3736    16.7642   215.9000     4.6356
  3173.20     5.2910     3.8410     9.3950   214.5000   103.0830    16.2550   215.9000     4.0828
  3173.40     5.5940     3.5770    11.0720   214.5460    72.1448    16.6565   215.9000     3.0841
  3173.60     6.8620     3.7420     8.7880   214.7730    62.8823    17.7824   215.9000     2.5721
  3173.80     6.1100     3.2990     9.2020   215.7500    53.9761    18.0759   215.9000     2.5572
  3174.00     3.9490     3.3390     7.2210   216.5000    51.4283    18.8312   215.9000     2.6020
  3174.20     3.6660     2.9510     9.3430   216.1360    50.7890    19.4696   215.9000     2.6917
  3174.40     3.6520     2.5170     6.3690   216.5000    47.7564    18.8409   215.9000     2.9991
  3174.60     4.2220     3.0150     9.5110   215.6830    68.1341    17.8046   215.9000     3.5638
  3174.80     4.8680     3.6030    19.8280   215.7000   123.5912    16.5239   215.9000     4.1787
  3175.00     5.6400     3.9900    19.3980   214.5000   263.1964    15.3259   215.9000     4.7706
  3175.20     6.1690     5.1050    17.2870   214.5000   244.7417    13.5364   215.9000     4.8797
  3175.40     5.1560     4.0240    17.5320   214.5000   149.3833    13.0912   215.9000     4.1528
  3175.60     6.9920     4.4560     7.5360   214.5000   104.1073    12.3645   215.9000     3.0594
  3175.80     5.9150     3.9500     8.8610   214.5000    90.5899    11.1418   215.9000     2.1962
  3176.00     4.6290     3.1710    10.1440   214.6250    75.9478    11.6175   215.9000     1.9036
  3176.20     6.2980     4.3140    10.3450   214.7500    76.5931    12.8538   215.9000     2.0659
  3176.40     6.4670     3.4440     8.5930   214.7500    64.6850    14.5320   215.9000     2.4432
  3176.60     5.4520     3.3910     8.9570   214.7500    58.0931    15.3967   215.9000     2.8002
  3176.80     5.4870     3.4720     9.0430   214.5230    83.7018    14.8405   215.9000     2.9964
  3177.00     5.2020     4.0410     8.7430   214.5000   100.7875    14.7739   215.9000     3.0432
  3177.20     5.5440     3.9110    11.7880   214.5000   179.5532    13.6042   215.9000     3.0835
  3177.40     5.9410     3.7420    15.0310   214.5000   159.9816    12.3383   215.9000     3.0517
  3177.60     4.8500     3.3510    10.5040   214.5000    89.1302    12.3930   215.9000     2.9609
  3177.80     4.6770     4.0450    10.1900   214.5000    83.3145    12.2765   215.9000     2.7513
  3178.00     5.9480     3.7680    11.1710   214.5000   102.3073    12.9555   215.9000     2.4035
  3178.20     5.5580     4.0400    13.0590   214.5000   147.7669    13.0491   215.9000     2.1647
  3178.40     5.7800     4.3290    17.2910   214.5000   245.1440    12.8438   215.9000     2.1632
  3178.60     6.4900     4.3670    17.6790   214.5000   292.4001    12.5175   215.9000     2.2247
  3178.80     6.9710     4.0370    12.5570   214.5000   229.9843    12.5810   215.9000     2.2469
  3179.00     9.0540     4.7960    13.5130   214.5000   253.0135    13.6679   215.9000     2.0406
  3179.20     7.2530     4.4580    11.2450   214.5000   177.1411    14.4641   215.9000     1.7350
  3179.40     7.9160     4.3620    12.8450   214.5000   174.2782    14.8824   215.9000     1.4832
  3179.60     6.1950     3.7360    11.5390   214.5000   116.6597    16.3755   215.9000     1.3946
  3179.80     6.1710     3.0850     9.7750   214.5000    83.1035    17.9382   215.9000     1.4661
  3180.00     4.8820     3.2300     8.7810   214.5910    74.4566    19.0266   215.9000     1.5094
  3180.20     3.9600     3.4650    13.5920   215.2040    65.8553    20.5436   215.9000     1.5831
  3180.40     5.7020     3.3360     6.3160   214.7500    58.3121    21.7563   215.9000     1.7768
  3180.60     5.0840     3.4270     8.1560   214.7500    74.5650    22.6157   215.9000     2.1941
  3180.80     5.6220     3.2500     9.8030   214.7500    62.6861    23.3347   215.9000     2.6467
  3181.00     4.4500     3.1710     7.7130   214.7500    54.7006    24.1231   215.9000     2.9310
  3181.20     4.3170     3.3020     9.4360   214.7500    55.3602    24.4435   215.9000     3.0500
  3181.40     5.3060     3.4080     7.1430   214.7500    49.6469    25.1161   215.9000     3.1488
  3181.60     4.9870     3.1780     6.7930   214.7500    43.1027    25.4885   215.9000     3.2143
  3181.80     4.4440     3.2020     8.0510   214.7500    49.2143    25.9938   215.9000     3.0819
  3182.00     4.7980     3.1120     9.1360   214.7500    58.0913    25.6276   215.9000     2.9696
  3182.20     5.2920     3.6610     8.0610   214.7500    54.9920    24.9069   215.9000     3.0474
  3182.40     4.9980     3.0830     4.9760   214.7500    38.9590    25.3990   215.9000     3.2477
  3182.60     5.7690     4.3110     9.3970   214.7500    66.9609    24.3159   215.9000     3.2941
  3182.80     5.1810     3.8250     8.3960   214.7500    83.4161    23.8787   215.9000     3.1783
  3183.00     5.6820     3.2750    11.3890   214.7500    88.6777    22.4391   215.9000     3.0915
  3183.20     5.5350     3.4420     9.1040   214.7500    76.1266    21.8811   215.9000     3.1195
  3183.40     4.1890     3.0310     8.5570   214.7500    51.0937    21.7742   215.9000     3.0863
  3183.60     3.6640     2.8160     7.2080   214.7500    43.7892    22.9735   215.9000     2.9748
  3183.80     4.9900     3.0970     6.3440   214.7500    42.9282    23.0604   215.9000     2.9091
  3184.00     3.2960     2.2870     5.2970   214.7500    43.0177    24.8496   215.9000     3.1987
  3184.20     5.6020     3.4350    10.0280   214.7500    84.0116    23.6271   215.9000     3.6065
  3184.40     6.5690     4.1120    12.0700   214.7500   113.2971    22.4524   215.9000     3.8792
  3184.60     6.1210     3.3960    12.8270   214.7500   148.1068    20.6388   215.9000     3.7967
  3184.80     6.3860     3.8760    11.9880   214.7500   130.3804    19.6273   215.9000     3.5643
  3185.00     5.8660     3.4670    10.2230   214.7500   100.3283    20.0217   215.9000     3.2051
  3185.20     5.2960     3.4550     9.8630   214.7500    62.9759    20.9473   215.9000     2.7515
  3185.40     4.3760     3.2130     8.0430   214.7500    67.6248    22.0815   215.9000     2.3870
  3185.60     6.0010     3.2390    11.1860   214.7500    82.0849    23.3330   215.9000     2.1582
  3185.80     4.0930     3.8820    10.9810   214.7500    82.6371    23.5470   215.9000     2.1460
  3186.00     7.1780     2.6950     8.1940   214.7500    50.2800    24.7492   215.9000     2.1944
  3186.20     5.4650     2.9240     6.9510   215.0000    50.9981    24.8579   215.9000     2.4092
  3186.40     3.9710     3.0480     7.5960   215.1350    37.4981    25.5081   215.9000     2.7711
  3186.60     3.1970     2.8270     5.4690   215.6590    29.3267    27.0697   215.9000     3.1099
  3186.80     3.8930     2.7820     8.9940   216.2270    35.5672    27.4877   215.9000     3.3927
  3187.00     2.6880     2.2970     7.9190   214.7500    31.5177    27.5284   215.9000     3.7706
  3187.20     3.2460     2.8720     6.4370   214.7500    33.6295    25.7208   215.9000     4.2367
  3187.40     4.8320     4.3050    10.5550   214.7500    65.6401    22.1467   215.9000     4.5567
  3187.60     5.6570     3.5870    16.7530   214.7500   135.5105    19.1602   215.9000     4.5853
  3187.80     6.1680     3.8530    18.9460   214.7500   127.2114    17.0050   215.9000     4.4840
  3188.00     5.0440     3.5820    11.9540   214.7500    69.6479    16.0397   215.9000     4.2234
  3188.20     6.6730     3.5410     8.4370   214.7500    61.7302    15.4138   215.9000     3.5425
  3188.40     5.3300     3.6960    10.0300   214.7500    71.2299    15.5198   215.9000     2.7284
  3188.60     6.0750     3.5590    13.3390   214.7500    98.2897    15.0411   215.9000     2.2699
  3188.80     4.9270     3.9030    12.4550   214.7500    95.8180    14.2283   215.9000     2.4549
  3189.00     5.3780     4.0190    16.4470   214.7500   158.9857    12.7835   215.9000     2.7821
