~Version information
  VERS.                            1.20: CWLS LAS  -  VERSION 1.20
  WRAP.                              NO: One line per depth step
~Well information
# MNEM.UNIT
# ====.================================:===================
  STRT.M                        3140.00: First depth in file
  STOP.M                        3450.00: Last depth in file
  STEP.M                           0.20: Depth increment
  NULL.                            9999: Null values
  COMP.                         COMPANY: 
  WELL.                            WELL: 115 
  FLD .                           FIELD: íùÑàçëäÄü
  CNTY.                          COUNTY: 
  STAT.                           STATE: 
  DATE.                        LOG DATE: 30-04-04
  SRVC.                 SERVICE COMPANY: 
  UWI.           Unique Well Identifier: 
~Parametr information block
# MNEM.UNIT
# ====.================================:===================
~Other information
# ------------------------- REMARKS  AREA ------------------
~Curve information
# MNEM.UNIT
# ====.================================:===================
  DEPT.M                               : Depth curve
MINV.OHMM                              : äÄÜ.ëéèê.èé åàäêéÉêÄÑàÖçí áéçÑì
MNOR.OHMM                              : äÄÜ.ëéèêéíàÇãÖçàÖ å/èéíÖçñàÄã áéçÑÄ
MLL.OHMM                               : äÄÜ.ëéèê/åàäêéÅéäéÇéâ äÄêéíÄÜ/åä-ìñ
MCAL.MM                                : ÑàÄåÖíê äÄÇÖêçéåÖêÄ åä-ìñ
LL3.OHMM                               : äÄÜ.ëéèêéíàÇãÖçàÖ áéçÑÄ Åä-3 /ÄÅäí
CILA.MMHO                              : áéçÑ àä 7à1.6,Ääí.ëàÉçÄã/àä-è/Äàä-5
BS.                                    : Ñ≠Æ¨=215,9¨¨
GR.UR/H                                : ÖëíÖëíÇÖççÄü ÉÄååÄ-ÄäíàÇçéëíú èé Éä
~ASCII Log Data
# ...
  3156.40     1.7750     2.1710     2.1210   214.6800    18.9321    74.5392   215.9000    11.0402
  3156.60     3.6520     1.7700     2.2720   213.5000    21.2644    71.3560   215.9000    11.0496
  3156.80     1.0800     1.4150     1.7030   221.4560    14.0688    71.4981   215.9000    11.1331
  3157.00     6.7130     2.8860     1.7410   218.1260    17.0946    65.1299   215.9000    10.6312
  3157.20     1.0840     1.1630     1.8810   224.7540    14.1376    64.1206   215.9000     9.6806
  3157.40     7.2890     3.5230     3.0220   220.2490    24.0580    60.1360   215.9000     8.8666
  3157.60     5.5920     2.8650     3.7300   219.5480    28.4106    59.7717   215.9000     8.3618
  3157.80     3.6810     1.2340     4.0440   221.4410    19.1697    54.8993   215.9000     8.7015
  3158.00     3.2090     1.6790     2.3050   222.7970    28.7052    52.7419   215.9000     9.0835
  3158.20     5.9210     3.4870     3.5910   216.5000    38.0517    47.2574   215.9000     8.9318
  3158.40     3.7890     3.5610     4.4670   214.7950    43.2613    51.1786   215.9000     8.7095
  3158.60     8.6400     4.0780     4.0980   214.7500    54.0683    46.6531   215.9000     8.1505
  3158.80     7.1270     3.7580     4.3650   214.7500    42.7299    42.9205   215.9000     7.4057
  3159.00     2.5660     3.0430     3.5810   214.7500    29.7686    46.1976   215.9000     6.3600
  3159.20     3.7200     3.3380     2.8360   214.7500    30.2519    50.2573   215.9000     5.3542
  3159.40     2.3050     1.7890     3.6730   216.5000    20.1786    52.2463   215.9000     5.0338
  3159.60     9.2290     3.1760     2.5360   216.5000    28.3634    55.6531   215.9000     5.4198
  3159.80     6.1310     3.8020     3.1640   214.8640    26.5240    56.2541   215.9000     6.0022
  3160.00     8.3530     1.1410     2.6490   216.9490    17.9252    61.1691   215.9000     6.6646
  3160.20     1.8280     1.4140     1.8420   221.5620    13.8850    61.6935   215.9000     6.8979
  3160.40     1.5050     1.3460     2.4560   219.4580    16.2430    60.8008   215.9000     7.1543
  3160.60     2.1720     2.3050     2.2120   216.0220    19.5069    67.6713   215.9000     7.3979
  3160.80     2.9200     2.1620     3.8330   214.7500    26.1923    64.1294   215.9000     7.9971
  3161.00     4.6010     2.0040     5.4210   214.7500    24.3898    60.1904   215.9000     8.5990
  3161.20     1.7900     1.7310     2.3960   213.5000    18.1096    58.8659   215.9000     8.7685
  3161.40     3.4140     2.1450     2.4390   212.8860    23.2078    59.1969   215.9000     8.3357
  3161.60     2.3540     1.6760     3.3020   214.0250    18.8153    59.0906   215.9000     7.8471
  3161.80     1.9140     1.1600     1.7240   214.9250    12.9408    60.3265   215.9000     7.6785
  3162.00     1.0600     1.2230     1.5290   225.2710    11.5358    59.8465   215.9000     7.6990
  3162.20     4.1710     2.0660     1.7680   213.7740    15.2159    61.8739   215.9000     7.9334
  3162.40     0.8870     1.2940     1.9460   216.2460    16.0181    71.3381   215.9000     8.4548
  3162.60     3.6610     2.6570     3.5600   213.5000    41.3752    63.6715   215.9000     9.2301
  3162.80     5.5240     3.4140     7.7060   213.5000    87.1635    46.4992   215.9000     9.5917
  3163.00     6.0480     2.9250     7.5410   213.5000    60.3201    39.2748   215.9000     9.1327
  3163.20     2.9340     1.6720     4.7700   213.8010    25.3779    34.4688   215.9000     7.6616
  3163.40     2.7490     2.3370     2.6540   214.5000    22.0583    35.3801   215.9000     5.7466
  3163.60     2.8020     2.5170     3.8640   214.5000    21.4681    37.3403   215.9000     4.5117
  3163.80     4.2090     2.6320     4.2060   214.5000    21.0772    39.1571   215.9000     4.7197
  3164.00     1.3020     1.7260     2.7800   214.7000    16.7650    39.0747   215.9000     5.9729
  3164.20     2.1360     2.5000     3.3110   214.5000    32.2129    35.0621   215.9000     7.1792
  3164.40     4.5110     3.8270    16.6060   214.6360   107.4724    29.7240   215.9000     7.7432
  3164.60     5.3230     3.8680    14.0050   214.5000   103.4196    23.6021   215.9000     7.8990
  3164.80     4.0810     4.0110    10.8250   214.5000   101.5790    17.1530   215.9000     7.4784
  3165.00     5.1900     4.0370    11.3050   214.5000   106.2428    12.5838   215.9000     6.2680
  3165.20     4.8960     4.1430    11.3490   214.5000   118.2043    11.3450   215.9000     4.7449
  3165.40     5.2640     3.5530    10.9450   214.5000   184.6398    11.2260   215.9000     3.5522
  3165.60     6.0780     4.6000    20.7650   214.5000   565.9630     9.2576   215.9000     2.9316
  3165.80     7.2420     4.1660    19.7940   214.5000   478.5957     7.9201   215.9000     2.6226
  3166.00     6.2270     4.2970    15.9140   214.5000   542.1511     6.7856   215.9000     2.2697
  3166.20     7.6360     4.4010    14.7540   214.5000  1103.8632     6.1170   215.9000     1.8448
  3166.40     7.6220     3.8440    12.8540   214.5000  1679.9229     5.8524   215.9000     1.4291
  3166.60     6.6360     4.7400    11.7520   214.5000  1190.7690     6.2607   215.9000     1.1860
  3166.80     8.7740     5.4640    12.4850   214.5000   984.1434     6.2986   215.9000     1.2293
  3167.00     9.7210     4.2570     9.2630   214.3000   536.8165     6.4306   215.9000     1.3338
  3167.20     9.6400     4.7690     9.6860   214.5000   586.4719     6.9662   215.9000     1.3851
  3167.40     9.7570     5.2420     9.9800   214.5000   483.2707     7.5608   215.9000     1.3441
  3167.60    11.4290     5.0450    10.1430   214.5000   406.0667     7.9815   215.9000     1.2493
  3167.80    11.2820     5.0550    10.3330   214.5000   335.0533     8.8756   215.9000     1.2032
  3168.00    11.0280     4.8120    12.4770   214.5000   203.6387     9.4574   215.9000     1.2861
  3168.20     8.8960     4.2660     9.0330   214.5000   276.1717    10.2276   215.9000     1.3451
  3168.40    11.5530     5.0190    15.4430   214.5000   318.0171    11.0126   215.9000     1.3526
  3168.60     7.6380     4.4690    13.1210   214.5000   222.9912    11.3226   215.9000     1.4475
  3168.80     7.3730     4.3940    13.4420   214.5000   224.1011    11.9887   215.9000     1.6149
  3169.00     6.5050     4.2340    14.3550   214.5000   102.9281    12.9218   215.9000     1.7230
  3169.20     6.6400     3.7270     9.6870   214.5000    76.1379    14.1969   215.9000     1.6199
  3169.40     4.7650     3.5690     8.4440   214.5000    64.9211    15.0873   215.9000     1.4685
  3169.60     5.0800     3.2250     8.5790   214.5000    60.1286    16.1460   215.9000     1.5476
  3169.80     5.6180     3.4420    11.8940   214.5000    87.2673    16.2821   215.9000     1.8277
  3170.00     6.1360     4.6010    11.4270   214.5000    82.4979    15.9690   215.9000     2.2629
  3170.20     4.8810     3.4210     8.3640   214.5000    64.8115    16.0620   215.9000     2.7128
  3170.40     6.6340     4.3650    12.1570   214.5000   118.9251    14.9867   215.9000     2.9971
  3170.60     7.0970     4.2970    11.3720   214.5000   189.1685    15.4592   215.9000     3.0284
  3170.80     6.5290     3.7720    10.7990   214.5000   133.8815    15.1273   215.9000     2.8268
  3171.00     8.0350     4.5640    11.2790   214.5000   129.0327    14.5777   215.9000     2.4452
  3171.20     7.4030     4.0520    11.4270   214.5000   171.1843    15.2321   215.9000     2.0947
  3171.40     6.2990     4.1380    11.5310   214.5000   197.7260    15.4920   215.9000     1.8891
  3171.60     7.4970     4.1020    10.5270   214.5000   117.3614    15.7685   215.9000     2.0752
  3171.80     7.1550     3.7450     8.3850   214.5000    60.4296    17.1091   215.9000     2.3468
  3172.00     5.4650     3.2920     5.9400   214.5000    46.6656    18.3165   215.9000     2.3783
  3172.20     4.2410     3.1420     6.2360   214.5000    46.2684    20.6509   215.9000     2.3170
  3172.40     6.6330     4.1260     5.6760   214.5000    84.2340    20.3790   215.9000     2.5255
  3172.60     7.1030     4.2370    10.5570   214.5000   157.8827    19.4811   215.9000     3.3061
