~Version information
  VERS.                            1.20: CWLS LAS  -  VERSION 1.20
  WRAP.                              NO: One line per depth step
~Well information
# MNEM.UNIT
# ====.================================:===================
  STRT.M                        3140.00: First depth in file
  STOP.M                        3450.00: Last depth in file
  STEP.M                           0.20: Depth increment
  NULL.                            9999: Null values
  COMP.                         COMPANY: 
  WELL.                            WELL: 115 
  FLD .                           FIELD: íùÑàçëäÄü
  CNTY.                          COUNTY: 
  STAT.                           STATE: 
  DATE.                        LOG DATE: 30-04-04
  SRVC.                 SERVICE COMPANY: 
  UWI.           Unique Well Identifier: 
~Parametr information block
# MNEM.UNIT
# ====.================================:===================
~Other information
# ------------------------- REMARKS  AREA ------------------
~Curve information
# MNEM.UNIT
# ====.================================:===================
  DEPT.M                               : Depth curve
MINV.OHMM                              : äÄÜ.ëéèê.èé åàäêéÉêÄÑàÖçí áéçÑì
MNOR.OHMM                              : äÄÜ.ëéèêéíàÇãÖçàÖ å/èéíÖçñàÄã áéçÑÄ
MLL.OHMM                               : äÄÜ.ëéèê/åàäêéÅéäéÇéâ äÄêéíÄÜ/åä-ìñ
MCAL.MM                                : ÑàÄåÖíê äÄÇÖêçéåÖêÄ åä-ìñ
LL3.OHMM                               : äÄÜ.ëéèêéíàÇãÖçàÖ áéçÑÄ Åä-3 /ÄÅäí
CILA.MMHO                              : áéçÑ àä 7à1.6,Ääí.ëàÉçÄã/àä-è/Äàä-5
BS.                                    : Ñ≠Æ¨=215,9¨¨
GR.UR/H                                : ÖëíÖëíÇÖççÄü ÉÄååÄ-ÄäíàÇçéëíú èé Éä
~ASCII Log Data
# ...
  3402.40     3.6200     3.0340    39.1040   216.5000    56.5091    30.0412   215.9000     1.0448
  3402.60     3.4610     2.9670    33.9680   216.5000    51.8748    28.9762   215.9000     1.0954
  3402.80     4.0650     3.2410    29.5980   216.5000    50.1600    27.7381   215.9000     1.0553
  3403.00     5.7620     3.3700    20.8690   217.5000    52.3953    26.4327   215.9000     0.8802
  3403.20     6.0170     3.3530    22.0530   217.5000    60.3209    24.1572   215.9000     1.0662
  3403.40     6.2900     3.7420    17.3060   217.5000    55.1489    20.7891   215.9000     0.9154
  3403.60     6.2320     3.5400    19.1590   217.5000    53.9096    21.6346   215.9000     0.8488
  3403.80     6.3660     3.4890    15.4680   217.5000    58.6624    20.6763   215.9000     0.8980
  3404.00     6.0330     3.6370    19.3720   217.3250    66.5988    20.2813   215.9000     0.8160
  3404.20     5.9240     3.3930    14.4610   217.5000    55.8367    19.6074   215.9000     0.7089
  3404.40     6.4940     3.5920    14.1540   217.5000    55.5280    21.0814   215.9000     0.8386
  3404.60     6.6590     3.6230    14.2390   217.5000    57.5284    20.0763   215.9000     0.8309
  3404.80     5.7330     3.5260    13.6500   217.5000    53.6538    20.1883   215.9000     0.8112
  3405.00     6.7540     3.4490    20.7460   217.1540    53.6556    17.6583   215.9000     0.8374
  3405.20     7.0010     3.6850    16.9980   217.0000    48.4847    20.7890   215.9000     0.9241
  3405.40     5.8430     3.5740    16.5270   217.0000    44.2076    21.6291   215.9000     0.9876
  3405.60     5.6760     3.1350    12.4250   217.0000    44.2050    20.9488   215.9000     1.0729
  3405.80     5.9800     3.4270    13.8450   217.0000    58.1137    20.5241   215.9000     1.0323
  3406.00     6.0050     3.5470    16.5050   217.2500    80.2040    18.4542   215.9000     1.0227
  3406.20     5.6110     3.6950    21.6180   217.0000    66.6711    14.9174   215.9000     1.0794
  3406.40     6.1840     3.4110    13.8750   217.0000    49.4577    16.8516   215.9000     1.1807
  3406.60     6.0810     3.3910    14.6060   217.0000    46.1242    14.9158   215.9000     1.1532
  3406.80     6.0840     3.5340    13.7450   217.0000    45.6011    16.6145   215.9000     1.1083
  3407.00     5.8230     3.4140    13.0270   217.2500    68.3502    17.5427   215.9000     1.2471
  3407.20     6.1390     3.4390    25.7720   217.0230   167.4088    17.1288   215.9000     1.2221
  3407.40     5.5580     3.5710    53.5400   217.0450   402.7899    13.9473   215.9000     1.0708
  3407.60     5.5340     3.8140    80.4080   217.0000   799.7094    11.6259   215.9000     1.0415
  3407.80     5.5300     3.7680    83.7870   217.0000   553.1564    10.1859   215.9000     0.9242
  3408.00     5.7610     3.5760    59.6550   217.0000   182.1156    13.8279   215.9000     1.0294
  3408.20     3.1230     2.9090    47.2890   216.3490   112.1362    12.6745   215.9000     1.1530
  3408.40     3.1600     2.9290    56.8300   215.3130    78.1693    12.9721   215.9000     1.1807
  3408.60     3.1450     3.0130    39.3460   214.7500    76.0428    15.5121   215.9000     1.0013
  3408.80     3.0330     3.0850    45.0930   214.7500    89.0035    14.5760   215.9000     0.9532
  3409.00     4.9370     3.3350    36.6140   217.8650    68.9659    13.0755   215.9000     1.0086
  3409.20     6.8570     3.7250    24.7920   218.5000    63.8843    14.7428   215.9000     0.9019
  3409.40     6.7390     3.6800    26.3920   218.5000    73.6321    11.8908   215.9000     0.8262
  3409.60     6.3330     3.6280    35.7350   218.5000   136.0457    11.1046   215.9000     0.8740
  3409.80     6.1100     4.0350    74.2380   218.5000   419.0641     9.5464   215.9000     1.0129
  3410.00     6.1740     3.3640   115.6120   218.5000  1460.6270     8.1938   215.9000     1.1362
  3410.20     5.7330     3.1720   159.6600   218.5000  3767.2998     7.4167   215.9000     1.0082
  3410.40     4.6100     2.9150   116.3360   218.5000  3763.2952    10.6985   215.9000     1.0519
  3410.60     4.5840     2.9020    82.1860   218.5000  3582.1169     9.2694   215.9000     1.0989
  3410.80     4.4270     3.3560   106.3600   219.1250  3410.1001     9.9251   215.9000     1.3041
  3411.00     3.9740     3.0290   207.1410   219.5500  3457.8452    13.6842   215.9000     1.2655
  3411.20     3.9390     2.7900    38.2390   217.9970  1656.6102    15.5480   215.9000     1.2170
  3411.40     5.2370     3.1970    51.4820   216.2750   701.8063    18.8846   215.9000     1.1932
  3411.60     5.0760     3.4500    38.0200   215.7500   176.7627    21.9155   215.9000     1.1295
  3411.80     4.8250     3.2690    17.2670   215.5230    50.1796    27.8050   215.9000     1.3024
  3412.00     4.8730     2.8260    13.2510   215.2500    33.6257    31.1922   215.9000     1.1443
  3412.20     4.0320     2.8070    17.5390   215.2500    35.2137    37.5621   215.9000     1.2588
  3412.40     3.9830     3.3220    18.6530   214.5720    44.1965    47.1756   215.9000     1.1616
  3412.60     3.1200     3.0440    26.2840   212.7500    50.5910    51.9159   215.9000     1.2035
  3412.80     3.0910     2.8300    22.1570   212.7500    41.3674    60.8954   215.9000     1.0549
  3413.00     2.8090     2.8040    24.8410   212.7500    44.4284    67.7337   215.9000     0.9336
  3413.20     2.9800     2.9690    23.1960   212.7500    43.7681    77.0135   215.9000     0.8397
  3413.40     3.0330     2.9380    28.2960   212.7500    39.1331    85.4511   215.9000     1.0117
  3413.60     2.8810     2.8440    19.4230   212.7500    20.7656    97.0607   215.9000     1.1400
  3413.80     2.9560     2.7350    14.3440   212.7500    22.5707   108.1625   215.9000     1.1481
  3414.00     2.8040     2.8480    23.3920   212.6130    34.4275   113.9606   215.9000     1.2776
  3414.20     2.3940     2.5880    32.4190   211.5000    23.5588   117.6758   215.9000     1.2112
  3414.40     2.4780     2.4110    10.3530   211.5000    13.1919   123.1320   215.9000     1.5042
  3414.60     2.5460     2.6870     8.5960   212.3000    11.7911   138.5320   215.9000     1.2364
  3414.80     2.6620     2.6700     6.9610   212.7500     8.9502   148.4599   215.9000     1.1173
  3415.00     2.5690     2.4600     5.0730   212.7500     6.8763   163.1206   215.9000     0.8593
  3415.20     2.6060     2.3950     3.7820   212.7500     6.1889   177.7648   215.9000     0.9031
  3415.40     2.6630     2.5150     6.0660   212.7500     9.1251   183.2878   215.9000     0.8918
  3415.60     2.5400     2.5170     6.1440   212.7500    14.2122   169.6120   215.9000     1.0311
  3415.80     2.7740     2.7500    24.5430   212.7500    31.0859   149.8301   215.9000     1.2201
  3416.00     2.5460     2.5620    19.2690   212.7500    31.3331   126.5881   215.9000     1.1710
  3416.20     2.5290     2.5740    16.2220   212.7500    30.9826   110.5378   215.9000     1.2725
  3416.40     2.6610     2.7490    22.2590   212.7500    45.4434   103.4675   215.9000     1.3860
  3416.60     2.8550     2.7960    31.1900   212.7500    69.2392   105.3445   215.9000     1.5435
  3416.80     3.0890     2.8760    33.4250   212.7500    50.1533   106.1766   215.9000     1.2869
  3417.00     2.9340     2.8290    13.8740   212.7500    23.1597   113.2759   215.9000     1.2941
  3417.20     2.7630     2.5580    16.3810   212.7500     8.9043   123.6248   215.9000     1.4593
  3417.40     2.6270     2.3420     3.0920   212.7500     5.5928   149.7623   215.9000     1.3039
  3417.60     2.4660     2.2990     3.4900   213.0000     4.6363   182.8166   215.9000     1.1313
  3417.80     2.2890     2.1080     3.0710   213.0000     4.2468   209.4461   215.9000     1.1481
  3418.00     2.5750     2.2480     2.5890   213.0000     4.3652   233.0804   215.9000     1.3615
  3418.20     2.6790     2.3520     3.6750   213.0000     4.9351   243.0220   215.9000     1.3841
  3418.40     2.9170     2.4170     3.3080   211.7500     6.0637   239.8750   215.9000     1.2409
  3418.60     2.7140     2.5450     5.2530   211.5000     8.1878   214.5073   215.9000     1.0224
