~Version information
  VERS.                            1.20: CWLS LAS  -  VERSION 1.20
  WRAP.                              NO: One line per depth step
~Well information
# MNEM.UNIT
# ====.================================:===================
  STRT.M                        3148.00: First depth in file
  STOP.M                        3438.00: Last depth in file
  STEP.M                           0.20: Depth increment
  NULL.                            9999: Null values
  COMP.                         COMPANY: 
  WELL.                            WELL: 115 
  FLD .                           FIELD: íÌ§®≠·™†Ô
  CNTY.                          COUNTY: 
  STAT.                           STATE: 
  DATE.                        LOG DATE: 28-04-04
  SRVC.                 SERVICE COMPANY: 
  UWI.           Unique Well Identifier: 
~Parametr information block
# MNEM.UNIT
# ====.================================:===================
~Other information
# ------------------------- REMARKS  AREA ------------------
~Curve information
# MNEM.UNIT
# ====.================================:===================
  DEPT.M                               : Depth curve
IZ2.DEG                                : îÄáÄ1(ÉêÄÑ)
IZ3.DEG                                : îÄáÄ2(ÉêÄÑ)
IZ4.DEG                                : îÄáÄ3(ÉêÄÑ)
IZ5.DEG                                : îÄáÄ4(ÉêÄÑ)
IZ1.DEG                                : îÄáÄ5(ÉêÄÑ)
VIK1.OHMM                              : É0.4à0.1à(éåå)
VIK5.OHMM                              : É0.57à0.14à(éåå)
VIK4.OHMM                              : É0.8à0.2à(éåå)
VIK3.OHMM                              : É1.13à0.28à(éåå)
VIK2.OHMM                              : É1.6à0.4à(éåå)
~ASCII Log Data
# ...
  3188.20     8.7750     9.5500     6.7300     5.6800     5.2550    15.7150    12.8550    21.6550    27.8000    30.8000
  3188.40     8.0650     8.4950     5.9850     5.0600     4.9850    17.0350    15.0750    25.9000    33.2300    33.5600
  3188.60     8.0750     8.4050     5.5900     4.4800     4.5550    16.6450    15.0350    27.8550    38.7000    36.5900
  3188.80     7.6950     8.1150     5.3150     4.1300     4.3000    18.5800    16.4250    31.0200    43.4850    39.9200
  3189.00     6.4700     7.1400     4.7550     3.6100     3.9500    22.9650    19.6600    35.9850    50.6300    45.5850
  3189.20     5.9800     6.7400     4.4450     3.2950     3.6500    25.3100    20.9250    37.5050    56.0250    49.5700
  3189.40     5.9800     6.6900     4.4100     3.2550     3.5250    24.7200    20.8750    37.5650    56.7100    50.8350
  3189.60     6.2450     6.9600     4.5150     3.3200     3.4600    22.6650    19.3050    36.6800    54.5450    51.0600
  3189.80     7.1300     7.5950     4.7600     3.5500     3.5050    18.5850    16.6500    32.8150    51.3950    49.6700
  3190.00     8.1550     8.4200     5.2050     3.7800     3.6500    16.6200    14.9800    29.5500    47.6750    48.6500
  3190.20     8.0500     8.3750     5.1650     3.6500     3.6350    18.2850    16.1150    31.3700    50.1300    50.3750
  3190.40     7.3400     7.7550     4.7100     3.3500     3.3650    19.2750    17.6950    35.1200    56.7450    54.3900
  3190.60     7.0500     7.6000     4.5950     3.2000     3.1500    20.3150    17.7050    36.1600    59.5250    58.7150
  3190.80     6.7800     7.5400     4.5750     3.1050     3.0900    21.7450    17.7850    35.9750    60.2150    60.7950
  3191.00     6.6300     7.4050     4.5600     3.1200     3.0450    21.6000    18.1050    35.3750    59.2800    60.3200
  3191.20     6.7900     7.5700     4.7550     3.2600     3.1600    21.1600    17.7600    33.7250    56.0550    58.7550
  3191.40     6.9650     7.6400     4.8450     3.4000     3.3100    21.0100    17.4950    32.3300    52.8950    56.6350
  3191.60     7.0650     7.5900     4.9450     3.5450     3.3750    19.9450    17.2400    31.5850    49.7200    53.7400
  3191.80     7.1650     7.7900     5.1500     3.7000     3.5350    18.4750    16.6400    29.9400    46.4200    50.1200
  3192.00     7.7150     8.3300     5.5250     3.9800     3.8050    16.5350    15.0800    27.2600    42.8300    46.3450
  3192.20     8.3400     8.9150     5.9650     4.2900     4.0100    15.0650    13.4100    25.2100    38.6700    43.0850
  3192.40     8.4600     9.1800     6.2200     4.4950     4.1150    14.6550    12.8600    23.6400    36.4700    41.1150
  3192.60     8.8300     9.5600     6.5300     4.6500     4.2400    13.8500    12.2800    21.8750    35.1450    40.0700
  3192.80     9.2150     9.6850     6.5900     4.7250     4.2850    13.7250    12.2150    21.8850    34.9200    39.7850
  3193.00     8.3500     9.0250     6.1250     4.5000     4.1150    16.5300    14.0300    25.1200    38.3100    42.1050
  3193.20     7.6500     8.4250     5.7100     4.1400     3.8600    17.4450    15.1650    26.8800    41.3300    46.0650
  3193.40     7.4350     8.4050     5.7450     4.0750     3.7450    17.8500    15.2200    26.4300    41.4500    46.7250
  3193.60     6.9750     8.3450     5.6750     4.1250     3.7750    19.8550    15.6350    26.9950    41.8000    45.1000
  3193.80     7.3450     8.4350     5.7050     4.2650     3.9350    18.2200    14.9500    26.1100    39.6850    42.5800
  3194.00     8.0650     8.8200     6.0850     4.5850     4.2150    15.7150    13.8600    24.1800    35.5550    39.2150
  3194.20     8.4400     9.1400     6.2750     4.7900     4.4900    15.2850    13.2500    23.1900    33.7350    36.6750
  3194.40     8.1900     9.0050     6.2000     4.8600     4.6600    15.7450    13.5550    23.5800    33.4600    34.8100
  3194.60     9.0200     9.4550     6.5250     5.0600     4.9200    13.9400    12.5550    21.7750    31.3100    32.5250
  3194.80     9.1800     9.5650     6.7250     5.2600     5.1350    13.6650    12.1600    20.9500    29.5950    30.6950
  3195.00     8.2750     9.2550     6.6300     5.2450     5.1650    15.2000    12.8150    21.7100    29.5300    30.2900
  3195.20     8.8650     9.8250     7.1200     5.5850     5.4050    13.4850    11.5600    18.8550    26.6900    28.2950
  3195.40    10.5000    11.0800     8.1850     6.4000     5.9500    10.7850     9.5800    15.0700    21.9050    24.6500
  3195.60    11.4250    11.9850     8.9300     7.0150     6.4300     9.4450     8.4800    13.3750    19.2150    22.1800
  3195.80    11.2800    12.5450     9.1750     7.2450     6.5550     9.7350     8.4250    13.2500    19.1050    21.6450
  3196.00    10.9400    12.5150     8.9950     7.0700     6.4800    11.0700     8.6950    13.7350    20.0900    22.5150
  3196.20     9.8350    11.1900     8.2850     6.6100     6.2750    12.0550     9.8200    15.4750    21.8650    23.8150
  3196.40     9.4400    10.7100     8.0950     6.4350     6.0700    11.8750    10.2500    15.8400    22.0300    24.1850
  3196.60    10.2400    11.3400     8.5100     6.7500     6.2100    10.7400     9.4700    14.5700    20.3500    22.9800
  3196.80     9.8200    11.5150     8.5900     6.9450     6.4900    12.5650     9.8950    15.0150    20.1900    21.9400
  3197.00     8.9350    10.5300     7.9450     6.6350     6.4950    14.6550    11.3600    16.8900    21.9350    22.3100
  3197.20     8.9650     9.8550     7.5900     6.5500     6.4950    13.2700    11.4950    17.0600    21.6350    22.1100
  3197.40     9.6600    10.7450     8.2900     7.1500     6.9300    11.3850    10.1300    14.8750    18.7300    19.8050
  3197.60    10.5650    12.0000     9.2000     7.8450     7.5850    10.4550     8.7450    12.8400    16.3750    17.0750
  3197.80    11.9550    12.8500    10.0250     8.4550     8.2200     8.2250     7.4150    11.0350    14.4850    15.1050
  3198.00    17.0300    16.0900    12.0700     9.7850     8.9900     5.9800     5.6850     8.6650    11.9600    13.5000
  3198.20    15.7050    15.1350    11.5650     9.6900     9.1900     8.1100     6.8900    10.2700    13.2850    13.5300
  3198.40    12.2850    12.6200    10.0800     8.5800     8.4250     9.6300     7.5800    11.6000    15.3100    15.5350
  3198.60    11.4350    12.0600     9.7850     8.3500     7.8600    10.9550     8.6050    12.5150    15.7850    16.8800
  3198.80    10.9500    11.6950     9.5450     8.1550     7.7750    10.2300     9.0900    12.7750    15.8300    16.7150
  3199.00    11.5050    12.3150     9.9500     8.4000     7.9450     9.5950     8.7550    11.7250    14.8100    16.0700
  3199.20    10.4250    12.3600     9.9600     8.6250     8.2450    11.6600     8.9850    12.0150    14.6500    15.4750
  3199.40    11.8100    13.0550    10.0400     8.7550     8.5000     9.1800     7.4700    11.0950    13.9900    14.8100
  3199.60    11.5750    12.6650    10.1600     9.1100     8.7950     7.3400     7.4500    10.8100    13.3100    13.9100
  3199.80    11.1350    13.1400    10.7000     9.3550     9.0350     9.3600     7.7150    10.5800    12.8850    13.3900
  3200.00    13.5550    14.0650    11.1250     9.5350     9.3550     7.7200     6.7350     9.6000    12.0200    12.6650
  3200.20    12.8450    14.4600    11.6300    10.0400     9.6800     7.3850     6.5250     9.1850    11.3550    11.9500
  3200.40    12.4200    14.6800    11.8200    10.1600     9.7900     9.7900     6.9900     9.3650    11.6250    12.0600
  3200.60    12.6900    13.3200    10.8700     9.6000     9.5450     9.5600     7.6750    10.3100    12.6750    12.6100
  3200.80    13.2000    13.2050    10.8150     9.5250     9.2600     7.6050     7.1500    10.0550    12.4200    12.8200
  3201.00    14.9050    14.4550    11.8200    10.2250     9.5800     5.7050     6.0050     8.6850    10.9200    12.1850
  3201.20    12.9100    13.9600    11.8300    10.4350     9.8250     7.7300     7.2250     9.3150    10.9150    12.1200
  3201.40    12.8700    13.8100    11.2900     9.8500     9.4400     8.2750     7.0700     9.7300    11.9250    13.0000
