~Version information
  VERS.                            1.20: CWLS LAS  -  VERSION 1.20
  WRAP.                              NO: One line per depth step
~Well information
# MNEM.UNIT
# ====.================================:===================
  STRT.M                        3148.00: First depth in file
  STOP.M                        3438.00: Last depth in file
  STEP.M                           0.20: Depth increment
  NULL.                            9999: Null values
  COMP.                         COMPANY: 
  WELL.                            WELL: 115 
  FLD .                           FIELD: íÌ§®≠·™†Ô
  CNTY.                          COUNTY: 
  STAT.                           STATE: 
  DATE.                        LOG DATE: 28-04-04
  SRVC.                 SERVICE COMPANY: 
  UWI.           Unique Well Identifier: 
~Parametr information block
# MNEM.UNIT
# ====.================================:===================
~Other information
# ------------------------- REMARKS  AREA ------------------
~Curve information
# MNEM.UNIT
# ====.================================:===================
  DEPT.M                               : Depth curve
IZ2.DEG                                : îÄáÄ1(ÉêÄÑ)
IZ3.DEG                                : îÄáÄ2(ÉêÄÑ)
IZ4.DEG                                : îÄáÄ3(ÉêÄÑ)
IZ5.DEG                                : îÄáÄ4(ÉêÄÑ)
IZ1.DEG                                : îÄáÄ5(ÉêÄÑ)
VIK1.OHMM                              : É0.4à0.1à(éåå)
VIK5.OHMM                              : É0.57à0.14à(éåå)
VIK4.OHMM                              : É0.8à0.2à(éåå)
VIK3.OHMM                              : É1.13à0.28à(éåå)
VIK2.OHMM                              : É1.6à0.4à(éåå)
~ASCII Log Data
# ...
  3349.00    10.6050    13.7800    13.5000    13.7050    14.1750    10.4350     6.8050     7.1150     6.9200     6.6000
  3349.20    11.2000    14.2300    13.8750    14.0950    14.5200     9.6400     6.4800     6.8500     6.6050     6.3400
  3349.40    11.0600    14.3500    14.0650    14.4100    14.8350    10.0850     6.5250     6.7450     6.4000     6.1000
  3349.60    11.0850    14.3000    14.1450    14.5850    15.0450     9.9400     6.4950     6.5900     6.2800     5.9850
  3349.80    11.5150    14.6750    14.2850    14.6400    15.0300     9.4250     6.2700     6.5200     6.2900     6.0350
  3350.00    11.0150    14.3400    13.8600    14.1150    14.6000    10.2250     6.6700     7.0450     6.8050     6.4350
  3350.20    10.1950    13.2750    12.8950    13.1100    13.7850    11.3200     7.5850     7.9700     7.7050     7.1100
  3350.40     9.2800    12.3550    11.9150    12.1800    12.9250    14.0800     8.7450     9.2100     8.7350     7.8200
  3350.60     9.0250    11.3250    10.8500    11.3900    12.3500    14.2800     9.7250    10.3500     9.6350     8.3500
  3350.80     9.2300    10.8700    10.4250    11.0650    12.0950    12.8700    10.1100    10.7750     9.9050     8.5350
  3351.00     9.3550    11.0150    10.4500    11.0600    12.1200    12.8100     9.9600    10.8150     9.8750     8.5500
  3351.20     9.7900    11.2750    10.3900    11.0350    12.1650    11.9550     9.4350    10.7500     9.9050     8.5200
  3351.40     9.9200    11.6100    10.5300    10.9800    12.0650    12.1200     9.1100    10.6250    10.0350     8.5700
  3351.60     9.9400    11.7600    10.6950    10.8000    11.8750    12.0950     8.9750    10.4250    10.3200     8.8600
  3351.80    10.0850    12.0350    10.8400    10.6850    11.5400    11.5350     8.6400    10.1350    10.5000     9.3000
  3352.00     9.8400    11.9800    10.8150    10.5250    11.0750    12.0100     8.8050    10.3400    10.7900     9.9700
  3352.20     9.5050    11.6600    10.4750    10.2050    10.5850    12.4250     9.1700    10.8850    11.3300    10.8750
  3352.40     9.4800    11.5050    10.1800     9.8600    10.1100    12.8000     9.3150    11.4100    12.0500    11.7450
  3352.60     8.6100    10.7950     9.6450     9.3400     9.5700    15.1100    10.5500    12.7400    13.1450    12.8300
  3352.80     8.6450    10.4450     9.1850     8.7900     9.0250    14.6900    10.8450    13.3650    14.2300    13.9200
  3353.00     9.7450    10.9100     9.2050     8.5350     8.6050    12.2550     9.9800    13.2050    14.9400    14.8300
  3353.20     9.4250    10.6000     8.7450     8.0950     8.1450    13.0750    10.7900    14.6700    16.7100    16.2750
  3353.40     8.5400     9.7050     7.8350     7.2500     7.5050    15.2000    12.6050    17.2100    20.0750    18.6250
  3353.60     7.5800     8.6600     6.9150     6.3800     6.7650    18.3550    15.3600    21.3350    24.2600    21.7100
  3353.80     6.7350     7.5800     5.9300     5.5750     6.0500    21.4650    18.5350    26.5150    28.8350    25.1700
  3354.00     6.2300     6.9800     5.2000     4.9350     5.5750    23.8850    20.4500    31.1900    33.8150    28.3050
  3354.20     5.8950     6.7150     4.8350     4.5200     5.2950    25.2000    21.2450    34.5400    38.1450    30.5100
  3354.40     6.2300     6.8050     4.6450     4.2600     5.0700    22.7000    20.1850    34.7950    40.4500    31.9150
  3354.60     7.4500     7.7850     5.1100     4.3350     5.0450    17.4650    16.3350    30.0100    38.3450    31.7650
  3354.80     8.4050     9.0500     6.0600     4.7050     5.2200    15.0800    13.1950    24.3050    33.8400    30.1150
  3355.00     8.5800     9.3850     6.4200     4.9350     5.3500    14.7800    12.6500    22.6750    31.9300    29.5650
  3355.20     9.6200     9.9900     6.6500     5.1900     5.4450    12.0200    11.3300    20.8550    30.1350    28.7400
  3355.40    10.1900    10.7350     7.1650     5.5250     5.6900    11.3300    10.4500    18.9100    27.7400    26.3300
  3355.60     9.2900    10.2050     7.1250     5.5800     5.9700    13.4100    11.5950    19.6000    26.8750    24.4450
  3355.80     8.9000     9.7450     7.2050     5.9150     6.4000    14.1850    12.1200    18.8350    24.3350    21.9200
  3356.00     8.5750     9.6400     7.8300     6.9650     7.3550    14.2150    12.0900    16.2200    19.3550    17.7450
  3356.20     9.2000    10.5450     9.1450     8.6450     9.0050    12.4700    10.3600    12.7950    14.0150    13.0700
  3356.40    11.2450    12.6800    11.4700    11.0100    11.3300     9.4250     7.5450     8.9050     9.4900     9.1300
  3356.60    12.2450    14.5200    13.9150    13.6900    13.8500     8.4250     6.1300     6.5600     6.7400     6.5800
  3356.80    12.4550    16.2450    16.0300    16.0600    16.0950     8.1800     5.1700     5.2450     5.1700     5.1700
  3357.00    12.8000    17.6000    17.7950    17.6900    17.6900     7.8750     4.5550     4.4800     4.4650     4.4900
  3357.20    12.0850    17.5900    18.3550    18.2800    18.2700     9.1300     4.6950     4.3450     4.3150     4.3000
  3357.40    10.9450    16.7900    17.8450    18.1500    18.3000    10.5600     5.1350     4.5500     4.3550     4.3000
  3357.60    10.9150    15.9050    17.4200    18.3200    18.5200     9.9500     5.4700     4.6950     4.2700     4.1750
  3357.80    11.4650    15.9000    17.6250    19.0550    19.1450     9.1450     5.3600     4.5900     4.0100     3.9050
  3358.00    12.3900    17.0800    18.2350    19.8250    20.0500     8.3150     4.7300     4.2800     3.7200     3.6150
  3358.20    12.5600    18.0800    18.9000    20.4300    20.9450     8.4200     4.3800     4.0500     3.5400     3.3900
  3358.40    11.9250    18.0000    19.1350    20.5950    21.5050     9.2750     4.4500     3.9850     3.5350     3.2450
  3358.60    11.8000    17.9400    19.2850    20.3900    21.6700     8.9800     4.4400     3.9050     3.6100     3.2100
  3358.80    11.7500    17.8650    19.3950    20.0150    21.3950     9.0150     4.5100     3.9300     3.7400     3.3400
  3359.00    10.9700    16.8050    18.6200    19.2250    20.4750    10.2600     5.0350     4.3050     4.0450     3.6550
  3359.20    10.7000    16.1650    17.4500    18.1750    19.1600    10.7150     5.3550     4.7650     4.4550     4.1000
  3359.40    11.3150    16.2300    16.6700    17.3250    18.0700     9.7450     5.2900     5.1050     4.8100     4.5050
  3359.60    10.9800    15.8100    15.8950    16.5600    17.3600    10.1950     5.6450     5.6100     5.2200     4.7850
  3359.80    10.4050    14.9650    14.9600    15.8100    16.9600    10.6950     6.1600     6.1100     5.6000     4.9450
  3360.00    10.5950    14.9350    14.7550    15.6700    17.0850    10.4500     6.0700     6.1450     5.5650     4.8150
  3360.20    11.1300    15.5800    15.4400    16.3700    18.0250     9.7300     5.5400     5.6150     5.0900     4.3350
  3360.40    12.1450    17.1150    16.8900    17.8950    19.6800     8.1900     4.7100     4.7400     4.3500     3.7100
  3360.60    13.4800    19.2300    19.0700    19.7400    21.4600     6.8500     3.8500     3.8950     3.6850     3.1950
  3360.80    14.3300    20.6300    20.7300    20.8550    22.6200     6.4500     3.4550     3.4350     3.3950     2.9400
  3361.00    14.2950    20.8550    21.1200    21.1850    23.0150     6.5350     3.4200     3.3700     3.3300     2.8800
  3361.20    14.3100    20.9150    21.3000    21.4050    23.0600     6.5750     3.4350     3.3350     3.2850     2.9000
  3361.40    13.3500    20.2900    21.1550    21.4650    22.8750     7.5800     3.7050     3.4050     3.2950     2.9650
  3361.60    11.7700    19.0000    20.2950    21.0000    22.2350     9.1550     4.1500     3.6950     3.4450     3.1450
  3361.80    11.0200    17.8650    19.0350    19.9150    21.0200    10.2500     4.6500     4.1750     3.8500     3.5000
  3362.00    10.2850    16.2000    17.2800    18.2000    19.4800    11.6800     5.5650     5.0150     4.5700     4.0000
  3362.20     9.5850    14.5100    15.4500    16.5100    18.0350    12.6800     6.6000     5.9500     5.3200     4.5350
