~Version information
  VERS.                            1.20: CWLS LAS  -  VERSION 1.20
  WRAP.                              NO: One line per depth step
~Well information
# MNEM.UNIT
# ====.================================:===================
  STRT.M                        3148.00: First depth in file
  STOP.M                        3449.00: Last depth in file
  STEP.M                           0.20: Depth increment
  NULL.                            9999: Null values
  COMP.                         COMPANY: 
  WELL.                            WELL: 115 
  FLD .                           FIELD: íÌ§®≠·™†Ô
  CNTY.                          COUNTY: 
  STAT.                           STATE: 
  DATE.                        LOG DATE: 29-04-04
  SRVC.                 SERVICE COMPANY: 
  UWI.           Unique Well Identifier: 
~Parametr information block
# MNEM.UNIT
# ====.================================:===================
~Other information
# ------------------------- REMARKS  AREA ------------------
~Curve information
# MNEM.UNIT
# ====.================================:===================
  DEPT.M                               : Depth curve
SFND.1/CM                              : SFND
SFFD.1/CM                              : SFFD
TCND.                                  : àçíÖÉêÄãúçõâ ëóÖí, åÄãõâ áéçÑ / àçä
TCFD.                                  : àçíÖÉêÄãúçõâ ëóÖí, Å. áéçÑ / àçä
TCNC.                                  : äéåè.àçíÖÉê. ëóÖí, åÄãõâ áéçÑ / àçä
TCFC.                                  : äéåè.àçíÖÉêÄãúçõâ ëóÖí,Å.áéçÑ / àçä
~ASCII Log Data
# ...
  3190.40    13.6290    10.6860  3090.0000   862.0000  3293.0000  2462.0000
  3190.60    13.5670    10.0080  2330.0000   764.0000  2472.0000  1990.0000
  3190.80    14.0060    10.1310  3118.0000  1014.0000  3443.0000  2755.0000
  3191.00    15.2090    11.0780  2239.0000   877.0000  2418.0000  2537.0000
  3191.20    15.3970    11.6630  2097.0000   900.0000  2329.0000  2519.0000
  3191.40    14.8170    11.7010  3099.0000   917.0000  3390.0000  2876.0000
  3191.60    13.2630    11.4240  2651.0000   660.0000  2872.0000  1993.0000
  3191.80    12.7840    10.8440  3371.0000   901.0000  3639.0000  2639.0000
  3192.00    13.0560    11.2100  2348.0000   692.0000  2487.0000  1892.0000
  3192.20    13.8470    11.9780  3394.0000  1013.0000  3615.0000  3002.0000
  3192.40    13.0730    11.6740  2386.0000   833.0000  2552.0000  2136.0000
  3192.60    13.0610    10.7900  2206.0000   769.0000  2309.0000  2101.0000
  3192.80    15.4440    10.5810  3900.0000  1161.0000  4252.0000  3301.0000
  3193.00    14.4170    10.4270  2254.0000   731.0000  2405.0000  2069.0000
  3193.20    13.9970    10.8320  2810.0000   914.0000  3194.0000  2481.0000
  3193.40    13.6670    12.0000  2579.0000   765.0000  2977.0000  2446.0000
  3193.60    14.7360    11.8630  2079.0000   635.0000  2423.0000  1951.0000
  3193.80    16.7350    11.7180  2056.0000   615.0000  2286.0000  2069.0000
  3194.00    17.1460    12.3500  2344.0000   681.0000  2930.0000  2212.0000
  3194.20    15.3590    12.8140  2400.0000   501.0000  2706.0000  1898.0000
  3194.40    13.1290    11.6270  3921.0000   879.0000  4472.0000  3024.0000
  3194.60    13.8070    11.4950  3864.0000  1059.0000  4284.0000  3423.0000
  3194.80    13.8620    11.1850  1697.0000   581.0000  1843.0000  1685.0000
  3195.00    15.4540    10.9920  2136.0000   808.0000  2487.0000  2501.0000
  3195.20    16.3920    11.2970  2136.0000   808.0000  2487.0000  2501.0000
  3195.40    15.4720    11.7250  2018.0000   676.0000  2260.0000  2164.0000
  3195.60    15.2480    12.3900  2380.0000   669.0000  2652.0000  2219.0000
  3195.80    12.5330    13.2680  2109.0000   600.0000  2374.0000  2137.0000
  3196.00    14.7110    13.5700  3177.0000   797.0000  3684.0000  2764.0000
  3196.20    17.8600    14.2000  2480.0000   619.0000  2989.0000  2091.0000
  3196.40    17.8050    14.6520  1394.0000   413.0000  1605.0000  1358.0000
  3196.60    18.9510    14.6590  1302.0000   477.0000  1605.0000  1702.0000
  3196.80    21.1690    16.3430  1191.0000   369.0000  1513.0000  1589.0000
  3197.00    21.5560    18.3440  1310.0000   283.0000  1505.0000  1427.0000
  3197.20    20.9250    17.3990  1406.0000   243.0000  1731.0000  1298.0000
  3197.40    19.6870    16.7820  1414.0000   219.0000  1644.0000  1131.0000
  3197.60    21.0680    15.8810  1351.0000   275.0000  1646.0000  1352.0000
  3197.80    17.7870    16.3250  1598.0000   376.0000  1877.0000  1763.0000
  3198.00    15.9300    17.3460  1524.0000   365.0000  1854.0000  1623.0000
  3198.20    14.4570    15.6570  1718.0000   324.0000  1986.0000  1478.0000
  3198.40    16.7300    15.2350  1902.0000   469.0000  2231.0000  2062.0000
  3198.60    17.6310    16.2730  1254.0000   343.0000  1495.0000  1627.0000
  3198.80    18.8970    16.9270   943.0000   231.0000  1136.0000  1180.0000
  3199.00    23.9530    17.2950   679.0000   166.0000   820.0000   942.0000
  3199.20    25.6890    22.4030   986.0000   136.0000  1199.0000  1028.0000
  3199.40    24.8550    21.0750   808.0000   110.0000   979.0000   766.0000
  3199.60    25.4360    22.7430   955.0000   132.0000  1160.0000   885.0000
  3199.80    25.9210    22.9140   955.0000   132.0000  1160.0000   885.0000
  3200.00    21.6620    19.5180   819.0000   142.0000   953.0000   819.0000
  3200.20    21.9550    18.8800   943.0000   177.0000  1194.0000  1026.0000
  3200.40    23.3340    21.2440   980.0000   157.0000  1259.0000   953.0000
  3200.60    24.2690    20.0230   851.0000   143.0000  1006.0000   859.0000
  3200.80    24.4680    21.2720   840.0000   184.0000  1063.0000  1149.0000
  3201.00    25.4720    21.9360   877.0000   175.0000  1067.0000  1106.0000
  3201.20    26.7030    24.2210   739.0000   129.0000   921.0000   964.0000
  3201.40    24.4990    22.5430   843.0000   159.0000  1086.0000  1081.0000
  3201.60    21.7300    24.2860   699.0000   109.0000   833.0000   655.0000
  3201.80    22.6240    24.2800   821.0000   111.0000  1003.0000   791.0000
  3202.00    20.6650    22.1500   549.0000   117.0000   659.0000   749.0000
  3202.20    22.1150    17.2080   531.0000   108.0000   636.0000   703.0000
  3202.40    23.7280    19.5550   676.0000    77.0000   823.0000   624.0000
  3202.60    25.9850    22.3750   879.0000    97.0000  1126.0000   744.0000
  3202.80    20.3570    20.7770  1125.0000   113.0000  1355.0000   826.0000
  3203.00    20.9680    20.5900  1686.0000   213.0000  1999.0000  1186.0000
  3203.20    18.1120    18.1370  1456.0000   235.0000  1894.0000  1335.0000
  3203.40    15.4760    15.5430  1712.0000   283.0000  1999.0000  1339.0000
  3203.60    15.1140    13.9890  1665.0000   279.0000  1796.0000  1140.0000
  3203.80    15.9520    12.8210  2171.0000   498.0000  2517.0000  1802.0000
  3204.00    15.9820    12.7500  1867.0000   487.0000  2066.0000  1826.0000
  3204.20    15.1240    12.4100  1521.0000   484.0000  1721.0000  1528.0000
  3204.40    15.8380    13.7840  1979.0000   630.0000  2338.0000  2141.0000
  3204.60    16.3850    14.9980  1869.0000   522.0000  2118.0000  1838.0000
  3204.80    18.3140    14.9920  1869.0000   522.0000  2118.0000  1838.0000
  3205.00    17.2660    14.5180  2027.0000   479.0000  2378.0000  1652.0000
  3205.20    16.2920    14.1460  2762.0000   607.0000  3068.0000  2412.0000
  3205.40    15.1850    12.1370  2292.0000   553.0000  2597.0000  2002.0000
  3205.60    17.3720    13.9110  2198.0000   599.0000  2625.0000  2093.0000
  3205.80    17.6790    13.9530  1919.0000   531.0000  2152.0000  1774.0000
  3206.00    18.7370    14.1690  1526.0000   456.0000  1720.0000  1595.0000
  3206.20    19.6580    14.2690  1517.0000   464.0000  1828.0000  1725.0000
  3206.40    18.9750    16.2600  1198.0000   381.0000  1448.0000  1571.0000
  3206.60    17.1690    17.8600  1074.0000   308.0000  1316.0000  1482.0000
  3206.80    14.9250    16.1190  1634.0000   214.0000  1864.0000  1162.0000
  3207.00    13.4520    11.7820  2272.0000   285.0000  2465.0000  1138.0000
  3207.20    12.8850    10.3500  3510.0000   603.0000  3718.0000  1950.0000
  3207.40    12.3640    11.3860  2526.0000   791.0000  2644.0000  2111.0000
  3207.60    15.0510    11.0470  3308.0000  1151.0000  3572.0000  3215.0000
  3207.80    14.1690    11.7160  2647.0000   857.0000  2847.0000  2475.0000
  3208.00    15.1250    13.1910  2311.0000   851.0000  2597.0000  2762.0000
  3208.20    16.1650    12.9550  4579.0000  1008.0000  5572.0000  3626.0000
  3208.40    14.2470    12.6820  3140.0000   668.0000  3320.0000  2084.0000
  3208.60    14.1160    12.0560  3139.0000   868.0000  3359.0000  2372.0000
  3208.80    14.3300    10.9780  4107.0000  1352.0000  4545.0000  3545.0000
  3209.00    13.4270    11.1610  2868.0000   996.0000  3344.0000  2959.0000
  3209.20    14.8300    10.9680  2660.0000   916.0000  2856.0000  2592.0000
  3209.40    14.1780    11.0660  2315.0000   720.0000  2480.0000  2237.0000
  3209.60    15.0420    12.8350  2976.0000   981.0000  3541.0000  3108.0000
  3209.80    16.7730    12.6650  2976.0000   981.0000  3541.0000  3108.0000
  3210.00    16.4850    12.0170  1417.0000   620.0000  1613.0000  1937.0000
  3210.20    22.3990    13.3650   745.0000   305.0000   867.0000  1086.0000
  3210.40    22.1720    17.7640  1168.0000   319.0000  1349.0000  1308.0000
  3210.60    20.2430    19.0350  1210.0000   253.0000  1376.0000  1262.0000
  3210.80    22.7540    18.1090   960.0000   225.0000  1179.0000  1119.0000
  3211.00    24.0600    19.9110   891.0000   222.0000  1093.0000  1232.0000
  3211.20    21.8050    24.0490   762.0000   154.0000   930.0000   987.0000
  3211.40    27.0110    25.0670   700.0000   127.0000   850.0000   866.0000
