~Version information
  VERS.                            1.20: CWLS LAS  -  VERSION 1.20
  WRAP.                              NO: One line per depth step
~Well information
# MNEM.UNIT
# ====.================================:===================
  STRT.M                        3140.00: First depth in file
  STOP.M                        3450.00: Last depth in file
  STEP.M                           0.20: Depth increment
  NULL.                            9999: Null values
  COMP.                         COMPANY: 
  WELL.                            WELL: 115 
  FLD .                           FIELD: íùÑàçëäÄü
  CNTY.                          COUNTY: 
  STAT.                           STATE: 
  DATE.                        LOG DATE: 30-04-04
  SRVC.                 SERVICE COMPANY: 
  UWI.           Unique Well Identifier: 
~Parametr information block
# MNEM.UNIT
# ====.================================:===================
~Other information
# ------------------------- REMARKS  AREA ------------------
~Curve information
# MNEM.UNIT
# ====.================================:===================
  DEPT.M                               : Depth curve
MINV.OHMM                              : äÄÜ.ëéèê.èé åàäêéÉêÄÑàÖçí áéçÑì
MNOR.OHMM                              : äÄÜ.ëéèêéíàÇãÖçàÖ å/èéíÖçñàÄã áéçÑÄ
MLL.OHMM                               : äÄÜ.ëéèê/åàäêéÅéäéÇéâ äÄêéíÄÜ/åä-ìñ
MCAL.MM                                : ÑàÄåÖíê äÄÇÖêçéåÖêÄ åä-ìñ
LL3.OHMM                               : äÄÜ.ëéèêéíàÇãÖçàÖ áéçÑÄ Åä-3 /ÄÅäí
CILA.MMHO                              : áéçÑ àä 7à1.6,Ääí.ëàÉçÄã/àä-è/Äàä-5
BS.                                    : Ñ≠Æ¨=215,9¨¨
GR.UR/H                                : ÖëíÖëíÇÖççÄü ÉÄååÄ-ÄäíàÇçéëíú èé Éä
~ASCII Log Data
# ...
  3271.20     6.4060     4.0280    39.6050   216.5000   209.4611     8.6799   215.9000     0.8140
  3271.40     5.6410     3.7860    34.0600   216.5000   126.9019     8.6025   215.9000     0.9182
  3271.60     4.9780     4.0140    28.0830   216.5000   117.8337     9.0138   215.9000     1.1014
  3271.80     3.4080     3.4210    45.7880   214.8500    98.4650     9.8651   215.9000     1.2626
  3272.00     3.6600     3.3390    35.0360   214.9000    97.1669    10.9506   215.9000     1.3096
  3272.20     3.4570     3.3510    34.1900   215.4510   133.5584    10.8843   215.9000     1.2556
  3272.40     3.9830     3.5180    54.3270   216.5250   249.1671     9.6790   215.9000     1.1036
  3272.60     6.8590     4.6320    85.2360   218.5790   662.0625     7.8619   215.9000     0.8988
  3272.80     6.2260     3.7110   247.5220   219.2500  2065.8394     5.6934   215.9000     0.7388
  3273.00     6.8170     4.8390   157.9900   219.3520  5500.1885     2.7429   215.9000     0.6815
  3273.20     5.0190     4.1770   167.7160   219.1010  5862.4263     2.1999   215.9000     0.7339
  3273.40     4.5630     3.0570   499.9180   220.1870  4332.0430     3.0925   215.9000     0.8615
  3273.60     4.6730     2.9400   219.7780   219.3750  2673.1865     3.1606   215.9000     1.1707
  3273.80     5.2600     3.5120   113.5840   219.3020  2757.8091     3.5628   215.9000     1.4534
  3274.00     6.0820     5.1360   162.4180   218.5000  3571.2305     4.0451   215.9000     1.5325
  3274.20     7.2400     4.3620   134.4050   218.5450  4884.4282     2.4167   215.9000     1.4200
  3274.40     4.2520     3.1420    97.3620   222.0850  5076.8125     2.1666   215.9000     1.2444
  3274.60     2.5260     2.1550    31.8340   229.3190  5291.1494     2.8078   215.9000     1.1504
  3274.80     1.5700     1.7550    15.1180   232.8000  4491.9990     0.3704   215.9000     1.0178
  3275.00     1.2470     1.6090    10.1200   230.6170  2786.1619     1.2776   215.9000     0.8555
  3275.20     1.2550     1.7090    18.1350   239.8920  2384.8643     5.8587   215.9000     0.7521
  3275.40     1.1840     1.7150    20.7260   242.2570  3363.5693     8.2444   215.9000     0.7821
  3275.60     1.3370     1.8450    19.9210   242.1600  5007.2759     9.1805   215.9000     0.9416
  3275.80     2.3660     1.8770    14.5400   227.2500  2495.5864     7.4037   215.9000     1.0711
  3276.00     2.0930     2.2210     8.9230   224.3490  2203.5786     9.2752   215.9000     1.1506
  3276.20     2.5340     1.5880    29.4460   218.4110  1293.9889    10.5168   215.9000     1.2032
  3276.40     2.7850     2.4070    13.3060   219.5420   273.3706    14.8253   215.9000     1.2619
  3276.60     3.0500     2.2580    28.1620   218.3330    93.1226    13.5014   215.9000     1.2352
  3276.80     3.8030     2.5710    36.7420   217.3180    94.0845    16.2017   215.9000     1.1211
  3277.00     3.8810     3.4350    34.8840   215.4500    79.7036    19.3806   215.9000     1.0274
  3277.20     3.8170     3.3420    26.4050   214.7500    66.1613    20.4378   215.9000     1.0374
  3277.40     3.5720     3.2870    25.7940   214.7500    51.4654    22.2572   215.9000     1.0626
  3277.60     3.2390     3.1730    19.4850   214.5000    49.0401    21.9282   215.9000     1.0302
  3277.80     3.5380     3.0770    20.5590   214.5000    55.6297    22.7269   215.9000     0.9336
  3278.00     3.3870     3.0630    19.2990   214.7500    50.8352    20.3866   215.9000     0.8069
  3278.20     3.3380     3.1280    18.7360   214.7500    51.5390    18.6026   215.9000     0.7295
  3278.40     3.4240     3.1630    17.7290   214.6590    57.9352    19.3875   215.9000     0.7444
  3278.60     3.5580     3.1410    21.8620   214.5000    58.3778    17.0014   215.9000     0.8502
  3278.80     3.4980     3.1420    18.5150   214.5000    86.0234    15.1117   215.9000     0.9086
  3279.00     3.9940     3.6090    25.5840   214.9500   154.1783    13.9763   215.9000     0.8587
  3279.20     6.4870     4.1010    25.6480   216.5000   217.9200    11.6695   215.9000     0.7790
  3279.40     8.1380     4.1520    30.7030   216.5000   311.2253    11.9391   215.9000     0.8220
  3279.60     6.9940     3.9560    34.7250   216.5000   428.7693     8.5416   215.9000     0.8990
  3279.80     6.7340     3.8180    40.6450   216.7500   831.8633     8.1502   215.9000     0.9398
  3280.00     6.8240     3.3830    40.3060   216.5000   561.1286     7.0303   215.9000     0.9761
  3280.20     7.4470     4.1740    35.4860   216.5000   306.7992     7.7120   215.9000     1.0158
  3280.40     6.0140     3.8070    35.5470   216.5000   189.3076     7.7951   215.9000     1.0070
  3280.60     6.8200     3.3640    32.7810   216.3410   168.1954    11.8227   215.9000     0.9097
  3280.80     3.9230     3.3700    39.4320   216.0000   170.8327    10.4846   215.9000     0.8695
  3281.00     6.7290     3.7530    25.6000   216.5000   158.8876    12.9856   215.9000     0.9592
  3281.20     6.8880     4.1660    26.9660   216.5000   175.4100    13.3615   215.9000     1.0196
  3281.40     7.7350     4.3360    29.0200   216.5000   161.9760    13.0053   215.9000     0.9892
  3281.60     6.6110     3.8480    29.7670   216.5000   154.5255    11.9461   215.9000     0.9376
  3281.80     7.3580     3.7510    32.2490   216.5000   162.3063    14.0337   215.9000     0.9725
  3282.00     4.6090     3.4350    49.7120   216.3250   124.2273    12.9260   215.9000     1.0794
  3282.20     4.1740     3.3750    43.4490   215.7500    94.1609    14.4706   215.9000     1.1425
  3282.40     3.9700     3.4810    35.2880   215.5000   107.8925    16.4199   215.9000     1.1117
  3282.60     4.2740     3.5680    36.7760   215.7500    92.6438    17.0883   215.9000     1.0469
  3282.80     3.7330     3.4280    28.9980   215.7500    84.8203    16.4409   215.9000     1.0031
  3283.00     4.0200     3.4270    29.8130   216.2500    73.4651    15.9180   215.9000     0.9283
  3283.20     3.6460     3.3780    22.3770   215.0000    74.7345    15.0771   215.9000     0.8941
  3283.40     3.6490     3.3700    22.4760   215.0000    91.9154    15.6737   215.9000     0.8791
  3283.60     3.7700     3.4030    30.3460   214.9550    99.6038    15.0703   215.9000     0.8969
  3283.80     3.7190     3.4530    21.6140   214.7500   122.1275    15.2025   215.9000     0.8568
  3284.00     3.6140     3.2970    39.4070   215.2050    94.6834    14.4016   215.9000     0.8591
  3284.20     3.6490     3.1760    26.9300   215.0000    76.2679    15.2185   215.9000     0.9986
  3284.40     3.5440     3.2440    23.2810   215.0000    75.9314    15.0362   215.9000     1.0876
  3284.60     3.5690     3.2170    22.9750   215.1040    80.7438    15.6845   215.9000     1.1149
  3284.80     3.7910     3.2900    24.7440   215.2500    73.4185    15.3539   215.9000     1.0519
  3285.00     3.4950     3.2300    22.2350   215.2500    73.4461    16.4616   215.9000     0.9899
  3285.20     3.6430     3.2840    21.2680   215.2500   104.2799    16.2596   215.9000     0.9246
  3285.40     4.1900     3.8490    31.1840   215.7050   251.8580    16.1875   215.9000     0.8022
  3285.60     5.8050     3.6150    53.2540   216.5620   255.2516    16.3805   215.9000     0.7937
  3285.80     3.9560     3.5580    60.0390   214.9500   184.7504    15.3765   215.9000     0.9075
  3286.00     4.0640     3.5620    45.9200   214.7500   137.0576    12.9434   215.9000     1.0089
  3286.20     3.7610     3.2950    40.8910   214.7500   123.8305    17.0196   215.9000     0.9637
  3286.40     3.6380     3.4370    35.8520   214.7500   114.2248    16.3867   215.9000     0.8431
  3286.60     3.5320     3.2040    32.9020   214.7500    79.6921    17.6502   215.9000     0.8325
  3286.80     3.5410     3.3130    22.1850   214.7500    55.1991    20.1368   215.9000     0.9785
  3287.00     3.3970     3.1840    17.2740   214.7500    59.0238    20.8118   215.9000     1.0421
  3287.20     3.6690     3.2650    18.7000   214.7500    64.1265    22.1851   215.9000     0.9829
  3287.40     3.5560     3.2480    18.3950   214.7500    56.5462    22.7566   215.9000     0.8836
