~Version information
  VERS.                            1.20: CWLS LAS  -  VERSION 1.20
  WRAP.                              NO: One line per depth step
~Well information
# MNEM.UNIT
# ====.================================:===================
  STRT.M                        3148.00: First depth in file
  STOP.M                        3449.00: Last depth in file
  STEP.M                           0.20: Depth increment
  NULL.                            9999: Null values
  COMP.                         COMPANY: 
  WELL.                            WELL: 115 
  FLD .                           FIELD: íÌ§®≠·™†Ô
  CNTY.                          COUNTY: 
  STAT.                           STATE: 
  DATE.                        LOG DATE: 29-04-04
  SRVC.                 SERVICE COMPANY: 
  UWI.           Unique Well Identifier: 
~Parametr information block
# MNEM.UNIT
# ====.================================:===================
~Other information
# ------------------------- REMARKS  AREA ------------------
~Curve information
# MNEM.UNIT
# ====.================================:===================
  DEPT.M                               : Depth curve
SFND.1/CM                              : SFND
SFFD.1/CM                              : SFFD
TCND.                                  : àçíÖÉêÄãúçõâ ëóÖí, åÄãõâ áéçÑ / àçä
TCFD.                                  : àçíÖÉêÄãúçõâ ëóÖí, Å. áéçÑ / àçä
TCNC.                                  : äéåè.àçíÖÉê. ëóÖí, åÄãõâ áéçÑ / àçä
TCFC.                                  : äéåè.àçíÖÉêÄãúçõâ ëóÖí,Å.áéçÑ / àçä
~ASCII Log Data
# ...
  3317.60    12.2670     9.0030  6058.0000  1284.0000  6046.0000  2700.0000
  3317.80    12.2810     9.1260  6828.0000  1363.0000  7300.0000  2915.0000
  3318.00    12.4350     8.5630  6424.0000  1381.0000  6885.0000  3074.0000
  3318.20    12.9430     8.6080  5385.0000  1227.0000  5590.0000  2717.0000
  3318.40    13.2550     9.0520  6013.0000  1067.0000  6572.0000  2395.0000
  3318.60    13.4140     9.8580  4684.0000   889.0000  4913.0000  2131.0000
  3318.80    13.4020    10.3270  5485.0000   893.0000  5692.0000  2238.0000
  3319.00    12.7530    10.3730  6812.0000   992.0000  7257.0000  2340.0000
  3319.20    12.1550     8.6550  5045.0000   780.0000  5356.0000  1801.0000
  3319.40    13.6940     9.7250  5318.0000   802.0000  5796.0000  1890.0000
  3319.60    13.2360    10.0140  5838.0000   748.0000  6227.0000  1852.0000
  3319.80    12.9020     9.2660  5803.0000   783.0000  6152.0000  2012.0000
  3320.00    14.0960     9.1080  7576.0000   912.0000  8220.0000  2413.0000
  3320.20    14.0790    10.9500  7091.0000  1022.0000  7819.0000  2429.0000
  3320.40    14.3910    11.5450  6903.0000   862.0000  7185.0000  2151.0000
  3320.60    12.2490    11.1920  5543.0000   726.0000  5966.0000  1865.0000
  3320.80    13.7600    11.0460  9113.0000   985.0000 10822.0000  2629.0000
  3321.00    13.1160    10.5840  7445.0000   913.0000  8451.0000  2399.0000
  3321.20    13.2220     9.7690  6119.0000   861.0000  6387.0000  2268.0000
  3321.40    12.2090    10.3490  4225.0000   771.0000  4534.0000  1857.0000
  3321.60    12.5430    10.0310  5778.0000   853.0000  6162.0000  2224.0000
  3321.80    13.8050     9.9580  4899.0000   815.0000  5065.0000  1969.0000
  3322.00    12.1270    10.2940  6245.0000   998.0000  7054.0000  2446.0000
  3322.20    13.0950    10.3570  6245.0000   998.0000  7054.0000  2446.0000
  3322.40    13.2630    10.3980  4548.0000   756.0000  4711.0000  1860.0000
  3322.60    12.7460    10.1870  6080.0000  1004.0000  6355.0000  2402.0000
  3322.80    13.4680    10.1610  6664.0000   917.0000  6852.0000  2262.0000
  3323.00    14.8430    10.4980  7506.0000  1001.0000  8228.0000  2462.0000
  3323.20    14.6460    10.7540  5505.0000   795.0000  6108.0000  2008.0000
  3323.40    12.9480    10.7760  6698.0000   871.0000  7297.0000  2127.0000
  3323.60    13.3240    10.5010  6366.0000   874.0000  6497.0000  2201.0000
  3323.80    14.0610    10.8580  6118.0000   756.0000  6850.0000  1994.0000
  3324.00    13.8070    11.2990  6251.0000   796.0000  6561.0000  1996.0000
  3324.20    13.6690    10.0390  6826.0000   741.0000  7428.0000  1872.0000
  3324.40    13.5650    10.0670  5221.0000   719.0000  5902.0000  1839.0000
  3324.60    14.3230     9.7000  6464.0000   825.0000  7225.0000  2051.0000
  3324.80    15.2800    10.2060  6746.0000   850.0000  7839.0000  2155.0000
  3325.00    14.2750    10.5500  6053.0000   942.0000  6506.0000  2324.0000
  3325.20    13.7180    10.3520  6278.0000   962.0000  6673.0000  2301.0000
  3325.40    11.3000    10.7400  4923.0000   830.0000  5167.0000  1994.0000
  3325.60    12.7240    11.1470  6151.0000   984.0000  6962.0000  2465.0000
  3325.80    11.6230     9.7970  5053.0000   816.0000  5326.0000  1930.0000
  3326.00    12.7800    10.1630  8266.0000  1003.0000  9109.0000  2523.0000
  3326.20    13.3510     9.8010  6310.0000   955.0000  7028.0000  2378.0000
  3326.40    11.9460    10.6620  5377.0000   865.0000  5581.0000  2014.0000
  3326.60    13.1300    10.8840  5709.0000   824.0000  6092.0000  2079.0000
  3326.80    12.7310    10.3300  5953.0000   832.0000  6281.0000  2210.0000
  3327.00    12.5580    10.2870  5929.0000   730.0000  6333.0000  1884.0000
  3327.20    13.0490    10.5310  5929.0000   730.0000  6333.0000  1884.0000
  3327.40    13.5290    10.4770  5640.0000   826.0000  5887.0000  2141.0000
  3327.60    12.1030    10.3180  6896.0000   921.0000  8167.0000  2416.0000
  3327.80    13.4480    11.1850  5314.0000   741.0000  5682.0000  1865.0000
  3328.00    12.9810    11.8920  5611.0000   813.0000  5825.0000  2001.0000
  3328.20    13.9570    11.5580  4874.0000   696.0000  5115.0000  1735.0000
  3328.40    13.6870    11.0980  8784.0000  1044.0000 10558.0000  2675.0000
  3328.60    13.3400    10.9510  5557.0000   818.0000  5769.0000  1969.0000
  3328.80    13.4170    11.0280  9680.0000  1177.0000 10078.0000  3045.0000
  3329.00    12.9260     9.9470  6192.0000  1003.0000  6489.0000  2556.0000
  3329.20    12.0500     9.0860  4653.0000  1040.0000  4796.0000  2443.0000
  3329.40    11.6940     8.8670  5264.0000  1292.0000  5506.0000  3066.0000
  3329.60    14.0200     8.6660  7589.0000  1765.0000  7903.0000  4034.0000
  3329.80    11.4150     8.4370  5559.0000  1528.0000  5836.0000  3411.0000
  3330.00    13.1950     9.1600  5439.0000  1560.0000  5884.0000  3686.0000
  3330.20    13.1330     8.8510  3434.0000  1047.0000  3430.0000  2293.0000
  3330.40    12.5940     8.7880  5324.0000  1221.0000  5742.0000  2801.0000
  3330.60    12.8970     8.9070  5101.0000  1117.0000  5450.0000  2747.0000
  3330.80    13.5110     9.6050  6108.0000  1287.0000  6853.0000  3129.0000
  3331.00    13.5720    10.0210  6791.0000  1640.0000  7361.0000  4075.0000
  3331.20    12.9640    10.0550  5094.0000  1483.0000  5730.0000  3500.0000
  3331.40    11.9880     9.9810  4906.0000  1512.0000  5431.0000  3936.0000
  3331.60    12.3110    10.7300  2401.0000   968.0000  2437.0000  2334.0000
  3331.80    11.7730    10.4720  4283.0000  1421.0000  4543.0000  3780.0000
  3332.00     9.9520     9.0010  5908.0000  1604.0000  5946.0000  3979.0000
  3332.20    11.5430     8.2490  5908.0000  1604.0000  5946.0000  3979.0000
  3332.40    11.1620     8.2780  5966.0000  1779.0000  5902.0000  4258.0000
  3332.60    11.1480     9.1050  4481.0000  1879.0000  4609.0000  4246.0000
  3332.80    10.8060     8.6940  5149.0000  2010.0000  5111.0000  4635.0000
  3333.00    11.0180     8.6010  5621.0000  1984.0000  5858.0000  4601.0000
  3333.20    10.7570     8.5010  3814.0000  1442.0000  3885.0000  3214.0000
  3333.40    11.5870     8.6870  4594.0000  1621.0000  4631.0000  3765.0000
  3333.60    12.0430     9.2070  5051.0000  1771.0000  5470.0000  3951.0000
  3333.80    12.1720     9.1540  4884.0000  1721.0000  5166.0000  3944.0000
  3334.00    12.2580     8.7820  4879.0000  1452.0000  5165.0000  3379.0000
  3334.20    10.5880     8.8820  6423.0000  1678.0000  6754.0000  3780.0000
  3334.40    11.7810     9.8030  5271.0000  1375.0000  5417.0000  2856.0000
  3334.60    13.7330     8.8820  8532.0000  1446.0000  9707.0000  3227.0000
  3334.80    12.1500     8.5260  5305.0000  1041.0000  5505.0000  2271.0000
  3335.00    11.7900     8.7250  8138.0000  1521.0000  9273.0000  3277.0000
  3335.20    11.4350     9.0760  6368.0000  1140.0000  6520.0000  2421.0000
  3335.40    12.0060     8.9230  6981.0000  1221.0000  7684.0000  2832.0000
  3335.60    12.5730     9.0890  5373.0000   923.0000  5714.0000  2044.0000
  3335.80    13.2570     9.0020  8567.0000  1040.0000 10594.0000  2631.0000
  3336.00    13.5930    10.0130  5672.0000   765.0000  5914.0000  1883.0000
  3336.20    12.9110    11.1590  6258.0000   685.0000  7431.0000  1883.0000
  3336.40    13.2260    11.5940  7185.0000   945.0000  7410.0000  2357.0000
  3336.60    13.4980    11.4160  4878.0000   683.0000  5568.0000  1775.0000
  3336.80    13.4330     9.8500  5288.0000   787.0000  5498.0000  1811.0000
  3337.00    12.9460    10.7120  4617.0000   623.0000  4834.0000  1577.0000
  3337.20    13.2030    10.8770  4617.0000   623.0000  4834.0000  1577.0000
  3337.40    13.4690    10.4360  6840.0000   801.0000  7380.0000  1942.0000
  3337.60    12.5560    10.4500  5593.0000   760.0000  6006.0000  1820.0000
  3337.80    13.5900    10.3650  6140.0000   772.0000  6334.0000  1818.0000
  3338.00    13.6330     9.9270  5746.0000   722.0000  6184.0000  1729.0000
  3338.20    13.8320     9.6160  7745.0000   870.0000  8357.0000  2247.0000
  3338.40    12.9420     9.4340  6393.0000   739.0000  7118.0000  1816.0000
  3338.60    12.8840    10.0250  4647.0000   626.0000  4962.0000  1565.0000
