~Version Information
#-------------------
Vers.        2.0: CWLS log ASCII Standart - VERSION 2.0
WRAP.         NO: One line per depth step
~Well Information Block
#----------------------
#MNEM.UNIT  VALUE: DESCRIPTION
#----.---- -------: -------------
STRT.M     90.00: 
STOP.M    460.00: 
STEP.M      0.20:  
NULL.  -9999.990:  
COMP.           : 
WELL.           : 115
FLD .           : Тэдинская
LOC .           : 
CNTY.           : 
SRVC.           : 
DATE.           : 21-03-04
UWI .           : 
~Parameter Information
#---------------------
#MNEM.UNIT  VALUE: DESCRIPTION
#----.---- -------: ---------------
~Curve Information Block
#-----------------------
#MNEM.UNIT       : CURVE DESCRIPTION
#----.----       : -----------------
DEPT.M          : 
Aя  .           : Амплитуда - волна по колонне 
Tя  .мкс        : Время пробега - волна по породе
Aъ  .           : Амплитуда - волна по породе
DK  .дБ         : Затухание
akz .           : контакт цемент-колонна
~Other Information
#-----------------
~Ascii Log Data
# ...
       162     27.397   1546.481          0     62.292          4 
     162.2     30.822   1558.915      9.458     62.292          4 
     162.4     27.397   1604.089      9.458     62.292          4 
     162.6     19.672   1568.714          0     62.292          4 
     162.8     65.684     1537.9          0     62.292          4 
       163     80.935   1537.013          0     62.292          4 
     163.2     60.209   1551.604          8     53.091          4 
     163.4     58.135   1570.318         16     43.889          4 
     163.6     36.303   1573.327          0     62.292          4 
     163.8     23.973   1593.359          0     62.292          4 
       164     20.548   1596.776          0     62.292          4 
     164.2     31.826   1619.592          0     62.292          4 
     164.4     37.615   1542.626          0     62.292          4 
     164.6     51.247   1269.298          0     62.292          4 
     164.8     68.493    954.322     16.708     47.186          4 
       165     71.918    737.627     53.717     27.852          4 
     165.2     61.644    682.862     59.793     27.809          4 
     165.4     47.945    701.341     23.359     36.935          4 
     165.6      51.37    728.346     18.958     37.032          4 
     165.8     54.795    907.638      34.47     32.012          4 
       166     61.644   1305.268     29.778     33.835          4 
     166.2      51.37   1492.611     19.097     36.682          4 
     166.4      51.37   1316.962     20.483     36.066          4 
     166.6     58.219    860.283         23     35.075          4 
     166.8     54.795    834.228     40.679     30.553          4 
       167     49.081   1254.948     23.548     42.123          4 
     167.2     96.705   1582.779          0     62.292          4 
     167.4     97.787   1595.998          0     62.292          4 
     167.6     63.513   1581.218          0     62.292          4 
     167.8     64.757   1550.711          0     62.292          4 
       168      78.13    1542.32          0     62.292          4 
     168.2     47.418   1574.527          0     62.292          4 
     168.4      9.206   1556.913          0     62.292          4 
     168.6      3.375   1280.053          0     62.292          4 
     168.8     19.491    916.139          0     62.292          4 
       169     54.325    785.508          0     62.292          4 
     169.2     96.569    768.458          0     62.292          4 
     169.4    116.188    768.705          0     62.292          4 
     169.6    113.985    769.567          0     62.292          4 
     169.8    108.559    770.592          0     62.292          4 
       170    109.806    771.865          0     62.292          4 
     170.2      92.97    770.558          0     62.292          4 
     170.4     49.348    755.584          0     62.292          4 
     170.6     44.227    751.666          0     62.292          4 
     170.8     92.582      772.7          0     62.292          4 
       171    131.947    777.461          0     62.292          4 
     171.2    133.855    778.369          0     62.292          4 
     171.4    128.061    778.649          0     62.292          4 
     171.6    123.611    778.624          0     62.292          4 
     171.8    127.745    777.575          0     62.292          4 
       172    130.715    776.636          0     62.292          4 
     172.2    119.224    775.848          0     62.292          4 
     172.4     99.323    774.863          0     62.292          4 
     172.6     72.702    775.569          0     62.292          4 
     172.8     33.224    960.068          0     62.292          4 
       173     47.945   1364.954          0     62.292          4 
     173.2     27.397    1419.71          0     62.292          4 
     173.4     23.973   1456.513          0     62.292          4 
     173.6     23.973   1551.144          0     62.292          4 
     173.8     32.537   1612.731          0     62.292          4 
       174     29.781   1619.775          0     62.292          4 
     174.2     30.822    1603.16          0     62.292          4 
     174.4     30.822   1647.521          0     62.292          4 
     174.6     27.397   1626.743          0     62.292          4 
     174.8     14.383   1626.777          0     62.292          4 
       175     90.565    1623.81          0     62.292          4 
     175.2    141.979   1598.193          0     62.292          4 
     175.4    111.946   1579.838          0     62.292          4 
     175.6     76.825   1528.969          0     62.292          4 
     175.8     87.045   1478.561          0     62.292          4 
       176    106.491   1471.989          0     62.292          4 
     176.2    111.108   1467.206          0     62.292          4 
     176.4    101.424   1466.669          0     62.292          4 
     176.6    101.025   1467.328          0     62.292          4 
     176.8     117.77   1470.079          0     62.292          4 
       177    120.374   1476.955      1.681     57.608          4 
     177.2    110.784    1479.05      3.361     52.925          4 
     177.4    102.791   1481.215          0     62.292          4 
     177.6     89.159    1480.18          0     62.292          4 
     177.8      69.88   1514.607      9.042     52.736          4 
       178     89.412   1575.318     18.083     43.181          4 
     178.2    106.614   1587.358          0     62.292          4 
     178.4     74.735   1569.541          0     62.292          4 
     178.6      22.68    1550.23          0     62.292          4 
     178.8     18.056   1542.485      5.008     62.292          4 
       179     58.054   1494.503      5.008     62.292          4 
     179.2     77.502    1486.45          0     62.292          4 
     179.4     54.398   1530.967          0     62.292          4 
     179.6     55.113   1593.291          0     62.292          4 
     179.8     98.574   1591.842          0     62.292          4 
       180    134.121   1596.559          0     62.292          4 
     180.2    123.776   1617.185          0     62.292          4 
     180.4    111.949   1594.209          0     62.292          4 
     180.6     127.47   1562.713          0     62.292          4 
     180.8     94.354   1580.498          0     62.292          4 
       181     29.561   1592.809          0     62.292          4 
     181.2      51.37   1597.836          0     62.292          4 
     181.4     75.342   1600.512          0     62.292          4 
     181.6      51.37   1534.371          0     62.292          4 
     181.8     20.548   1497.159          0     62.292          4 
       182     30.822   1538.902          0     62.292          4 
     182.2      51.37   1552.213          6     49.569          4 
     182.4     71.918   1577.079          3     55.931          4 
     182.6     27.397   1585.887          0     62.292          4 
     182.8     27.397   1535.187          0     62.292          4 
       183     20.548   1516.027          0     62.292          4 
     183.2     20.548   1568.428          0     62.292          4 
     183.4     66.359   1620.169          0     62.292          4 
     183.6     99.654   1610.457          0     62.292          4 
     183.8      71.29   1594.883          0     62.292          4 
       184     23.442   1602.369          0     62.292          4 
     184.2     13.666    1584.85          0     62.292          4 
     184.4     40.941   1532.042          0     62.292          4 
     184.6     63.457   1501.227          0     62.292          4 
     184.8     54.091   1532.739          0     62.292          4 
       185     58.109   1594.425          0     62.292          4 
     185.2     98.746   1602.397          0     62.292          4 
     185.4    109.564   1599.795          0     62.292          4 
     185.6     78.639   1589.594          0     62.292          4 
     185.8     74.918   1537.333          0     62.292          4 
