~Version information
  VERS.                            1.20: CWLS LAS  -  VERSION 1.20
  WRAP.                              NO: One line per depth step
~Well information
# MNEM.UNIT
# ====.================================:===================
  STRT.M                        3148.00: First depth in file
  STOP.M                        3449.00: Last depth in file
  STEP.M                           0.20: Depth increment
  NULL.                            9999: Null values
  COMP.                         COMPANY: 
  WELL.                            WELL: 115 
  FLD .                           FIELD: íÌ§®≠·™†Ô
  CNTY.                          COUNTY: 
  STAT.                           STATE: 
  DATE.                        LOG DATE: 29-04-04
  SRVC.                 SERVICE COMPANY: 
  UWI.           Unique Well Identifier: 
~Parametr information block
# MNEM.UNIT
# ====.================================:===================
~Other information
# ------------------------- REMARKS  AREA ------------------
~Curve information
# MNEM.UNIT
# ====.================================:===================
  DEPT.M                               : Depth curve
SFND.1/CM                              : SFND
SFFD.1/CM                              : SFFD
TCND.                                  : àçíÖÉêÄãúçõâ ëóÖí, åÄãõâ áéçÑ / àçä
TCFD.                                  : àçíÖÉêÄãúçõâ ëóÖí, Å. áéçÑ / àçä
TCNC.                                  : äéåè.àçíÖÉê. ëóÖí, åÄãõâ áéçÑ / àçä
TCFC.                                  : äéåè.àçíÖÉêÄãúçõâ ëóÖí,Å.áéçÑ / àçä
~ASCII Log Data
# ...
  3254.00    12.7750     8.8770  5339.0000  1388.0000  5617.0000  3592.0000
  3254.20    12.3140     9.8250  5098.0000  1089.0000  5423.0000  2735.0000
  3254.40    11.8310     9.6010  4265.0000  1137.0000  4247.0000  2522.0000
  3254.60    12.1790     9.4350  5293.0000  1705.0000  5507.0000  3817.0000
  3254.80    12.1600     8.9980  5441.0000  1596.0000  5720.0000  3899.0000
  3255.00    13.1210    10.2020  4370.0000  1502.0000  4414.0000  3550.0000
  3255.20    13.3540    10.0990  3261.0000  1420.0000  3504.0000  3367.0000
  3255.40    13.7010    10.8590  3435.0000  1343.0000  3808.0000  3491.0000
  3255.60    12.9960    11.0420  2842.0000  1152.0000  3103.0000  3131.0000
  3255.80    14.9150    11.9620  1628.0000   917.0000  1871.0000  2695.0000
  3256.00    16.6250    13.3360  1389.0000   552.0000  1639.0000  1840.0000
  3256.20    17.7270    16.8550  1691.0000   382.0000  2145.0000  1639.0000
  3256.40    19.4750    15.9100  1063.0000   261.0000  1265.0000  1200.0000
  3256.60    20.2610    15.7110  1404.0000   363.0000  1764.0000  1860.0000
  3256.80    17.1310    18.2930  1237.0000   262.0000  1508.0000  1446.0000
  3257.00    19.7460    23.4910  1257.0000   187.0000  1537.0000  1212.0000
  3257.20    20.3440    22.3550  1432.0000   246.0000  1724.0000  1345.0000
  3257.40    19.4230    18.2500  1566.0000   234.0000  1894.0000  1293.0000
  3257.60    19.6460    19.4090  1487.0000   272.0000  1714.0000  1388.0000
  3257.80    17.5930    16.5480  1575.0000   334.0000  1756.0000  1413.0000
  3258.00    13.9520    13.3410  2296.0000   470.0000  2568.0000  1827.0000
  3258.20    15.5960    15.4360  2752.0000   556.0000  2951.0000  2039.0000
  3258.40    13.9930    13.3130  2722.0000   710.0000  2998.0000  2397.0000
  3258.60    16.0010    11.8410  3829.0000   946.0000  4237.0000  3132.0000
  3258.80    15.8500    12.1920  3829.0000   946.0000  4237.0000  3132.0000
  3259.00    14.2770    12.0280  2537.0000   779.0000  2770.0000  2348.0000
  3259.20    16.3490    12.1050  2097.0000   784.0000  2424.0000  2344.0000
  3259.40    15.2100    13.7430  1943.0000   719.0000  2247.0000  2254.0000
  3259.60    16.7410    12.9090  3013.0000   684.0000  3278.0000  2408.0000
  3259.80    13.2470    11.9670  2184.0000   573.0000  2379.0000  1814.0000
  3260.00    17.6520    12.0240  1953.0000   706.0000  2221.0000  2161.0000
  3260.20    12.7680    13.3090  2227.0000   633.0000  2453.0000  2137.0000
  3260.40    13.6130    11.6230  2987.0000   519.0000  3252.0000  1905.0000
  3260.60    13.4480    11.5490  3268.0000   691.0000  3447.0000  2194.0000
  3260.80    13.6450    11.1230  4225.0000  1389.0000  4665.0000  3926.0000
  3261.00    15.2700    10.7480  2763.0000  1153.0000  3049.0000  3318.0000
  3261.20    14.3880    10.9180  2472.0000   875.0000  2747.0000  2521.0000
  3261.40    12.4190    11.3170  3063.0000   888.0000  3336.0000  2642.0000
  3261.60    12.5000    11.2870  4157.0000  1066.0000  4560.0000  2977.0000
  3261.80    12.7810    10.1450  3606.0000  1191.0000  3825.0000  3651.0000
  3262.00    13.3620    11.1950  3195.0000  1152.0000  3600.0000  3433.0000
  3262.20    14.8780    11.0210  3167.0000   978.0000  3509.0000  2977.0000
  3262.40    15.2310    12.2330  2685.0000   836.0000  2879.0000  2290.0000
  3262.60    14.9720    11.3000  3013.0000  1012.0000  3411.0000  3192.0000
  3262.80    14.5160    10.7990  2425.0000   879.0000  2820.0000  2853.0000
  3263.00    17.3760    11.8940  1742.0000   623.0000  2038.0000  1978.0000
  3263.20    16.0710    13.3020  2157.0000   646.0000  2463.0000  2160.0000
  3263.40    17.2450    12.8380  2029.0000   538.0000  2377.0000  2097.0000
  3263.60    16.4020    13.9740  2029.0000   538.0000  2377.0000  2097.0000
  3263.80    17.0460    13.4610  2666.0000   567.0000  3243.0000  2187.0000
  3264.00    15.5110    13.8330  2428.0000   582.0000  2743.0000  2204.0000
  3264.20    15.0430    12.6770  1786.0000   527.0000  1929.0000  1774.0000
  3264.40    18.1630    13.7130  1595.0000   576.0000  1865.0000  2115.0000
  3264.60    16.2740    14.1190  1385.0000   418.0000  1533.0000  1579.0000
  3264.80    13.8800    15.1650  2250.0000   412.0000  2481.0000  1665.0000
  3265.00    16.2840    14.5490  2316.0000   449.0000  2671.0000  1697.0000
  3265.20    16.9900    15.1100  1877.0000   561.0000  2271.0000  2028.0000
  3265.40    15.6190    14.7930  1588.0000   513.0000  1808.0000  1828.0000
  3265.60    13.0000    13.8320  1796.0000   461.0000  2080.0000  1621.0000
  3265.80    12.2470    13.0580  3254.0000   673.0000  3521.0000  2611.0000
  3266.00    13.3230    13.7430  3102.0000   683.0000  3328.0000  2230.0000
  3266.20    13.3140    11.4560  4180.0000  1100.0000  4288.0000  3115.0000
  3266.40    12.7920    10.5080  3549.0000  1110.0000  3735.0000  2917.0000
  3266.60    11.6330     9.1670  4218.0000  1341.0000  4415.0000  3355.0000
  3266.80    11.8980     9.2740  3913.0000  1440.0000  4160.0000  3537.0000
  3267.00    12.1720     9.3200  4277.0000  1385.0000  4397.0000  3546.0000
  3267.20    11.7050     9.8300  3781.0000  1420.0000  4083.0000  3652.0000
  3267.40    11.4880     9.6010  2950.0000  1325.0000  3106.0000  3172.0000
  3267.60    12.3970    10.0170  3468.0000  1158.0000  3847.0000  3033.0000
  3267.80    12.6130    10.4280  2464.0000   801.0000  2634.0000  2101.0000
  3268.00    13.7400    10.2790  5056.0000  1068.0000  5425.0000  2870.0000
  3268.20    13.1540    10.3320  6570.0000   964.0000  6997.0000  2447.0000
  3268.40    13.4250    10.0060  6682.0000   971.0000  7475.0000  2391.0000
  3268.60    13.7210     9.7630  6682.0000   971.0000  7475.0000  2391.0000
  3268.80    13.1750     9.5350  6661.0000   952.0000  6934.0000  2370.0000
  3269.00    12.2320    10.0420  7334.0000   990.0000  7750.0000  2529.0000
  3269.20    12.8490     9.4310  6031.0000   908.0000  6233.0000  2201.0000
  3269.40    12.5210     8.9170  6949.0000  1067.0000  7389.0000  2736.0000
  3269.60    12.2730     8.8410  5719.0000  1063.0000  6062.0000  2580.0000
  3269.80    12.7600     9.2380  3981.0000  1085.0000  4062.0000  2447.0000
  3270.00    11.8060     9.2810  4168.0000  1179.0000  4333.0000  2655.0000
  3270.20    12.1940     9.5320  4359.0000  1362.0000  4525.0000  3305.0000
  3270.40    12.2270     9.9240  3636.0000  1164.0000  3794.0000  2603.0000
  3270.60    12.3100     9.6220  3655.0000  1124.0000  3812.0000  2741.0000
  3270.80    11.7470     9.3990  4303.0000  1211.0000  4353.0000  2753.0000
  3271.00    11.8350     9.0970  5166.0000  1389.0000  5242.0000  3384.0000
  3271.20    11.9300     9.9540  4304.0000  1198.0000  4550.0000  2907.0000
  3271.40    12.0670     9.6920  4295.0000  1497.0000  4431.0000  3610.0000
  3271.60    12.3740     9.5220  3235.0000  1313.0000  3361.0000  3224.0000
  3271.80    12.3950     9.1080  2902.0000  1025.0000  2927.0000  2496.0000
  3272.00    12.3690     9.7160  5206.0000  1440.0000  5516.0000  3547.0000
  3272.20    11.0830     9.2220  4586.0000  1382.0000  4852.0000  3371.0000
  3272.40    11.4820     9.0810  4149.0000  1212.0000  4280.0000  2878.0000
  3272.60    12.6800     9.0610  5099.0000  1308.0000  5677.0000  2790.0000
  3272.80    11.9490     9.1640  5413.0000  1200.0000  5309.0000  2588.0000
  3273.00    12.8100     9.4270  5736.0000  1101.0000  5915.0000  2468.0000
  3273.20    12.2490     8.7210  5041.0000  1116.0000  5216.0000  2440.0000
  3273.40    12.2710     9.6230  5339.0000  1396.0000  5632.0000  3041.0000
  3273.60    12.4880     9.7020  5339.0000  1396.0000  5632.0000  3041.0000
  3273.80    12.2740     9.3070  3777.0000  1354.0000  3920.0000  2976.0000
  3274.00    11.8670    10.0270  3134.0000  1229.0000  3234.0000  2739.0000
  3274.20    11.7250    10.0090  3776.0000  1265.0000  3828.0000  2997.0000
  3274.40    11.7750    10.0460  4637.0000  1477.0000  4795.0000  3412.0000
  3274.60    11.2600     9.2300  4079.0000  1361.0000  4118.0000  3192.0000
  3274.80    10.7300     8.2350  4399.0000  1651.0000  4538.0000  3735.0000
  3275.00    10.7600     7.8910  5164.0000  1897.0000  5266.0000  4156.0000
