~Version information
  VERS.                            1.20: CWLS LAS  -  VERSION 1.20
  WRAP.                              NO: One line per depth step
~Well information
# MNEM.UNIT
# ====.================================:===================
  STRT.M                        3140.00: First depth in file
  STOP.M                        3450.00: Last depth in file
  STEP.M                           0.20: Depth increment
  NULL.                            9999: Null values
  COMP.                         COMPANY: 
  WELL.                            WELL: 115 
  FLD .                           FIELD: íùÑàçëäÄü
  CNTY.                          COUNTY: 
  STAT.                           STATE: 
  DATE.                        LOG DATE: 30-04-04
  SRVC.                 SERVICE COMPANY: 
  UWI.           Unique Well Identifier: 
~Parametr information block
# MNEM.UNIT
# ====.================================:===================
~Other information
# ------------------------- REMARKS  AREA ------------------
~Curve information
# MNEM.UNIT
# ====.================================:===================
  DEPT.M                               : Depth curve
GZ5.OHMM                               : äÄÜ. ëéèêéíàÇãÖçàÖ áéçÑÄ A8.0M1.0N
GZ4.OHMM                               : äÄÜ. ëéèêéíàÇãÖçàÖ áéçÑÄ A4.0M0.5N
GZ3.OHMM                               : äÄÜ. ëéèêéíàÇãÖçàÖ áéçÑÄ A2.0M0.5N
GZ2.OHMM                               : äÄÜ. ëéèêéíàÇãÖçàÖ áéçÑÄ A1.0M0.1N
GZ1.OHMM                               : äÄÜ.ëéèêéíàÇãÖçàÖ áéçÑÄ A0.4M0.1N
PZ.OHMM                                : äÄÜ.ëéèê.èé èéíÖçñàÄãáéçÑì Ä0.5å6.5N
RRB.OHMM                               : ëéèêéíàÇã.èêéåõÇéóç.ÜàÑäéëíà èÖêÇàó.
CALI.MM                                : ëìååÄêçõâ ÑàÄåÖíê äÄÇÖêçéåÖêÄ
CILA.MMHO                              : áéçÑ àä 7à1.6,Ääí.ëàÉçÄã/àä-è/Äàä-5
SP.MV                                  : ÖëíÖëíÇÖççÄü ëÄåéèéãüêàáÄñàü èé èë
BS.                                    : Ñ≠-216¨¨
GR.UR/H                                : ÖëíÖëíÇÖççÄü ÉÄååÄ-ÄäíàÇçéëíú èé Éä
GZB.OHMM                               : GZB
~ASCII Log Data
# ...
  3214.20    51.2438    65.7143    77.0172    34.9706     8.7732    60.4437     0.8262   211.2672    12.9576   345.6207   215.9000     1.7022   181.3492
  3214.40    53.6585    70.9624    81.2128    35.4493     9.2078    62.6366     0.8306   211.5760    12.9757   348.0691   215.9000     2.0926   176.8019
  3214.60    56.4167    75.5309    84.0273    34.5791     9.0728    64.7955     0.8243   211.6492    10.5071   346.8145   215.9000     2.5920   171.6866
  3214.80    58.5774    81.4873    85.3519    34.5990     9.1142    67.1037     0.8298   212.6620     9.1428   349.2121   215.9000     2.8069   166.6467
  3215.00    60.8557    92.4503    87.4892    35.7967     9.2688    69.3372     0.8279   212.6755     8.4211   347.5587   215.9000     2.5342   160.7104
  3215.20    63.3610   104.8389    91.5652    38.1067     9.6604    71.1812     0.8447   212.5627     8.1109   345.8076   215.9000     2.0675   156.0731
  3215.40    66.4905   116.1369    96.6453    40.6338    10.3424    72.9953     0.8389   212.7262     7.9212   347.2503   215.9000     1.7914   150.5658
  3215.60    70.5107   127.1877   102.0094    42.0186    10.5260    74.2102     0.8390   211.6452     7.2403   346.0531   215.9000     1.7803   144.4178
  3215.80    73.6635   140.4704   107.1880    45.5053    11.0350    75.1573     0.8573   212.7299     7.1904   348.0706   215.9000     1.7989   136.7069
  3216.00    78.3298   155.7469   116.8551    49.2928    11.7526    75.3499     0.8447   213.0656     6.8516   347.4008   215.9000     1.6948   129.2805
  3216.20    82.8835   169.5721   128.5439    53.1163    12.7885    74.5034     0.8378   213.6840     6.7844   347.8112   215.9000     1.5372   122.2413
  3216.40    86.6805   189.0814   139.5016    57.0337    13.5135    73.1497     0.8354   213.6846     7.1467   347.4531   215.9000     1.4856   117.3719
  3216.60    90.9508   205.8067   148.7978    59.5473    13.7531    71.3708     0.8436   213.6655     8.4672   349.2442   215.9000     1.4940   113.8303
  3216.80    93.9912   217.7835   155.7099    60.5682    13.8339    69.3426     0.8369   213.1051     8.3993   349.6950   215.9000     1.4261   112.5148
  3217.00    94.8629   226.3031   158.5099    62.1841    14.1921    66.9020     0.8346   213.4244     8.8646   350.5406   215.9000     1.2107   117.7706
  3217.20    95.8138   218.4988   149.3593    55.0903    12.9641    65.7775     0.8287   212.9561     9.7249   349.3245   215.9000     1.0559   132.5279
  3217.40    95.8922   201.1775   136.1725    44.8279    10.5413    64.9667     0.8428   213.0245    11.0899   350.2581   215.9000     1.1214   146.8120
  3217.60    96.0000   193.5136   129.8778    45.1678    10.7014    64.9235     0.8580   214.5809    12.1805   351.2136   215.9000     1.3271   149.6771
  3217.80    95.8599   202.1544   136.0912    47.3675    11.1258    65.7299     0.8591   213.3327    12.6994   351.2539   215.9000     1.4920   143.1495
  3218.00    96.8750   206.9265   136.0663    47.6132    11.3705    66.8428     0.8587   214.2480    11.8283   351.1482   215.9000     1.7165   144.3204
  3218.20    98.2631   199.9967   126.7730    38.4366     9.6009    67.8410     0.8360   215.0946    10.3066   351.9644   215.9000     1.9967   150.5792
  3218.40   100.5688   193.7638   118.4006    39.9172     9.7750    68.9268     0.8548   213.7861    10.1560   350.5153   215.9000     2.0791   151.5939
  3218.60   103.1080   201.0626   120.4972    42.3532    10.2822    70.4665     0.8492   212.9797     9.9660   351.7648   215.9000     1.9152   143.0863
  3218.80   108.5278   215.2725   123.9092    45.0300    10.9359    71.2930     0.8340   214.6176     9.9345   352.1786   215.9000     1.6504   137.3289
  3219.00   117.1796   229.4991   128.8121    47.5117    11.7750    71.2930     0.8352   215.1559     9.2676   350.0066   215.9000     1.6243   128.7577
  3219.20   129.5083   237.3778   130.1075    48.7900    12.2250    71.2637     0.8397   214.6301     8.3060   350.1151   215.9000     1.7007   125.8333
  3219.40   140.9234   241.3332   128.7510    48.7253    11.7608    70.6729     0.8355   213.7392     7.5595   351.2984   215.9000     1.6066   125.2199
  3219.60   150.1420   243.7563   130.0333    50.7719    11.9621    69.9825     0.8445   214.8689     8.5475   352.4008   215.9000     1.3583   124.2228
  3219.80   157.3215   246.2428   133.1516    51.3030    11.9071    69.1657     0.8350   216.0246     9.1176   351.9040   215.9000     1.1164   122.6611
  3220.00   165.2242   249.6364   134.1806    51.2617    12.2250    68.5949     0.8352   215.9444     9.7029   351.5003   215.9000     1.1115   123.4206
  3220.20   172.1383   248.3132   134.3414    50.4205    11.7500    67.5772     0.8368   214.5821    10.1482   350.8119   215.9000     1.2263   124.5879
  3220.40   177.4172   244.8107   133.5789    49.3325    11.7500    67.0085     0.8152   215.2976    10.3532   352.7767   215.9000     1.4322   127.1711
  3220.60   184.1022   240.1041   134.0833    49.0007    11.7375    66.2192     0.8374   215.8728    10.2359   352.6755   215.9000     1.6140   129.4786
  3220.80   191.1196   235.9851   133.5811    47.8854    11.4875    65.8297     0.8255   215.7608    10.4736   354.0929   215.9000     1.7667   131.9459
  3221.00   196.8775   228.4720   133.1019    46.9321    11.2325    65.5570     0.8334   215.8388    10.7415   353.7306   215.9000     1.7811   135.1734
  3221.20   203.0594   222.2301   129.2490    45.1962    10.8883    65.5672     0.8225   215.6324    11.5833   352.9346   215.9000     1.8274   139.9738
  3221.40   207.9873   217.2820   126.9639    44.0164    10.6712    65.7611     0.8321   216.4868    10.7784   351.2450   215.9000     1.9754   142.0128
  3221.60   214.0000   223.8158   129.6503    45.5388    10.7994    65.7518     0.8331   216.3519    10.9087   349.5678   215.9000     2.1415   137.1003
  3221.80   218.8750   235.6194   134.2728    49.0311    11.7246    65.5314     0.8345   216.7306    10.6799   348.3330   215.9000     2.2729   129.5549
  3222.00   221.3750   241.0368   136.2808    48.9557    11.8171    65.0219     0.8243   216.3145    10.0188   347.3942   215.9000     2.4274   125.7514
  3222.20   224.0000   237.4133   133.1038    47.8095    11.5506    64.5498     0.8293   215.0905     9.7449   348.6039   215.9000     2.5252   124.9554
  3222.40   228.8749   231.9202   128.7251    46.7285    11.1384    63.8842     0.8167   215.7757     9.6925   347.0252   215.9000     2.4158   123.9389
  3222.60   231.3606   234.1814   127.6666    47.0586    11.0547    63.2211     0.8299   214.9510     9.8592   348.1875   215.9000     2.0774   120.5063
  3222.80   233.5125   238.8045   129.9088    48.7961    11.4896    62.8067     0.8278   215.6245    10.6988   349.4923   215.9000     1.8619   115.8860
  3223.00   234.0269   238.8849   129.5708    48.6085    11.5148    62.4413     0.8248   215.0908    11.0185   347.2885   215.9000     1.9724   113.9258
  3223.20   239.3871   234.1887   127.1345    46.4686    11.0642    62.0872     0.8213   215.2981    10.3260   345.0068   215.9000     2.3189   114.2367
  3223.40   241.3750   229.0910   126.1353    46.7838    11.2134    61.3468     0.8268   216.0372    10.7034   345.1715   215.9000     2.6373   114.8631
  3223.60   243.9610   229.1062   127.6363    46.4880    11.0941    60.8854     0.8240   215.5967    11.0379   345.0197   215.9000     2.5884   116.4219
  3223.80   248.2956   229.7435   129.5512    47.8539    11.2224    60.4457     0.8240   215.3882    11.5025   343.5039   215.9000     2.2385   117.0643
  3224.00   254.9994   236.7278   133.9860    48.6581    11.4886    59.4534     0.8242   214.1292    12.0467   345.8821   215.9000     1.9411   116.1644
  3224.20   264.8071   244.2159   139.8902    51.5026    12.1396    57.9261     0.8278   215.4193    11.7102   345.8208   215.9000     1.8687   113.1440
  3224.40   271.3124   255.4706   148.3056    54.8424    13.1288    55.7337     0.8239   215.7921    11.5649   343.1343   215.9000     1.8966   108.5352
  3224.60   272.2802   260.9820   151.8814    58.9721    13.9469    53.2704     0.8231   217.6607    11.6359   342.4655   215.9000     1.8064   106.3623
