~Version information
  VERS.                            1.20: CWLS LAS  -  VERSION 1.20
  WRAP.                              NO: One line per depth step
~Well information
# MNEM.UNIT
# ====.================================:===================
  STRT.M                        3140.00: First depth in file
  STOP.M                        3450.00: Last depth in file
  STEP.M                           0.20: Depth increment
  NULL.                            9999: Null values
  COMP.                         COMPANY: 
  WELL.                            WELL: 115 
  FLD .                           FIELD: íùÑàçëäÄü
  CNTY.                          COUNTY: 
  STAT.                           STATE: 
  DATE.                        LOG DATE: 30-04-04
  SRVC.                 SERVICE COMPANY: 
  UWI.           Unique Well Identifier: 
~Parametr information block
# MNEM.UNIT
# ====.================================:===================
~Other information
# ------------------------- REMARKS  AREA ------------------
~Curve information
# MNEM.UNIT
# ====.================================:===================
  DEPT.M                               : Depth curve
GZ5.OHMM                               : äÄÜ. ëéèêéíàÇãÖçàÖ áéçÑÄ A8.0M1.0N
GZ4.OHMM                               : äÄÜ. ëéèêéíàÇãÖçàÖ áéçÑÄ A4.0M0.5N
GZ3.OHMM                               : äÄÜ. ëéèêéíàÇãÖçàÖ áéçÑÄ A2.0M0.5N
GZ2.OHMM                               : äÄÜ. ëéèêéíàÇãÖçàÖ áéçÑÄ A1.0M0.1N
GZ1.OHMM                               : äÄÜ.ëéèêéíàÇãÖçàÖ áéçÑÄ A0.4M0.1N
PZ.OHMM                                : äÄÜ.ëéèê.èé èéíÖçñàÄãáéçÑì Ä0.5å6.5N
RRB.OHMM                               : ëéèêéíàÇã.èêéåõÇéóç.ÜàÑäéëíà èÖêÇàó.
CALI.MM                                : ëìååÄêçõâ ÑàÄåÖíê äÄÇÖêçéåÖêÄ
CILA.MMHO                              : áéçÑ àä 7à1.6,Ääí.ëàÉçÄã/àä-è/Äàä-5
SP.MV                                  : ÖëíÖëíÇÖççÄü ëÄåéèéãüêàáÄñàü èé èë
BS.                                    : Ñ≠-216¨¨
GR.UR/H                                : ÖëíÖëíÇÖççÄü ÉÄååÄ-ÄäíàÇçéëíú èé Éä
GZB.OHMM                               : GZB
~ASCII Log Data
# ...
  3193.00    84.2970   150.1477    99.7505    38.4000     9.9429    48.1482     0.8188   218.5361    19.3363   392.1695   215.9000     1.5819    70.6399
  3193.20    84.9690   155.3425   101.0774    38.5095    10.2375    48.2204     0.8138   217.7532    18.9254   392.5570   215.9000     1.6137    65.6355
  3193.40    86.2331   161.6913   102.7699    40.7366    10.8513    47.7045     0.8088   219.0034    18.5415   389.6040   215.9000     1.9186    60.6006
  3193.60    87.2111   167.4938   105.2262    43.1862    11.4884    47.0881     0.8038   217.8816    17.9892   389.1255   215.9000     2.4261    55.9099
  3193.80    88.4789   170.0616   106.0530    43.7166    11.5779    45.9629     0.7985   219.5263    18.1584   390.1495   215.9000     2.8475    52.3948
  3194.00    89.4260   169.8285   105.4407    44.7641    11.6916    44.6898     0.7890   219.1355    18.8513   390.6920   215.9000     2.8577    50.5291
  3194.20    89.4244   169.7651   105.2586    46.0082    11.7370    43.2134     0.7890   218.8129    20.0431   391.4099   215.9000     2.5160    48.3198
  3194.40    89.3946   167.4165   103.2170    45.3099    11.9639    41.5051     0.7894   218.3012    21.7024   391.3469   215.9000     2.2469    47.4320
  3194.60    89.4659   162.6236   100.2532    43.5094    11.2200    39.8584     0.7979   219.0128    22.9350   391.8305   215.9000     2.1790    46.8364
  3194.80    90.3167   158.7077    98.8501    43.2542    11.2213    38.0663     0.7957   217.6267    24.6053   388.3771   215.9000     2.3777    45.9077
  3195.00    92.1945   157.5857    99.4886    43.2834    11.2513    36.2759     0.7890   217.3766    25.3734   387.5375   215.9000     2.5491    44.3694
  3195.20    94.5554   154.4082    97.5823    42.8823    11.3345    34.5503     0.7890   217.8562    26.5533   387.1176   215.9000     2.6702    44.8990
  3195.40    97.0919   146.6559    91.9033    39.6357    10.6007    33.1315     0.7887   219.1145    27.6022   387.9927   215.9000     2.7967    45.8365
  3195.60    98.9954   135.5368    86.0991    36.1559     9.8011    32.0548     0.7842   218.3953    29.1350   387.9025   215.9000     2.9471    46.7220
  3195.80    99.7784   124.7168    80.2486    33.2800     9.1406    31.6410     0.7895   218.2813    31.1629   389.8504   215.9000     3.0229    47.4253
  3196.00    99.3190   118.2178    76.8974    32.0979     8.8427    31.4199     0.7990   218.8049    32.1558   389.1140   215.9000     2.9929    46.6077
  3196.20    98.3399   113.3268    74.9229    31.9608     9.0899    31.1987     0.7988   217.1272    32.6291   388.3271   215.9000     3.2353    44.5822
  3196.40    97.3714   107.8425    71.6843    31.1426     9.1715    31.3357     0.7962   217.8672    32.3054   388.5506   215.9000     3.9670    42.2592
  3196.60    96.6726   100.6403    67.4622    29.7609     8.9769    31.1593     0.7990   219.5227    31.9550   388.6243   215.9000     4.7617    40.9034
  3196.80    95.8276    97.2482    65.1092    30.4513     9.0993    30.7584     0.7990   218.0051    32.7846   385.0458   215.9000     5.0410    39.1258
  3197.00    95.1134    98.3709    65.4671    32.4927     9.7028    29.8613     0.7990   216.6169    33.7744   383.8272   215.9000     4.6530    36.5340
  3197.20    95.7670    97.8836    65.6472    33.9651    10.2276    28.8397     0.7993   214.8134    33.9838   385.6412   215.9000     4.1111    34.6010
  3197.40    95.7710    95.6551    64.6031    33.6375    10.1819    26.9184     0.8041   215.6367    34.5725   385.3595   215.9000     3.9327    33.5635
  3197.60    96.2453    91.1910    62.5841    35.0299    10.4403    25.5142     0.8030   215.9725    35.1014   385.3401   215.9000     4.1244    32.8139
  3197.80    96.9578    87.7287    59.7718    29.5707     8.5273    24.6516     0.7676   216.4448    37.1820   385.1406   215.9000     4.2318    36.5963
  3198.00    97.3697    83.9578    56.8036    29.6873     8.5028    23.7053     0.7988   224.7026    40.6801   385.0850   215.9000     3.9650    40.0602
  3198.20    97.3207    82.6508    56.3939    26.9589     7.9537    23.5676     0.7955   214.5826    44.9724   381.7014   215.9000     3.6693    42.5756
  3198.40    97.5634    79.3656    55.5452    27.3339     8.0594    23.7155     0.8054   215.4936    43.8597   382.4546   215.9000     3.8723    41.8879
  3198.60    96.8103    75.7622    54.5815    26.8971     8.3567    23.7675     0.8128   213.9176    44.8153   383.5483   215.9000     4.7778    41.6157
  3198.80    95.6001    73.4210    53.8626    26.5907     8.4572    23.8091     0.8072   216.1807    41.7570   382.0898   215.9000     6.0593    41.5870
  3199.00    93.6668    71.3572    53.3801    26.6374     8.6953    23.3279     0.7923   215.2681    41.2794   382.0043   215.9000     7.0102    42.5756
  3199.20    90.7068    69.1791    52.9343    28.7066     9.1552    22.7799     0.8000   214.9359    40.8993   380.8451   215.9000     7.2534    42.6292
  3199.40    87.6990    66.1535    50.7965    28.8588     9.1039    22.1036     0.8175   213.8338    41.5022   381.3459   215.9000     6.7149    43.4967
  3199.60    81.9182    62.1772    48.5049    28.2630     8.7707    21.1759     0.7897   217.3859    42.4333   379.6262   215.9000     6.0880    44.8122
  3199.80    75.3356    56.9883    45.0158    28.1148     8.9094    20.6498     0.8030   215.6237    43.1446   379.4301   215.9000     5.7635    46.1583
  3200.00    68.2587    52.2608    41.0840    26.2341     8.0232    20.4060     0.7843   215.6838    44.0382   378.8691   215.9000     5.7612    47.6598
  3200.20    60.9902    46.2334    38.5934    23.4270     7.6483    20.1662     0.8086   214.6194    46.2834   378.4311   215.9000     5.9212    51.2338
  3200.40    52.9649    42.4137    37.0820    23.7905     7.6717    19.9351     0.8189   218.8161    44.5574   381.2787   215.9000     6.0085    52.4888
  3200.60    45.9631    38.7682    35.8856    22.6469     7.6172    20.1948     0.8171   215.2605    46.2135   381.4276   215.9000     6.1371    53.7100
  3200.80    40.5494    34.0635    33.3011    20.5217     7.0356    20.7711     0.7994   219.7610    45.0163   378.4181   215.9000     6.2393    54.8739
  3201.00    36.0496    30.4207    31.5614    19.1618     6.7545    21.0128     0.8056   217.3983    44.3905   375.4958   215.9000     6.3219    60.3015
  3201.20    32.6173    28.4282    30.5715    19.3771     6.9676    21.6561     0.7992   217.7306    42.7808   374.7941   215.9000     6.3523    66.2660
  3201.40    30.6357    26.3207    29.9783    18.8913     6.4995    22.7958     0.8040   218.8707    41.5884   374.4961   215.9000     6.2394    71.1776
  3201.60    28.9215    24.7583    29.3363    19.7115     6.7991    23.9214     0.8239   211.8427    41.1965   373.5395   215.9000     5.7989    72.8418
  3201.80    27.8055    23.6227    28.8815    19.2197     6.8963    25.6055     0.8228   212.6803    37.7968   374.3668   215.9000     5.6076    73.3213
  3202.00    26.9701    22.1411    28.0544    17.6994     6.5492    27.5732     0.8192   212.4983    34.9867   372.6442   215.9000     6.0097    75.2831
  3202.20    26.0688    22.3583    28.1259    19.0195     6.7392    29.1357     0.8244   212.8025    32.7751   373.8738   215.9000     6.5765    75.1426
  3202.40    25.4819    24.0216    30.1984    21.3404     7.4075    31.0145     0.8317   210.9842    30.1040   372.8990   215.9000     6.5626    72.2318
  3202.60    24.8328    26.0094    32.9186    23.8236     8.1287    32.5452     0.8260   212.2318    27.9727   371.2903   215.9000     5.7055    67.8407
  3202.80    24.4031    27.9005    35.4332    25.4888     8.6567    33.3166     0.8262   209.9335    26.3743   369.2924   215.9000     4.6965    65.1736
  3203.00    23.8780    29.0958    36.8852    27.3678     9.0330    33.8273     0.8301   211.0681    24.2216   370.5724   215.9000     4.0982    61.9072
  3203.20    23.2400    30.3519    38.8741    28.8454     9.0640    34.3013     0.8311   210.3702    23.3231   370.7650   215.9000     3.7389    62.2201
  3203.40    22.6339    31.2191    40.6116    29.2130     8.9247    34.5496     0.8146   209.6609    23.7721   367.7017   215.9000     3.3252    64.6094
