~Version information
  VERS.                            1.20: CWLS LAS  -  VERSION 1.20
  WRAP.                              NO: One line per depth step
~Well information
# MNEM.UNIT
# ====.================================:===================
  STRT.M                        3148.00: First depth in file
  STOP.M                        3438.00: Last depth in file
  STEP.M                           0.20: Depth increment
  NULL.                            9999: Null values
  COMP.                         COMPANY: 
  WELL.                            WELL: 115 
  FLD .                           FIELD: íÌ§®≠·™†Ô
  CNTY.                          COUNTY: 
  STAT.                           STATE: 
  DATE.                        LOG DATE: 28-04-04
  SRVC.                 SERVICE COMPANY: 
  UWI.           Unique Well Identifier: 
~Parametr information block
# MNEM.UNIT
# ====.================================:===================
~Other information
# ------------------------- REMARKS  AREA ------------------
~Curve information
# MNEM.UNIT
# ====.================================:===================
  DEPT.M                               : Depth curve
IZ2.DEG                                : îÄáÄ1(ÉêÄÑ)
IZ3.DEG                                : îÄáÄ2(ÉêÄÑ)
IZ4.DEG                                : îÄáÄ3(ÉêÄÑ)
IZ5.DEG                                : îÄáÄ4(ÉêÄÑ)
IZ1.DEG                                : îÄáÄ5(ÉêÄÑ)
VIK1.OHMM                              : É0.4à0.1à(éåå)
VIK5.OHMM                              : É0.57à0.14à(éåå)
VIK4.OHMM                              : É0.8à0.2à(éåå)
VIK3.OHMM                              : É1.13à0.28à(éåå)
VIK2.OHMM                              : É1.6à0.4à(éåå)
~ASCII Log Data
# ...
  3201.60    12.4550    13.4500    10.6800     9.3450     8.9550     9.3750     7.4950    10.5900    13.2650    13.9650
  3201.80     9.8450    11.6100     9.5550     8.5900     8.3800    12.3550     9.7500    12.7600    15.4100    15.4500
  3202.00    10.1850    11.1750     9.1450     8.1450     7.9350    10.9100     9.5800    13.1900    16.0800    16.6000
  3202.20    11.2250    11.7550     9.4200     8.2300     7.8400    10.2900     8.9000    13.0750    15.9950    16.8750
  3202.40     9.6150    10.5200     8.3700     7.4600     7.4800    13.8050    11.0800    16.2500    19.4400    18.6550
  3202.60     8.3600     9.5450     7.4200     6.5600     6.8150    15.2750    12.4050    18.3600    22.6500    21.0350
  3202.80     8.3200     9.6000     7.4250     6.3750     6.5100    14.5400    12.2750    18.1150    22.7550    21.7950
  3203.00     8.3400     9.7850     7.4600     6.3800     6.4950    14.9350    12.1050    18.2950    22.5300    22.2550
  3203.20     8.9600    10.0900     7.4250     6.3150     6.5350    13.8350    11.2300    18.1650    22.7750    22.2900
  3203.40     9.3300    10.1850     7.4900     6.2700     6.5250    11.9850    10.8900    17.9800    23.0300    22.0800
  3203.60     9.2500    10.3350     7.5800     6.2300     6.4150    11.8550    11.0900    17.9050    23.5100    22.6850
  3203.80     9.2350    10.2850     7.3100     5.9950     6.2100    12.8300    11.6150    18.9600    25.4200    24.1150
  3204.00     8.8200     9.6600     6.8100     5.6100     5.9000    13.8400    12.4000    20.7150    28.0000    25.8500
  3204.20     8.4900     9.4900     6.7750     5.4650     5.7500    14.3400    12.4750    20.7100    27.9550    26.3700
  3204.40     8.6200     9.7050     7.0650     5.5950     5.7800    14.5750    12.1600    19.6700    26.8750    25.8750
  3204.60     8.8200     9.9350     7.3300     5.8700     5.9150    14.0850    11.5550    18.2900    25.5050    24.9850
  3204.80     9.4350    10.3300     7.7550     6.3050     6.0950    12.7300    10.6700    16.7300    23.1350    23.9450
  3205.00     9.6100    10.5150     8.0550     6.6250     6.2600    12.1000    10.3400    15.9000    21.5100    22.9800
  3205.20    10.4500    11.2750     8.6200     7.0250     6.5450    10.4200     9.2300    14.0800    19.2800    21.4750
  3205.40    13.1500    13.4100     9.9150     7.7950     6.9450     7.3500     7.0450    11.3750    16.5000    19.8450
  3205.60    12.4200    13.6250     9.9150     7.8900     6.9050     9.4500     7.8800    12.8250    17.6000    20.9150
  3205.80     8.4450    10.5450     7.8150     6.4000     5.9700    17.1450    12.7800    19.4250    26.4200    27.3750
  3206.00     6.8500     8.4400     6.2050     4.9300     4.8750    21.2600    15.7850    24.2700    34.4850    34.3600
  3206.20     6.6200     8.1350     5.9100     4.6550     4.4550    21.3500    15.7900    24.8400    35.0850    36.5450
  3206.40     6.9800     8.4300     6.1550     4.8750     4.6000    20.4000    14.9300    23.5050    32.5150    35.6050
  3206.60     7.3050     8.4800     6.2800     5.0350     4.7800    18.7700    14.6650    23.3950    31.1950    33.9000
  3206.80     7.8750     8.5900     6.2900     5.0800     4.8650    15.8850    14.1500    23.4700    31.1700    32.6550
  3207.00     9.0900     9.3800     6.4950     5.1000     4.9800    13.8400    12.9500    22.8250    31.6300    32.4950
  3207.20     8.0250     8.5450     5.7400     4.6600     4.7700    18.0750    16.2050    28.8800    38.1500    35.6650
  3207.40     6.4150     7.2350     4.7250     3.8650     4.2300    22.6150    19.7200    35.6350    48.1800    42.1050
  3207.60     6.4200     7.1500     4.5900     3.4950     3.9050    22.3550    19.1300    35.8500    52.3300    45.0600
  3207.80     7.0600     7.6200     4.8950     3.6300     3.9400    19.8750    16.7450    32.1000    48.3950    43.6550
  3208.00     7.4800     7.8800     5.2600     3.8900     4.1100    17.7550    15.9550    29.2850    43.8300    41.4750
  3208.20     7.0300     7.7700     5.3500     4.0400     4.2850    19.4650    17.1950    29.6450    42.3650    39.1850
  3208.40     7.2450     7.9250     5.4000     4.1700     4.4400    18.6250    16.2950    28.2550    39.1750    37.2750
  3208.60     8.4700     8.9900     6.0800     4.7850     4.7200    14.3600    13.2700    23.2950    32.5650    34.0000
  3208.80    10.7500    10.6200     7.4700     5.9000     5.6150    10.1500     9.6600    16.4300    24.2800    26.4600
  3209.00    12.4250    12.5700     9.2650     7.2850     6.7900     8.8000     8.0650    12.7900    18.3550    19.9650
  3209.20    11.6200    12.4650     9.2500     7.4300     7.2350    10.6550     8.8100    13.8950    18.5900    19.0800
  3209.40    11.0750    11.9450     8.5850     7.1350     7.1700     9.9950     8.4800    14.0350    18.9050    18.9850
  3209.60    13.6950    14.0450    10.4900     8.2500     7.7450     7.6650     6.4100    10.5250    14.9250    16.5800
  3209.80    13.9350    14.1500    11.7000     9.5000     8.6950     6.8550     6.3550     9.0650    12.1950    13.9900
  3210.00    13.0900    14.5000    12.0150    10.2350     9.1800     7.1000     6.6050     8.8200    11.0050    13.0650
  3210.20    15.3900    16.1400    13.0150    10.9100     9.6950     5.5100     5.3050     7.3450     9.8700    12.0500
  3210.40    15.8250    16.4300    13.5650    11.4100    10.0600     5.2550     5.1550     7.1350     9.5000    11.5100
  3210.60    15.8900    15.7300    12.9400    10.9600     9.6650     5.9700     5.6700     7.9650    10.4850    12.7550
  3210.80    10.9050    11.8900    10.3700     9.2000     8.3850    16.3000    11.8400    13.8800    15.3450    16.7700
  3211.00     5.7250     8.3800     7.4900     6.7750     6.6300    24.5000    17.0300    20.4450    22.8650    23.8600
  3211.20     6.8500     8.0700     6.6600     5.8650     5.7200    19.8600    15.7800    20.8800    25.0350    26.7850
  3211.40     7.7800     8.4250     6.9650     6.2650     5.8700    17.0700    14.8600    20.2400    23.1750    24.9200
  3211.60     7.7050     8.2450     6.5250     6.0850     6.0400    17.3650    16.0700    23.2300    24.9400    24.6350
  3211.80     7.5600     7.9750     5.8800     5.5600     5.8300    16.7150    16.5250    26.7500    28.1500    26.1900
  3212.00     8.7050     8.7250     6.0400     5.2900     5.6900    13.2300    13.8000    24.6450    29.2450    26.7950
  3212.20     9.2600    10.1450     6.5850     5.2700     5.6300    16.5550    12.3350    22.9550    30.4050    27.7350
  3212.40     7.3200     8.7300     5.5150     4.5500     5.1250    24.1300    17.1700    33.2200    40.9800    33.2150
  3212.60     5.7100     6.4600     4.1600     3.4800     4.3800    25.8400    22.0850    41.6300    54.1600    39.8600
  3212.80     5.8050     6.5250     4.1650     3.1950     3.9550    25.0900    21.6100    39.8750    57.8400    43.8950
  3213.00     5.9000     6.7950     4.3050     3.2850     3.8150    25.0400    20.5950    38.2150    57.4050    46.4100
  3213.20     5.9800     6.9600     4.4050     3.3100     3.7400    24.5050    20.1500    36.5600    56.2650    48.7350
  3213.40     6.4500     7.2450     4.7000     3.3750     3.7050    21.7950    18.6300    33.1850    53.1050    48.9800
  3213.60     7.8650     8.1700     5.4600     3.7850     3.8200    16.1900    15.0100    27.0650    44.9950    44.9150
  3213.80     9.4250     9.7950     6.3850     4.3950     4.1200    12.5100    12.0750    22.3800    37.7450    41.7000
  3214.00     8.4850     9.3700     5.9450     4.1500     3.9750    16.4650    14.5050    27.7500    45.8200    46.8950
  3214.20     7.0300     7.5900     4.7550     3.2250     3.2650    20.3650    18.1900    35.8550    61.3200    58.7050
  3214.40     6.9200     7.3400     4.5250     2.8750     2.8500    19.9050    18.0650    36.5850    64.7150    67.7300
  3214.60     7.1350     7.7550     4.7850     3.0650     2.8200    18.1550    16.6600    33.8600    59.1300    68.4150
  3214.80     7.1250     7.9800     4.9400     3.2350     2.8400    19.6200    16.9600    33.1300    57.5500    67.5450
