~Version information
  VERS.                            1.20: CWLS LAS  -  VERSION 1.20
  WRAP.                              NO: One line per depth step
~Well information
# MNEM.UNIT
# ====.================================:===================
  STRT.M                        3148.00: First depth in file
  STOP.M                        3449.00: Last depth in file
  STEP.M                           0.20: Depth increment
  NULL.                            9999: Null values
  COMP.                         COMPANY: 
  WELL.                            WELL: 115 
  FLD .                           FIELD: íÌ§®≠·™†Ô
  CNTY.                          COUNTY: 
  STAT.                           STATE: 
  DATE.                        LOG DATE: 29-04-04
  SRVC.                 SERVICE COMPANY: 
  UWI.           Unique Well Identifier: 
~Parametr information block
# MNEM.UNIT
# ====.================================:===================
~Other information
# ------------------------- REMARKS  AREA ------------------
~Curve information
# MNEM.UNIT
# ====.================================:===================
  DEPT.M                               : Depth curve
SFND.1/CM                              : SFND
SFFD.1/CM                              : SFFD
TCND.                                  : àçíÖÉêÄãúçõâ ëóÖí, åÄãõâ áéçÑ / àçä
TCFD.                                  : àçíÖÉêÄãúçõâ ëóÖí, Å. áéçÑ / àçä
TCNC.                                  : äéåè.àçíÖÉê. ëóÖí, åÄãõâ áéçÑ / àçä
TCFC.                                  : äéåè.àçíÖÉêÄãúçõâ ëóÖí,Å.áéçÑ / àçä
~ASCII Log Data
# ...
  3211.60    21.4440    21.8260   601.0000   105.0000   740.0000   847.0000
  3211.80    17.5600    22.5990   996.0000   113.0000  1127.0000   639.0000
  3212.00    13.4400    15.8540  1781.0000   134.0000  1927.0000   655.0000
  3212.20    15.0250    13.2870  2623.0000   363.0000  2801.0000  1336.0000
  3212.40    14.4620    10.8980  2289.0000   589.0000  2458.0000  1859.0000
  3212.60    14.3270    11.4220  2140.0000   709.0000  2310.0000  2091.0000
  3212.80    14.9500    11.5460  2103.0000   645.0000  2331.0000  1995.0000
  3213.00    15.2720    12.4060  2332.0000   759.0000  2661.0000  2336.0000
  3213.20    16.4320    13.1340  2114.0000   846.0000  2403.0000  2468.0000
  3213.40    14.5530    13.0760  2876.0000   729.0000  3275.0000  2359.0000
  3213.60    12.6810    12.6300  2866.0000   640.0000  3121.0000  1994.0000
  3213.80    12.5040    11.1680  3413.0000   887.0000  3674.0000  2461.0000
  3214.00    12.5620    10.5770  3234.0000  1164.0000  3514.0000  3245.0000
  3214.20    12.4710    10.8280  2868.0000  1076.0000  2953.0000  2637.0000
  3214.40    13.3700    10.8250  2868.0000  1076.0000  2953.0000  2637.0000
  3214.60    13.3980    10.2350  3442.0000  1253.0000  3847.0000  3493.0000
  3214.80    14.1220    10.1820  2468.0000  1033.0000  2849.0000  2902.0000
  3215.00    14.2770    11.6100  2236.0000   818.0000  2571.0000  2768.0000
  3215.20    13.4240    14.0190  2461.0000   648.0000  2682.0000  2076.0000
  3215.40    12.7010    12.6030  3437.0000   777.0000  3899.0000  2351.0000
  3215.60    12.1700    10.8830  4003.0000   982.0000  4329.0000  2826.0000
  3215.80    12.8770    10.0030  3085.0000  1044.0000  3246.0000  2775.0000
  3216.00    13.1790    10.7300  2540.0000   840.0000  2632.0000  2283.0000
  3216.20    12.0950    10.7130  3408.0000  1050.0000  3663.0000  2827.0000
  3216.40    11.6370    10.3010  3622.0000  1034.0000  3926.0000  2944.0000
  3216.60    11.4840     9.8150  4518.0000  1370.0000  4956.0000  3609.0000
  3216.80    12.1520     9.6750  4117.0000  1314.0000  4237.0000  3356.0000
  3217.00    12.1370     9.5260  3786.0000  1137.0000  3841.0000  2771.0000
  3217.20    11.8900     9.7430  5772.0000  1517.0000  5898.0000  3871.0000
  3217.40    11.7910     8.7990  5395.0000  1667.0000  5880.0000  3829.0000
  3217.60    11.7890     9.0020  3582.0000  1339.0000  3584.0000  3073.0000
  3217.80    11.7150     9.3240  4776.0000  1810.0000  5231.0000  4391.0000
  3218.00    12.6700     9.9530  2644.0000  1105.0000  2757.0000  2548.0000
  3218.20    14.5750    10.1860  2769.0000  1063.0000  2992.0000  2744.0000
  3218.40    14.7080    10.6480  2419.0000   956.0000  2692.0000  2754.0000
  3218.60    13.0610    11.3470  2542.0000   845.0000  2821.0000  2381.0000
  3218.80    11.7210    10.7800  3684.0000   799.0000  3736.0000  2346.0000
  3219.00    11.8760    10.7660  3720.0000   940.0000  3936.0000  2655.0000
  3219.20    12.6870    11.7810  3253.0000  1308.0000  3565.0000  3357.0000
  3219.40    13.1120    11.5500  3253.0000  1308.0000  3565.0000  3357.0000
  3219.60    13.6330    10.4050  3687.0000  1281.0000  3971.0000  3413.0000
  3219.80    12.5070    10.3800  4187.0000  1055.0000  4520.0000  2937.0000
  3220.00    12.7690     9.4600  4027.0000   991.0000  4054.0000  2748.0000
  3220.20    12.7270     9.2500  4135.0000  1275.0000  4215.0000  3192.0000
  3220.40    12.5700     9.5220  2937.0000  1182.0000  2987.0000  2679.0000
  3220.60    14.0690     9.4860  3254.0000  1294.0000  3417.0000  3096.0000
  3220.80    13.6090    10.0540  3706.0000  1282.0000  4067.0000  3126.0000
  3221.00    12.8610    11.2290  2642.0000   896.0000  2800.0000  2329.0000
  3221.20    12.9320    10.7620  2321.0000   769.0000  2441.0000  2075.0000
  3221.40    12.7630    11.4300  2520.0000   957.0000  2699.0000  2403.0000
  3221.60    12.5420    10.8050  2526.0000   974.0000  2744.0000  2521.0000
  3221.80    12.6790    10.5000  2512.0000   913.0000  2675.0000  2439.0000
  3222.00    13.6470    11.3390  2019.0000   737.0000  2201.0000  1992.0000
  3222.20    15.5090    11.7940  2107.0000   792.0000  2305.0000  2060.0000
  3222.40    15.0140    11.9420  2582.0000   819.0000  2823.0000  2373.0000
  3222.60    14.1480    11.4890  2285.0000   734.0000  2396.0000  2165.0000
  3222.80    13.3110    11.8060  3404.0000   810.0000  3642.0000  2522.0000
  3223.00    12.3120    10.7640  3592.0000  1048.0000  4045.0000  2962.0000
  3223.20    13.0780    10.8680  2234.0000   953.0000  2310.0000  2451.0000
  3223.40    12.7860    10.0940  2259.0000   967.0000  2423.0000  2471.0000
  3223.60    15.5790    10.2460  3213.0000   961.0000  3520.0000  2913.0000
  3223.80    12.7780    10.9070  2522.0000   647.0000  2809.0000  2030.0000
  3224.00    14.1780    10.5160  2909.0000   756.0000  3004.0000  2224.0000
  3224.20    14.1290    10.9230  2909.0000   756.0000  3004.0000  2224.0000
  3224.40    13.1610    11.4900  2779.0000   885.0000  2953.0000  2575.0000
  3224.60    13.4880    11.0180  2992.0000  1012.0000  3229.0000  2821.0000
  3224.80    13.1820    10.6990  2785.0000   856.0000  2874.0000  2316.0000
  3225.00    13.6800    10.9720  3502.0000  1078.0000  3850.0000  2913.0000
  3225.20    11.9890    10.2620  2798.0000   827.0000  2932.0000  2192.0000
  3225.40    12.3350     9.9020  4327.0000  1205.0000  4648.0000  3286.0000
  3225.60    12.0810     9.9990  4952.0000  1388.0000  5359.0000  3594.0000
  3225.80    11.3050     9.2950  3030.0000  1135.0000  3244.0000  2694.0000
  3226.00    12.3050     9.5870  2651.0000  1289.0000  2963.0000  3071.0000
  3226.20    15.7590    10.5350  1980.0000   993.0000  2290.0000  2676.0000
  3226.40    15.3300    11.2310  1748.0000   726.0000  1916.0000  1932.0000
  3226.60    16.2020    12.9470  2139.0000   655.0000  2450.0000  2208.0000
  3226.80    14.9630    12.6820  1851.0000   531.0000  2148.0000  1812.0000
  3227.00    15.7300    14.3620  2369.0000   628.0000  2644.0000  2111.0000
  3227.20    16.6900    14.9230  2009.0000   608.0000  2318.0000  2071.0000
  3227.40    14.8850    13.5900  1972.0000   499.0000  2166.0000  1873.0000
  3227.60    14.0930    12.9470  2369.0000   559.0000  2712.0000  1866.0000
  3227.80    12.8760    12.9100  2416.0000   607.0000  2627.0000  2055.0000
  3228.00    13.0130    11.3130  2761.0000   711.0000  2902.0000  2230.0000
  3228.20    12.6150     9.9770  3850.0000  1042.0000  4118.0000  3118.0000
  3228.40    13.1500    10.6590  2825.0000  1023.0000  3034.0000  2723.0000
  3228.60    13.6690    11.0460  3583.0000  1147.0000  3644.0000  2912.0000
  3228.80    12.3340    10.6160  4064.0000   966.0000  4070.0000  2499.0000
  3229.00    12.1360     9.4010  4821.0000  1172.0000  4746.0000  2947.0000
  3229.20    12.2730     8.7270  4821.0000  1172.0000  4746.0000  2947.0000
  3229.40    11.8170     8.6020  3676.0000  1124.0000  3749.0000  2551.0000
  3229.60    11.5780     9.0570  4727.0000  1530.0000  4898.0000  3786.0000
  3229.80    12.0020     9.3410  3305.0000  1341.0000  3389.0000  3130.0000
  3230.00    12.0510     9.2820  3657.0000  1384.0000  3789.0000  3220.0000
  3230.20    12.1490    10.0380  4025.0000  1150.0000  4050.0000  2788.0000
  3230.40    11.3950     8.8470  5264.0000  1415.0000  5415.0000  3188.0000
  3230.60    11.3360     9.2770  4329.0000  1495.0000  4343.0000  3289.0000
  3230.80    11.4840     9.3140  4151.0000  1478.0000  4290.0000  3555.0000
  3231.00    11.5720     9.3040  4469.0000  1744.0000  4751.0000  4011.0000
  3231.20    13.2660     9.5130  5102.0000  1587.0000  5277.0000  3801.0000
  3231.40    11.7230     8.9380  4173.0000  1283.0000  4452.0000  3168.0000
  3231.60    11.8070     7.9740  3930.0000  1526.0000  3951.0000  3709.0000
  3231.80    10.5540     8.8630  4058.0000  1551.0000  4295.0000  3507.0000
  3232.00    12.0690     9.3580  5831.0000  1537.0000  6142.0000  3558.0000
  3232.20    12.6270     9.6200  6883.0000  1668.0000  7367.0000  3825.0000
  3232.40    11.5980     9.6680  5819.0000  1572.0000  6078.0000  3477.0000
  3232.60    11.6470     8.5760  5162.0000  1681.0000  5050.0000  3714.0000
