~Version information
  VERS.                            1.20: CWLS LAS  -  VERSION 1.20
  WRAP.                              NO: One line per depth step
~Well information
# MNEM.UNIT
# ====.================================:===================
  STRT.M                        3140.00: First depth in file
  STOP.M                        3450.00: Last depth in file
  STEP.M                           0.20: Depth increment
  NULL.                            9999: Null values
  COMP.                         COMPANY: 
  WELL.                            WELL: 115 
  FLD .                           FIELD: íùÑàçëäÄü
  CNTY.                          COUNTY: 
  STAT.                           STATE: 
  DATE.                        LOG DATE: 30-04-04
  SRVC.                 SERVICE COMPANY: 
  UWI.           Unique Well Identifier: 
~Parametr information block
# MNEM.UNIT
# ====.================================:===================
~Other information
# ------------------------- REMARKS  AREA ------------------
~Curve information
# MNEM.UNIT
# ====.================================:===================
  DEPT.M                               : Depth curve
GZ5.OHMM                               : äÄÜ. ëéèêéíàÇãÖçàÖ áéçÑÄ A8.0M1.0N
GZ4.OHMM                               : äÄÜ. ëéèêéíàÇãÖçàÖ áéçÑÄ A4.0M0.5N
GZ3.OHMM                               : äÄÜ. ëéèêéíàÇãÖçàÖ áéçÑÄ A2.0M0.5N
GZ2.OHMM                               : äÄÜ. ëéèêéíàÇãÖçàÖ áéçÑÄ A1.0M0.1N
GZ1.OHMM                               : äÄÜ.ëéèêéíàÇãÖçàÖ áéçÑÄ A0.4M0.1N
PZ.OHMM                                : äÄÜ.ëéèê.èé èéíÖçñàÄãáéçÑì Ä0.5å6.5N
RRB.OHMM                               : ëéèêéíàÇã.èêéåõÇéóç.ÜàÑäéëíà èÖêÇàó.
CALI.MM                                : ëìååÄêçõâ ÑàÄåÖíê äÄÇÖêçéåÖêÄ
CILA.MMHO                              : áéçÑ àä 7à1.6,Ääí.ëàÉçÄã/àä-è/Äàä-5
SP.MV                                  : ÖëíÖëíÇÖççÄü ëÄåéèéãüêàáÄñàü èé èë
BS.                                    : Ñ≠-216¨¨
GR.UR/H                                : ÖëíÖëíÇÖççÄü ÉÄååÄ-ÄäíàÇçéëíú èé Éä
GZB.OHMM                               : GZB
~ASCII Log Data
# ...
  3256.60    54.6329    59.4205    40.2333    17.7117     6.0986    32.2605     0.8062   212.5650    30.9155   340.9268   215.9000     4.0594   111.0243
  3256.80    55.0520    60.4058    38.2545    18.9566     6.4650    34.4900     0.8095   209.3301    30.0730   339.1354   215.9000     4.1809   115.0061
  3257.00    55.8830    63.5527    39.2727    21.1016     7.0833    37.0887     0.8183   209.9093    25.3510   338.0389   215.9000     4.1747   115.7939
  3257.20    57.3511    66.5381    41.2291    22.1011     7.3348    39.2699     0.8243   208.6424    23.1903   337.9727   215.9000     4.0886   115.0468
  3257.40    59.3377    69.7660    43.6480    25.8762     8.4441    41.1553     0.8292   209.2932    20.1665   337.4374   215.9000     3.9837   111.8413
  3257.60    61.0403    73.3686    46.6958    29.1719     9.4129    42.0322     0.8152   208.1398    15.4089   336.6787   215.9000     3.9435   107.7584
  3257.80    62.8828    74.6422    48.6934    32.7892    10.0505    42.7289     0.8185   208.1877    17.5238   334.7231   215.9000     3.6198   109.0522
  3258.00    64.6539    73.6972    49.9636    30.8833     8.8680    43.2805     0.8105   208.1420    15.4866   334.4373   215.9000     3.0517   114.9185
  3258.20    65.9739    73.0767    51.4375    33.0834     9.0326    43.3649     0.8192   209.4389    15.1863   333.2231   215.9000     2.4213   118.6630
  3258.40    67.7674    74.5503    55.8899    37.3033     9.9447    44.1161     0.8221   207.7419    16.8328   332.0009   215.9000     2.1155   117.5733
  3258.60    70.5903    73.5736    58.2818    31.2761     8.5915    45.4917     0.8058   207.7646    16.6729   330.8837   215.9000     1.9886   121.1587
  3258.80    72.8992    69.3548    56.5895    28.2533     7.9012    46.7543     0.8029   210.2226    18.3646   326.7277   215.9000     1.9401   129.9964
  3259.00    74.8788    69.9576    58.7142    29.7199     7.9685    48.5500     0.8192   213.6285    17.2817   327.6972   215.9000     2.2407   130.4064
  3259.20    77.2001    72.6557    64.3486    31.7019     8.5151    50.4850     0.8219   211.1651    16.2776   328.3008   215.9000     2.4939   120.9628
  3259.40    79.9816    76.5761    73.0667    35.8116     9.7033    51.5452     0.8189   214.8131    14.6031   324.0376   215.9000     2.3454   111.6449
  3259.60    82.0697    79.8346    78.2516    35.6836     9.8651    52.6047     0.8182   210.1607    13.5330   321.3006   215.9000     2.1018   108.7005
  3259.80    85.3265    82.6129    79.4872    37.0056     9.9216    53.2273     0.8219   211.5598    11.9396   318.6516   215.9000     2.4082   108.8936
  3260.00    90.6488    84.8902    81.2635    37.1716     9.5429    53.9897     0.8191   210.8693    12.3431   314.2770   215.9000     2.8655   104.4916
  3260.20    98.0175    89.9717    85.3692    40.6076    10.0965    54.2993     0.8209   211.9218    11.8253   313.1149   215.9000     2.7868    98.3231
  3260.40   103.6134    98.4338    92.6844    43.5897    10.9022    54.4752     0.8188   218.9646    11.7562   310.3669   215.9000     2.1676    92.7011
  3260.60   107.3792   106.9052    97.4204    44.0715    11.2137    54.0980     0.8160   214.8574    12.5514   307.0520   215.9000     1.6643    90.0270
  3260.80   110.2473   112.3210    99.7383    44.0448    10.9612    53.6746     0.8172   213.3696    13.5499   302.3756   215.9000     1.6184    87.0729
  3261.00   111.6278   119.1942   104.2039    45.9558    11.3218    52.8012     0.8206   211.3089    13.9853   298.4878   215.9000     1.7407    84.6443
  3261.20   111.7143   127.8992   110.1734    47.3653    11.6343    52.1755     0.8140   211.2683    14.4041   294.3368   215.9000     1.7634    82.4650
  3261.40   110.8410   137.4222   115.3317    48.2351    11.8715    50.6339     0.8140   210.8822    15.4306   292.6244   215.9000     1.5765    79.9730
  3261.60   109.1877   139.8707   115.1905    48.5638    12.2523    49.2612     0.8145   211.0198    16.1100   289.1638   215.9000     1.4977    80.7487
  3261.80   106.8504   138.5625   112.1008    45.0061    11.3401    48.0625     0.8238   211.0546    15.8961   284.5217   215.9000     1.6363    83.0775
  3262.00   103.4897   136.4929   109.0643    44.8881    11.2051    46.8144     0.8205   211.4008    17.6926   282.0735   215.9000     1.8755    87.3314
  3262.20    99.2565   134.8695   106.9038    42.5459    10.7375    45.9909     0.8282   210.9642    19.2787   277.8327   215.9000     1.9809    94.2906
  3262.40    96.0841   134.1633   104.3277    40.9745    10.5125    44.9712     0.8135   212.1173    19.2485   276.0084   215.9000     2.0164   100.1973
  3262.60    93.4939   136.4849   103.8245    41.5398    10.7667    44.3597     0.8056   211.9322    19.9180   273.1107   215.9000     2.0078   103.1949
  3262.80    88.8297   137.2390   103.0061    42.0517    11.0381    43.8453     0.8156   211.5456    20.5016   270.8163   215.9000     2.0648   103.7156
  3263.00    84.8876   130.7752    95.0178    36.1260    10.0986    43.9432     0.7897   211.5469    19.6285   267.7247   215.9000     2.1467   110.8134
  3263.20    81.0423   119.1331    84.1101    31.9414     8.7891    44.2569     0.8044   215.3473    18.8167   266.5782   215.9000     2.3593   126.0975
  3263.40    77.2254   118.8701    79.7962    31.9826     8.2992    44.4272     0.8123   215.5490    20.4956   265.1874   215.9000     2.5371   135.5135
  3263.60    73.4862   120.2019    78.8754    34.2584     9.0435    45.6165     0.8177   211.3501    19.6080   266.1893   215.9000     2.5357   135.4284
  3263.80    71.9317   117.6236    75.7636    31.3101     8.6339    47.2989     0.8110   211.7316    19.0935   267.6706   215.9000     2.4549   133.3699
  3264.00    71.1635   109.9697    69.3513    29.2024     8.2171    48.8742     0.8108   212.4484    18.1684   266.0954   215.9000     2.4918   135.8657
  3264.20    70.3740   105.8120    64.8963    27.0287     7.5557    51.1895     0.8082   212.1570    14.8324   265.9016   215.9000     2.8936   140.2812
  3264.40    70.4705   105.8356    63.6427    26.8453     7.2673    53.7108     0.8112   212.9142    14.8898   265.6418   215.9000     3.3879   137.9128
  3264.60    72.4801   109.9085    66.3156    29.0372     7.7095    56.4480     0.8148   211.7838    15.5265   264.4567   215.9000     3.5230   128.6606
  3264.80    76.0798   117.4757    71.2794    31.7470     8.4466    59.1605     0.8302   211.9194    16.4596   264.4304   215.9000     3.2165   115.4777
  3265.00    81.1840   126.0860    77.2349    34.9790     9.3219    60.9442     0.8352   212.0068    15.1021   265.5563   215.9000     2.8003   102.7802
  3265.20    87.3017   134.3072    83.3863    38.8156    10.2593    62.1698     0.8377   211.6870    12.4896   267.0201   215.9000     2.6351    90.7783
  3265.40    95.0600   143.6789    91.0738    43.0009    11.1653    62.2483     0.8306   211.1997    10.8734   268.4453   215.9000     2.6346    81.8230
  3265.60   105.8076   152.5569   101.5318    48.1897    12.0737    61.5830     0.8242   212.7319    12.0813   269.7838   215.9000     2.5728    75.1867
  3265.80   113.7000   163.2191   113.1019    52.8674    13.0314    59.9060     0.8288   211.9959    12.5661   268.7350   215.9000     2.2438    69.4314
  3266.00   122.2729   171.7549   123.0890    57.8507    13.9956    57.4698     0.8242   211.7530    13.8456   267.9049   215.9000     1.8422    65.0636
  3266.20   129.1734   181.7508   134.4412    60.2760    14.1915    54.3156     0.8292   211.5624    15.8088   265.4000   215.9000     1.4970    61.9081
  3266.40   135.2266   192.3344   146.7328    65.7875    15.2085    50.1726     0.8332   212.9238    17.5975   263.7773   215.9000     1.3392    59.0868
  3266.60   138.9946   199.9596   157.6725    67.5404    15.5791    45.7677     0.8190   211.6136    19.7210   265.2177   215.9000     1.2470    57.8314
  3266.80   140.4909   198.7031   161.0302    65.4473    15.1764    41.7922     0.8185   212.3636    23.3913   261.1313   215.9000     1.2096    59.1643
  3267.00   136.1761   188.6479   155.3776    60.9249    14.2666    38.0908     0.8098   211.2115    23.2180   261.8121   215.9000     1.2307    63.4327
