~Version information
  VERS.                            1.20: CWLS LAS  -  VERSION 1.20
  WRAP.                              NO: One line per depth step
~Well information
# MNEM.UNIT
# ====.================================:===================
  STRT.M                        3148.00: First depth in file
  STOP.M                        3449.00: Last depth in file
  STEP.M                           0.20: Depth increment
  NULL.                            9999: Null values
  COMP.                         COMPANY: 
  WELL.                            WELL: 115 
  FLD .                           FIELD: íÌ§®≠·™†Ô
  CNTY.                          COUNTY: 
  STAT.                           STATE: 
  DATE.                        LOG DATE: 29-04-04
  SRVC.                 SERVICE COMPANY: 
  UWI.           Unique Well Identifier: 
~Parametr information block
# MNEM.UNIT
# ====.================================:===================
~Other information
# ------------------------- REMARKS  AREA ------------------
~Curve information
# MNEM.UNIT
# ====.================================:===================
  DEPT.M                               : Depth curve
SFND.1/CM                              : SFND
SFFD.1/CM                              : SFFD
TCND.                                  : àçíÖÉêÄãúçõâ ëóÖí, åÄãõâ áéçÑ / àçä
TCFD.                                  : àçíÖÉêÄãúçõâ ëóÖí, Å. áéçÑ / àçä
TCNC.                                  : äéåè.àçíÖÉê. ëóÖí, åÄãõâ áéçÑ / àçä
TCFC.                                  : äéåè.àçíÖÉêÄãúçõâ ëóÖí,Å.áéçÑ / àçä
~ASCII Log Data
# ...
  3169.20    13.0930    10.0400  3420.0000  1035.0000  3670.0000  2657.0000
  3169.40    12.2820     9.5630  3921.0000  1221.0000  4278.0000  3168.0000
  3169.60    12.8050     9.8350  3053.0000  1116.0000  3352.0000  2886.0000
  3169.80    13.2260    10.5040  2905.0000   946.0000  3171.0000  2653.0000
  3170.00    13.8830    11.2010  2916.0000  1077.0000  3122.0000  2844.0000
  3170.20    14.7740    10.7700  1902.0000   808.0000  2206.0000  2358.0000
  3170.40    17.2770    12.2470  1786.0000   584.0000  2135.0000  1905.0000
  3170.60    15.1160    14.1680  1916.0000   488.0000  2084.0000  1633.0000
  3170.80    15.0000    13.6670  1916.0000   488.0000  2084.0000  1633.0000
  3171.00    15.0280    11.4420  2195.0000   461.0000  2454.0000  1705.0000
  3171.20    14.8140     9.9750  1801.0000   463.0000  1867.0000  1519.0000
  3171.40    14.1580    10.9740  2612.0000   677.0000  2707.0000  1965.0000
  3171.60    13.8820    12.3480  3630.0000   999.0000  3774.0000  3042.0000
  3171.80    12.9830    11.2890  2196.0000   712.0000  2257.0000  1963.0000
  3172.00    14.2020    11.3370  1596.0000   698.0000  1817.0000  1884.0000
  3172.20    13.6490    11.9680  3745.0000   956.0000  4215.0000  3192.0000
  3172.40    12.5830    11.2430  2492.0000   705.0000  2790.0000  2129.0000
  3172.60    14.6680    11.9340  2490.0000   793.0000  2830.0000  2624.0000
  3172.80    17.5880    13.4230  1777.0000   695.0000  2153.0000  2362.0000
  3173.00    18.5410    15.4010  1136.0000   460.0000  1388.0000  1686.0000
  3173.20    18.7170    18.3060  1104.0000   272.0000  1301.0000  1126.0000
  3173.40    15.6860    17.7750  2356.0000   356.0000  2689.0000  1630.0000
  3173.60    15.5030    12.8950  2493.0000   393.0000  2820.0000  1588.0000
  3173.80    13.7240    13.7210  1959.0000   528.0000  2186.0000  1715.0000
  3174.00    15.8540    13.7610  2100.0000   674.0000  2282.0000  2283.0000
  3174.20    15.0380    13.0080  2923.0000   806.0000  3385.0000  2838.0000
  3174.40    14.3250    14.1910  1956.0000   627.0000  2368.0000  1979.0000
  3174.60    20.7300    14.5050  1424.0000   418.0000  1696.0000  1633.0000
  3174.80    18.2500    14.2110   961.0000   285.0000  1105.0000  1166.0000
  3175.00    19.2220    20.5040  1216.0000   277.0000  1399.0000  1460.0000
  3175.20    21.1480    15.1460  1238.0000   308.0000  1458.0000  1447.0000
  3175.40    17.6140    16.4310  1473.0000   274.0000  1689.0000  1276.0000
  3175.60    15.8710    15.6080  1473.0000   274.0000  1689.0000  1276.0000
  3175.80    14.3490    14.1010  2347.0000   303.0000  2713.0000  1433.0000
  3176.00    12.1680    12.5240  2705.0000   499.0000  2968.0000  1729.0000
  3176.20    12.8460    10.5740  2070.0000   572.0000  2163.0000  1572.0000
  3176.40    12.0360    10.9040  2613.0000   870.0000  2814.0000  2439.0000
  3176.60    14.2140    12.3670  1715.0000   614.0000  1879.0000  1758.0000
  3176.80    15.2890    12.8030  1689.0000   683.0000  1914.0000  1995.0000
  3177.00    13.7910    12.9030  2093.0000   753.0000  2440.0000  2413.0000
  3177.20    18.8770    11.9930  1552.0000   441.0000  1808.0000  1445.0000
  3177.40    19.1200    12.8640  1475.0000   380.0000  1685.0000  1497.0000
  3177.60    16.4710    15.2220  1749.0000   433.0000  1953.0000  1645.0000
  3177.80    18.2260    15.3520  2062.0000   484.0000  2404.0000  1885.0000
  3178.00    15.4150    14.7200  2042.0000   443.0000  2292.0000  1657.0000
  3178.20    15.6470    12.8800  2662.0000   546.0000  2893.0000  1960.0000
  3178.40    15.1360    10.2300  2481.0000   672.0000  2837.0000  2331.0000
  3178.60    14.0100    10.7920  1684.0000   556.0000  1924.0000  1672.0000
  3178.80    13.3320    12.5250  1942.0000   616.0000  2175.0000  1806.0000
  3179.00    13.3550    12.1220  2621.0000   636.0000  2839.0000  2097.0000
  3179.20    14.4570    12.0300  3037.0000   734.0000  3314.0000  2174.0000
  3179.40    11.8530    12.1000  3164.0000   883.0000  3426.0000  2806.0000
  3179.60    12.3330    11.4590  3181.0000   980.0000  3260.0000  2626.0000
  3179.80    12.9260     9.6840  2983.0000   999.0000  3241.0000  2756.0000
  3180.00    13.8830    10.8740  3125.0000  1111.0000  3608.0000  2903.0000
  3180.20    14.9510    10.8620  2498.0000   868.0000  2702.0000  2556.0000
  3180.40    14.7230    10.9380  2498.0000   868.0000  2702.0000  2556.0000
  3180.60    16.2010    11.2150  2209.0000   786.0000  2447.0000  2518.0000
  3180.80    16.0210    12.0940  2100.0000   821.0000  2426.0000  2395.0000
  3181.00    16.3680    12.7580  1322.0000   484.0000  1492.0000  1549.0000
  3181.20    15.8200    14.4490  1875.0000   540.0000  2123.0000  2003.0000
  3181.40    16.6040    14.8820  2259.0000   625.0000  2746.0000  2690.0000
  3181.60    18.5420    13.9340  1998.0000   437.0000  2330.0000  1750.0000
  3181.80    17.7370    16.5740  1523.0000   365.0000  1820.0000  1451.0000
  3182.00    18.8960    14.2050  1843.0000   473.0000  2121.0000  1851.0000
  3182.20    19.1270    15.2530  1823.0000   422.0000  2211.0000  1805.0000
  3182.40    15.3040    15.7220  1660.0000   411.0000  1927.0000  1651.0000
  3182.60    14.4990    15.1140  1323.0000   348.0000  1569.0000  1236.0000
  3182.80    16.1370    15.7310  1578.0000   383.0000  1816.0000  1582.0000
  3183.00    14.7080    16.6690  1684.0000   388.0000  1981.0000  1522.0000
  3183.20    17.5000    17.0690  1591.0000   415.0000  1907.0000  1724.0000
  3183.40    18.1860    14.9870  1542.0000   403.0000  1797.0000  1626.0000
  3183.60    18.7140    13.2420  1596.0000   389.0000  1865.0000  1521.0000
  3183.80    15.4610    15.1330  1793.0000   394.0000  2048.0000  1532.0000
  3184.00    17.1850    14.2340  1742.0000   507.0000  1961.0000  1823.0000
  3184.20    18.2060    13.0400  1199.0000   439.0000  1411.0000  1536.0000
  3184.40    20.1490    14.7460  1606.0000   458.0000  1858.0000  1779.0000
  3184.60    20.0000    16.9010  1272.0000   347.0000  1550.0000  1273.0000
  3184.80    20.8680    18.5360  1255.0000   254.0000  1454.0000  1179.0000
  3185.00    17.3960    19.2750  1415.0000   259.0000  1572.0000  1085.0000
  3185.20    15.9240    16.7790  1415.0000   259.0000  1572.0000  1085.0000
  3185.40    15.9110    13.0520  2111.0000   358.0000  2316.0000  1421.0000
  3185.60    16.0940    14.5170  2672.0000   557.0000  2957.0000  2098.0000
  3185.80    15.3860    12.9510  2420.0000   607.0000  2751.0000  2086.0000
  3186.00    16.1940    12.0280  2768.0000   781.0000  3183.0000  2669.0000
  3186.20    16.2790    12.6240  2239.0000   748.0000  2541.0000  2370.0000
  3186.40    15.6810    13.4820  1883.0000   586.0000  2084.0000  1906.0000
  3186.60    15.2400    14.1270  1924.0000   500.0000  2122.0000  1674.0000
  3186.80    15.1000    13.9750  1700.0000   454.0000  1983.0000  1607.0000
  3187.00    17.9250    14.3330  1748.0000   531.0000  2149.0000  2011.0000
  3187.20    19.7850    15.5690  1350.0000   442.0000  1592.0000  1664.0000
  3187.40    22.3320    15.7310  1136.0000   300.0000  1345.0000  1424.0000
  3187.60    24.5070    14.8630  1150.0000   261.0000  1531.0000  1406.0000
  3187.80    21.8800    16.2020  1188.0000   223.0000  1392.0000  1139.0000
  3188.00    20.3210    17.8970  1054.0000   207.0000  1323.0000  1157.0000
  3188.20    21.8130    16.5210  1415.0000   250.0000  1677.0000  1301.0000
  3188.40    16.0350    17.2070  3060.0000   397.0000  3613.0000  1829.0000
  3188.60    13.9860    14.9690  2708.0000   460.0000  2929.0000  1880.0000
  3188.80    16.4470    12.2790  2526.0000   690.0000  2863.0000  2472.0000
  3189.00    15.1870    12.1230  1835.0000   682.0000  2065.0000  2119.0000
  3189.20    14.7010    13.7140  1584.0000   499.0000  1746.0000  1674.0000
  3189.40    14.1570    14.7250  2208.0000   513.0000  2459.0000  1816.0000
  3189.60    15.6870    11.6960  2208.0000   491.0000  2507.0000  1901.0000
  3189.80    14.3240    12.1140  2251.0000   575.0000  2433.0000  1850.0000
  3190.00    15.4620    12.7560  4080.0000   859.0000  4492.0000  2852.0000
  3190.20    15.2370    12.3790  4080.0000   859.0000  4492.0000  2852.0000
