~Version Information
#-------------------
Vers.        2.0: CWLS log ASCII Standart - VERSION 2.0
WRAP.         NO: One line per depth step
~Well Information Block
#----------------------
#MNEM.UNIT  VALUE: DESCRIPTION
#----.---- -------: -------------
STRT.M     90.00: 
STOP.M    460.00: 
STEP.M      0.20:  
NULL.  -9999.990:  
COMP.           : 
WELL.           : 115
FLD .           : Тэдинская
LOC .           : 
CNTY.           : 
SRVC.           : 
DATE.           : 21-03-04
UWI .           : 
~Parameter Information
#---------------------
#MNEM.UNIT  VALUE: DESCRIPTION
#----.---- -------: ---------------
~Curve Information Block
#-----------------------
#MNEM.UNIT       : CURVE DESCRIPTION
#----.----       : -----------------
DEPT.M          : 
Aя  .           : Амплитуда - волна по колонне 
Tя  .мкс        : Время пробега - волна по породе
Aъ  .           : Амплитуда - волна по породе
DK  .дБ         : Затухание
akz .           : контакт цемент-колонна
~Other Information
#-----------------
~Ascii Log Data
# ...
       378    297.945      619.6    311.802     12.974          1 
     378.2    297.945    617.316    274.076     13.546          1 
     378.4    321.918    617.183    295.202      12.89          1 
     378.6    356.164    617.796    340.085     13.455          1 
     378.8    369.863    617.589    367.746         11          1 
       379    325.342    617.339    307.508     12.551          1 
     379.2    318.493    617.211     305.17     11.764          1 
     379.4    349.315     617.36    326.273     12.029          1 
     379.6    339.041    618.815    344.178     11.557          1 
     379.8    325.342    620.498    301.772     12.803          1 
       380    232.529    621.305    220.164     15.505          2 
     380.2    185.713    620.972    182.049     17.644          2 
     380.4    169.352    621.113    173.337     18.086          2 
     380.6    176.182    621.747    171.139     17.669          2 
     380.8    193.067    623.233    198.219      16.35          2 
       381    202.454    623.998    205.198     16.051          2 
     381.2    195.447    625.603    198.558      16.36          2 
     381.4    181.992    625.169    170.979     17.645          2 
     381.6     194.53    623.808     176.34     17.389          2 
     381.8    236.595    623.264    243.163     14.712          2 
       382    251.877     622.62    274.078     13.538          2 
     382.2    225.628    621.732    212.032     15.884          3 
     382.4    213.909     620.25    212.003     15.799          3 
     382.6    216.178    619.418    221.969     15.369          3 
     382.8    186.452    619.675    207.941     16.006          3 
       383    119.303    621.343     112.82     21.772          3 
     383.2     80.723    640.748     82.785     23.988          3 
     383.4     82.192    671.443     63.721     26.334          3 
     383.6     61.644    706.304     51.758     28.036          3 
     383.8     61.644    772.615     57.167     27.149          3 
       384     54.795    817.704     44.681     29.488          3 
     384.2     48.532    775.181     44.033     29.421          3 
     384.4     58.219    700.872     30.755     33.019          4 
     384.6     34.247    688.075     16.688     38.544          4 
     384.8     37.671    722.568     10.104     42.207          4 
       385     24.297    814.548      9.521     42.724          4 
     385.2     34.247    897.043      9.509     43.435          4 
     385.4     34.247        868     14.934      38.84          4 
     385.6     41.096    758.611     27.667     33.863          4 
     385.8     44.521     719.61     42.375     30.579          4 
       386     89.886    716.073     61.181     27.165          4 
     386.2    113.869    671.173     29.903     33.762          4 
     386.4     97.487    703.826     28.111     33.628          4 
     386.6     92.606    731.605     23.042     35.042          4 
     386.8    105.446    713.016     12.459     41.828          4 
       387    100.355     714.33      5.042      48.58          4 
     387.2     77.169    711.956      1.334     58.278          4 
     387.4     40.663    740.184          0     62.292          4 
     387.6     32.107    827.344          0     62.292          4 
     387.8     50.135    946.837          0     62.292          4 
       388     46.911   1070.796          0     62.292          4 
     388.2     49.943    983.193          0     62.292          4 
     388.4     61.774    809.814          0     62.292          4 
     388.6     44.244    798.168          0     62.292          4 
     388.8      21.29    827.712          0     62.292          4 
       389     20.548    862.049          0     62.292          4 
     389.2     23.973    865.626      3.375     62.292          4 
     389.4     23.973    856.831          0     62.292          4 
     389.6     40.704    826.379         20     42.597          4 
     389.8      23.38    783.044     10.445     46.272          4 
       390     34.247     822.41     11.014     58.544          4 
     390.2     34.247    901.967     12.232     53.546          4 
     390.4     30.822     930.34     11.952     42.781          4 
     390.6     30.822    999.511     10.804     42.442          4 
     390.8     37.671   1048.978      8.723     39.534          4 
       391     41.096    997.048     35.764     30.402          4 
     391.2     37.671    998.767     30.411     33.727          4 
     391.4     37.671    966.316      25.07     34.309          4 
     391.6     34.247    838.209     20.348     36.231          4 
     391.8     30.822    772.299     12.445     36.876          4 
       392     58.219    772.635     18.389     37.025          4 
     392.2      51.37    783.241     18.816     36.925          4 
     392.4     44.521    835.092     22.816     35.129          4 
     392.6     44.758    834.928     35.646     32.004          4 
     392.8     54.795    841.937     46.264     29.636          4 
       393     54.795    912.809     27.098     33.663          4 
     393.2     65.068      874.8     28.945     31.089          4 
     393.4     68.493    768.278     44.443     29.348          4 
     393.6     82.192    678.516     72.221     25.619          3 
     393.8     82.192    659.946     77.082     24.597          3 
       394    135.328    676.328     65.917     25.933          3 
     394.2    173.551    671.767     62.334     26.402          3 
     394.4     197.38    661.853     63.476      24.51          3 
     394.6    193.852    674.038     61.198     26.568          3 
     394.8    179.085    680.433     27.717     35.705          3 
       395    187.161    681.501     39.331     31.936          3 
     395.2     175.28    682.917     47.642     28.737          3 
     395.4    130.401    683.532     36.688     31.121          3 
     395.6    114.282    686.821     37.048     30.955          3 
     395.8    132.898    689.377      53.26     28.226          3 
       396    129.575    694.818     76.856     24.586          3 
     396.2     96.303    715.006      24.19     49.887          4 
     396.4    100.885    709.028     34.919     39.894          4 
     396.6    121.561    697.954     49.538     36.806          4 
     396.8     94.774    705.055      4.234     54.379          4 
       397       65.3    736.398     14.381      39.34          4 
     397.2     59.942    754.809      6.177     53.949          4 
     397.4     53.699    766.201      0.348     62.174          4 
     397.6     45.245    764.992          0     62.292          4 
     397.8     25.935    780.507          0     62.292          4 
       398     57.693    786.214          0     62.292          4 
     398.2    112.489    796.655          0     62.292          4 
     398.4    104.243    793.304          0     62.292          4 
     398.6     58.215    784.164      6.584     49.032          4 
     398.8      52.37     836.04      3.292     55.662          4 
       399     70.506    798.831          0     62.292          4 
     399.2     54.737    737.592          0     62.292          4 
     399.4     41.096    783.125          0     62.292          4 
     399.6     41.096    826.251      8.971     49.367          4 
     399.8     71.918    876.562     24.557     34.516          4 
       400     75.342    899.885     31.783     32.293          4 
     400.2     75.342    825.057     48.729     29.198          4 
     400.4     78.767    795.942     62.059     27.091          4 
     400.6      43.35    889.671     29.125     33.107          4 
     400.8     67.642    920.869     18.459     37.098          4 
       401     51.541    947.974     27.734     33.933          4 
     401.2      49.38    961.964     25.721     34.374          4 
     401.4     96.193    926.356     26.505     34.152          4 
     401.6    151.245    917.472     24.756     34.686          4 
     401.8    170.965    915.263     26.762     33.748          4 
