~Version information
  VERS.                            1.20: CWLS LAS  -  VERSION 1.20
  WRAP.                              NO: One line per depth step
~Well information
# MNEM.UNIT
# ====.================================:===================
  STRT.M                        3148.00: First depth in file
  STOP.M                        3438.00: Last depth in file
  STEP.M                           0.20: Depth increment
  NULL.                            9999: Null values
  COMP.                         COMPANY: 
  WELL.                            WELL: 115 
  FLD .                           FIELD: íÌ§®≠·™†Ô
  CNTY.                          COUNTY: 
  STAT.                           STATE: 
  DATE.                        LOG DATE: 28-04-04
  SRVC.                 SERVICE COMPANY: 
  UWI.           Unique Well Identifier: 
~Parametr information block
# MNEM.UNIT
# ====.================================:===================
~Other information
# ------------------------- REMARKS  AREA ------------------
~Curve information
# MNEM.UNIT
# ====.================================:===================
  DEPT.M                               : Depth curve
IZ2.DEG                                : îÄáÄ1(ÉêÄÑ)
IZ3.DEG                                : îÄáÄ2(ÉêÄÑ)
IZ4.DEG                                : îÄáÄ3(ÉêÄÑ)
IZ5.DEG                                : îÄáÄ4(ÉêÄÑ)
IZ1.DEG                                : îÄáÄ5(ÉêÄÑ)
VIK1.OHMM                              : É0.4à0.1à(éåå)
VIK5.OHMM                              : É0.57à0.14à(éåå)
VIK4.OHMM                              : É0.8à0.2à(éåå)
VIK3.OHMM                              : É1.13à0.28à(éåå)
VIK2.OHMM                              : É1.6à0.4à(éåå)
~ASCII Log Data
# ...
  3429.40    33.3750    44.3950    46.4600    49.0900    39.8350     1.7800     0.9600     0.8850     0.7750     1.0900
  3429.60    24.9750    37.6250    39.6300    42.6200    39.2100     2.9650     1.2950     1.1200     0.9800     1.1000
  3429.80    19.7750    34.6950    38.8200    41.1100    41.6900     3.6600     1.3700     1.0900     0.9900     0.9650
  3430.00    20.9200    38.4200    43.0050    44.0600    44.9800     3.4450     1.1200     0.9100     0.8650     0.8500
  3430.20    22.6250    42.9750    45.3300    44.4850    43.2300     2.9850     0.9150     0.8650     0.9200     1.0150
  3430.40    22.0350    40.0900    39.7500    36.8100    34.4300     3.4050     1.2850     1.3050     1.5350     1.7150
  3430.60    17.5750    29.3750    27.7750    25.7750    25.2800     5.9050     2.4800     2.7250     2.9700     2.8250
  3430.80    13.5400    20.0250    19.0900    18.8200    20.3100     7.6450     4.3250     4.4100     4.4150     3.7250
  3431.00    12.0850    15.6650    16.3500    17.2000    19.3300     8.6100     5.9650     5.3850     4.7950     3.8700
  3431.20    13.1250    15.2950    16.1200    18.7550    21.2500     7.5750     5.6850     5.1700     3.9850     3.2150
  3431.40    17.6400    19.8300    20.0950    22.9100    25.8750     4.3500     3.6500     3.5800     2.7500     2.2700
  3431.60    22.0550    27.2650    27.6150    29.2050    31.1500     3.0500     1.9950     2.0100     1.8500     1.6400
  3431.80    21.1250    31.4950    31.5200    32.2700    33.3100     3.6800     1.6500     1.6550     1.5950     1.4900
  3432.00    18.6400    31.3750    30.4050    30.5150    32.4450     4.4950     1.7600     1.8000     1.7750     1.5850
  3432.20    17.5300    28.8050    29.6600    29.9700    30.8550     4.8400     2.0200     1.8200     1.8050     1.7450
  3432.40    14.7900    24.5850    28.3900    29.3000    28.6150     6.5650     2.7650     2.1250     1.9450     2.0600
  3432.60    12.9950    20.9650    24.6150    26.4450    25.4000     8.0000     3.4700     2.7650     2.3450     2.5750
  3432.80    14.0600    20.1550    22.0750    24.1050    22.4900     6.7450     3.5800     3.2050     2.7550     3.1150
  3433.00    15.4650    20.2500    20.3000    21.3100    20.4900     5.6250     3.7700     3.8750     3.6150     3.6650
  3433.20    15.1850    17.9350    17.2850    17.7850    18.8100     6.0650     4.8550     5.1050     4.8250     4.2300
  3433.40    14.6700    15.4700    15.0600    16.0050    18.1250     6.3400     5.9050     6.1850     5.5400     4.4050
  3433.60    14.4200    14.7250    14.0650    15.6100    18.7100     6.4500     6.2100     6.7550     5.6500     4.0900
  3433.80    14.4450    14.6750    13.8650    16.1500    19.8250     6.4550     6.2650     6.8800     5.2000     3.6800
  3434.00    14.4200    14.6700    13.8900    17.2200    20.4550     6.4300     6.2650     6.9000     4.6800     3.5300
  3434.20    14.4150    14.7000    13.8350    17.7300    20.3000     6.4350     6.2450     6.8900     4.5600     3.6250
  3434.40    14.4600    14.7000    13.8050    17.7400    19.9800     6.4600     6.2450     6.8900     4.5750     3.7400
  3434.60    14.4600    14.6900    13.8450    17.6650    19.7750     6.4550     6.2350     6.8900     4.5700     3.7800
  3434.80    14.4450    14.7000    13.8500    17.6300    19.7350     6.4100     6.2600     6.8850     4.5600     3.7800
  3435.00    14.4050    14.7050    13.8500    17.6650    19.7600     6.4000     6.2350     6.8950     4.5500     3.7900
  3435.20    14.3800    14.7100    13.8450    17.6650    19.7850     6.4500     6.2100     6.8800     4.5450     3.7900
  3435.40    14.4000    14.6850    13.8600    17.6800    19.7250     6.4650     6.2250     6.8900     4.5400     3.7900
  3435.60    14.3950    14.6650    13.8850    17.6650    19.7300     6.4350     6.2350     6.9100     4.5650     3.7950
  3435.80    14.3950    14.6650    13.8550    17.7050    19.7650     6.4200     6.2250     6.9100     4.5800     3.7850
  3436.00    14.3850    14.6950    13.8400    17.7250    19.7500     6.4200     6.2300     6.9050     4.5750     3.8050
  3436.20    14.3950    14.7200    13.8550    17.6850    19.7700     6.4150     6.2500     6.9000     4.5650     3.7900
  3436.40    14.4350    14.7050    13.8300    17.6800    19.7600     6.4150     6.2350     6.9100     4.5550     3.7700
  3436.60    14.4750    14.7000    13.8400    17.6650    19.7400     6.4150     6.2300     6.9050     4.5700     3.7750
  3436.80    14.4500    14.7050    13.8750    17.7150    19.7500     6.4100     6.2400     6.8800     4.5850     3.7650
  3437.00    14.4000    14.7100    13.8300    17.7050    19.7350     6.4100     6.2550     6.8850     4.5800     3.7900
  3437.20    14.4000    14.6650    13.7850    17.6550    19.7400     6.4300     6.2600     6.9300     4.5700     3.7900
  3437.40    14.4250    14.6650    13.7800    17.6700    19.7500     6.4300     6.2450     6.9750     4.5650     3.7650
  3437.60    14.4500    14.6900    13.8500    17.6650    19.7600     6.4100     6.2400     6.9250     4.5600     3.7900
  3437.80    14.4300    14.6650    13.8750    17.6600    19.7550     6.4300     6.2500     6.8750     4.5750     3.7900
  3438.00       9999    14.6900    13.8400    17.6600    19.7350       9999     6.2500     6.8900     4.5800     3.7750
