~Version Information
#-------------------
Vers.        2.0: CWLS log ASCII Standart - VERSION 2.0
WRAP.         NO: One line per depth step
~Well Information Block
#----------------------
#MNEM.UNIT  VALUE: DESCRIPTION
#----.---- -------: -------------
STRT.M     90.00: 
STOP.M    460.00: 
STEP.M      0.20:  
NULL.  -9999.990:  
COMP.           : 
WELL.           : 115
FLD .           : Тэдинская
LOC .           : 
CNTY.           : 
SRVC.           : 
DATE.           : 21-03-04
UWI .           : 
~Parameter Information
#---------------------
#MNEM.UNIT  VALUE: DESCRIPTION
#----.---- -------: ---------------
~Curve Information Block
#-----------------------
#MNEM.UNIT       : CURVE DESCRIPTION
#----.----       : -----------------
DEPT.M          : 
Aя  .           : Амплитуда - волна по колонне 
Tя  .мкс        : Время пробега - волна по породе
Aъ  .           : Амплитуда - волна по породе
DK  .дБ         : Затухание
akz .           : контакт цемент-колонна
~Other Information
#-----------------
~Ascii Log Data
# ...
       306     46.872   1408.834          0     62.292          4 
     306.2     64.748   1426.479      6.125     62.292          4 
     306.4     67.535   1465.064          0     62.292          4 
     306.6     43.586   1406.426          0     62.292          4 
     306.8     11.841   1185.296          0     62.292          4 
       307     23.973   1053.811          0     62.292          4 
     307.2     20.548    928.312          0     62.292          4 
     307.4     12.366    981.393          0     62.292          4 
     307.6     23.495   1128.292          0     62.292          4 
     307.8     12.366    1155.35      3.542     62.292          4 
       308     30.822   1168.231      3.542     62.292          4 
     308.2     61.644    1162.41      0.675     60.249          4 
     308.4     37.671    986.791      5.038     51.248          4 
     308.6     57.762    765.603      12.25     40.607          3 
     308.8     65.068    677.866     36.887     32.106          3 
       309     75.342    666.884     51.247     28.148          3 
     309.2     78.767    666.621     70.702     25.738          3 
     309.4    136.986    649.439     117.34     21.212          3 
     309.6     102.74    663.815     90.279     25.657          3 
     309.8     68.493    723.053     43.163     29.987          3 
       310     58.219    850.914     30.208     32.726          4 
     310.2     64.234     902.95      34.63     31.575          4 
     310.4      51.18    872.436     29.351     31.896          4 
     310.6     65.068    818.911      9.564     39.343          4 
     310.8     54.795    852.624      4.472     55.027          4 
       311      46.56    894.409      1.472     58.652          4 
     311.2     32.116    914.153      0.375     61.118          4 
     311.4     68.493    897.273          0     62.292          4 
     311.6     68.493    836.548          0     62.292          4 
     311.8     38.609    795.836          0     62.292          4 
       312     40.409    781.763          0     62.292          4 
     312.2     28.578    735.608          1     62.292          4 
     312.4     26.431    736.585          0     62.292          4 
     312.6     47.769     803.57          0     62.292          4 
     312.8     38.279    878.912      8.833     47.329          4 
       313     39.759    827.585      4.417     54.811          4 
     313.2     80.866    758.143          0     62.292          4 
     313.4     99.192    753.306          0     62.292          4 
     313.6     93.373     754.77          0     62.292          4 
     313.8     83.624    756.717          0     62.292          4 
       314     54.609    762.386          0     62.292          4 
     314.2     37.671    789.378          0     62.292          4 
     314.4     44.521    776.285     11.667     51.998          4 
     314.6     44.521    743.549     23.333     41.705          4 
     314.8     65.068    791.062          0     62.292          4 
       315     55.987    912.889          0     62.292          4 
     315.2     54.717    958.331          0     62.292          4 
     315.4     26.371    891.605          0     62.292          4 
     315.6     23.951    796.186          0     62.292          4 
     315.8     71.204    758.322          0     62.292          4 
       316    101.456    758.771          0     62.292          4 
     316.2     74.636    875.609          0     62.292          4 
     316.4     28.861    971.496          0     62.292          4 
     316.6     17.123    925.769          0     62.292          4 
     316.8     17.123    919.641          0     62.292          4 
       317     27.141    921.092          0     62.292          4 
     317.2     81.478    888.792      1.389     58.042          4 
     317.4     96.197     876.29      0.695     60.167          4 
     317.6     51.417    836.208      4.375     62.076          4 
     317.8     34.247    784.997      5.149     61.213          4 
       318     34.247    802.099      1.762     57.758          4 
     318.2     30.822    784.423      5.445     48.036          4 
     318.4     30.822    732.055      8.711     43.502          4 
     318.6     99.851    722.658     27.738     33.053          3 
     318.8     98.615    709.716     41.633     30.031          3 
       319    128.836    687.012     47.787     28.982          3 
     319.2    137.886     683.45     59.305     27.021          3 
     319.4    103.668    662.068     81.853     24.071          3 
     319.6     83.872    625.981     94.326     22.801          3 
     319.8     89.177    618.743     94.255     22.808          3 
       320     93.918    618.427     93.285     22.906          3 
     320.2     98.513    618.644     94.975     22.756          3 
     320.4    110.354    619.286    107.794     21.727          3 
     320.6    125.202    620.196    126.645     20.255          3 
     320.8    129.216    620.326    129.444     19.336          3 
       321    115.573     620.21    102.775     21.351          3 
     321.2     94.226    619.957    106.744     21.748          3 
     321.4     61.644    637.944     95.138     22.791          3 
     321.6     61.644    717.185     60.776     26.965          3 
     321.8      51.37    750.588     47.572     28.745          3 
       322     44.521    896.688     35.828      31.69          3 
     322.2     34.247    992.217     36.417     31.117          3 
     322.4     34.247    854.939     21.017     36.286          4 
     322.6     65.948    782.256      7.133     49.391          4 
     322.8     81.201    781.376      2.333     56.658          4 
       323     55.577    791.174      4.667     51.024          4 
     323.2     18.387    793.545          0     62.292          4 
     323.4     25.821     830.39          0     62.292          4 
     323.6     63.169    880.204          0     62.292          4 
     323.8     64.589    878.651          0     62.292          4 
       324     42.594    863.725          0     62.292          4 
     324.2     56.609    894.115          0     62.292          4 
     324.4     99.644      934.8          0     62.292          4 
     324.6     99.144    945.326          0     62.292          4 
     324.8     53.764   1003.528          0     62.292          4 
       325     22.185   1061.548          0     62.292          4 
     325.2     25.655   1007.063          0     62.292          4 
     325.4     47.684    931.185          0     62.292          4 
     325.6     85.299    868.485        3.5     55.484          4 
     325.8    139.419    747.409      35.65     33.041          4 
       326    164.853    734.709     16.075      51.07          4 
     326.2    122.764     871.63      2.717     59.228          4 
     326.4     60.733    980.894        4.1     52.097          4 
     326.6     41.849    951.289      8.417      43.79          4 
     326.8     44.161    903.111      2.833     56.096          4 
       327     54.864    913.564          0     62.292          4 
     327.2     45.837    968.695          0     62.292          4 
     327.4     21.739    888.524          0     62.292          4 
     327.6     50.452    785.204          0     62.292          4 
     327.8    110.966    765.918          0     62.292          4 
       328    120.242    761.766          0     62.292          4 
     328.2     70.375    740.491      3.333     55.626          4 
     328.4     34.247    717.937      6.667     48.959          4 
     328.6     23.973     714.76          0     62.292          4 
     328.8     23.973    734.571          0     62.292          4 
       329     27.397    739.515          0     62.292          4 
     329.2     66.384    714.787          0     62.292          4 
     329.4    102.683    711.841     19.333     42.794          4 
     329.6     99.527    712.276     11.792     39.623          4 
     329.8     93.592    713.877       4.25     51.566          4 
