~Version Information
#-------------------
Vers.        2.0: CWLS log ASCII Standart - VERSION 2.0
WRAP.         NO: One line per depth step
~Well Information Block
#----------------------
#MNEM.UNIT  VALUE: DESCRIPTION
#----.---- -------: -------------
STRT.M     90.00: 
STOP.M    460.00: 
STEP.M      0.20:  
NULL.  -9999.990:  
COMP.           : 
WELL.           : 115
FLD .           : Тэдинская
LOC .           : 
CNTY.           : 
SRVC.           : 
DATE.           : 21-03-04
UWI .           : 
~Parameter Information
#---------------------
#MNEM.UNIT  VALUE: DESCRIPTION
#----.---- -------: ---------------
~Curve Information Block
#-----------------------
#MNEM.UNIT       : CURVE DESCRIPTION
#----.----       : -----------------
DEPT.M          : 
Aя  .           : Амплитуда - волна по колонне 
Tя  .мкс        : Время пробега - волна по породе
Aъ  .           : Амплитуда - волна по породе
DK  .дБ         : Затухание
akz .           : контакт цемент-колонна
~Other Information
#-----------------
~Ascii Log Data
# ...
       210     62.007    1547.39          0     62.292          4 
     210.2     85.677   1570.292     29.333      40.38          4 
     210.4     65.016   1528.109     16.083     47.147          4 
     210.6     66.976   1460.974          0     62.292          4 
     210.8     88.232   1447.353          0     62.292          4 
       211     85.784   1448.634          0     62.292          4 
     211.2     56.097   1487.242          0     62.292          4 
     211.4      46.88   1547.121          0     62.292          4 
     211.6     58.502   1563.774          0     62.292          4 
     211.8     44.731   1579.039     21.417     42.201          4 
       212     34.857   1536.607     10.708     52.247          4 
     212.2     58.375   1468.393          0     62.292          4 
     212.4     56.441   1455.227          0     62.292          4 
     212.6     19.396   1372.216          0     62.292          4 
     212.8      51.37   1053.248     11.687     51.993          4 
       213      51.37    827.011     23.375     41.694          4 
     213.2     44.521    898.081          0     62.292          4 
     213.4     44.521   1086.815          0     62.292          4 
     213.6     47.945   1239.114      6.342     62.292          4 
     213.8     29.276   1261.794      6.342     62.292          4 
       214     54.795   1327.688          0     62.292          4 
     214.2     94.372   1435.677     15.375     51.199          4 
     214.4     166.89   1533.279      30.75     40.106          4 
     214.6    197.999   1557.418          0     62.292          4 
     214.8    207.263   1559.905          0     62.292          4 
       215    218.004   1580.375          0     62.292          4 
     215.2    195.808   1594.903     10.458     52.315          4 
     215.4    173.823   1598.233     20.917     42.338          4 
     215.6    175.716   1602.791          0     62.292          4 
     215.8    171.574   1607.236          0     62.292          4 
       216    159.874   1609.908     15.361     44.125          4 
     216.2    127.483   1602.019      7.681     53.209          4 
     216.4     57.394   1633.718          0     62.292          4 
     216.6     16.427   1656.349          0     62.292          4 
     216.8     52.364   1598.644          0     62.292          4 
       217    110.232   1589.963          0     62.292          4 
     217.2    129.675   1580.452          0     62.292          4 
     217.4    156.998   1578.666          0     62.292          4 
     217.6    182.929   1587.091          0     62.292          4 
     217.8    175.746   1579.594          0     62.292          4 
       218    176.473   1582.879          0     62.292          4 
     218.2    226.689   1586.703      6.625     62.292          4 
     218.4    308.818   1596.662      6.625     62.292          4 
     218.6    334.733   1593.953          0     62.292          4 
     218.8    302.381   1580.202          0     62.292          4 
       219    268.713   1574.708          0     62.292          4 
     219.2    258.604   1577.286          0     62.292          4 
     219.4    259.051   1585.126          0     62.292          4 
     219.6    255.115   1591.486          0     62.292          4 
     219.8    251.889   1579.783          0     62.292          4 
       220    259.412   1576.606          0     62.292          4 
     220.2    281.886    1580.52          0     62.292          4 
     220.4    309.782   1584.864          0     62.292          4 
     220.6    313.795   1581.004          0     62.292          4 
     220.8    310.808   1579.667          0     62.292          4 
       221    305.416   1583.922          0     62.292          4 
     221.2    264.645   1587.583          0     62.292          4 
     221.4    198.825   1594.031      8.667      47.44          4 
     221.6     138.12   1620.648      4.333     54.866          4 
     221.8     64.984   1632.312          0     62.292          4 
       222     15.576    1644.95          0     62.292          4 
     222.2     37.671   1641.002          0     62.292          4 
     222.4     17.691   1617.319          0     62.292          4 
     222.6     30.822   1611.527          0     62.292          4 
     222.8     58.219   1601.128          0     62.292          4 
       223     17.123   1625.822          0     62.292          4 
     223.2     17.123   1594.528          0     62.292          4 
     223.4     16.106   1543.605          0     62.292          4 
     223.6     57.501   1534.681          0     62.292          4 
     223.8     74.813   1537.146          0     62.292          4 
       224     41.921   1587.535          0     62.292          4 
     224.2     17.547   1569.517          0     62.292          4 
     224.4     36.825   1446.895          0     62.292          4 
     224.6     83.182   1411.943          0     62.292          4 
     224.8     93.053   1460.698          0     62.292          4 
       225     55.414   1512.548          0     62.292          4 
     225.2     31.388   1499.596          0     62.292          4 
     225.4     32.276   1524.293          0     62.292          4 
     225.6     48.456   1571.604          0     62.292          4 
     225.8      99.78   1573.267          0     62.292          4 
       226    146.663   1589.253          0     62.292          4 
     226.2     172.83   1600.037          0     62.292          4 
     226.4    224.523   1593.521          0     62.292          4 
     226.6    262.444   1594.803          0     62.292          4 
     226.8    214.028   1593.499      1.008     59.087          4 
       227       98.1   1560.572      2.017     55.883          4 
     227.2     25.478   1568.755          0     62.292          4 
     227.4     30.822   1577.866          0     62.292          4 
     227.6      3.718    1575.61          0     62.292          4 
     227.8     42.106   1586.322          0     62.292          4 
       228    106.289   1591.974          0     62.292          4 
     228.2    118.919   1607.352          0     62.292          4 
     228.4    100.421   1611.667          0     62.292          4 
     228.6     95.306   1595.312          0     62.292          4 
     228.8     82.047   1602.457          0     62.292          4 
       229     76.916   1620.902          0     62.292          4 
     229.2     86.223   1644.845          0     62.292          4 
     229.4     51.993   1649.799          0     62.292          4 
     229.6     13.699   1604.292          0     62.292          4 
     229.8     13.699   1591.012          0     62.292          4 
       230     17.123   1605.322          0     62.292          4 
     230.2      32.81   1645.373      1.125     62.292          4 
     230.4     39.519   1657.196      1.125     62.292          4 
     230.6      51.87   1625.522          0     62.292          4 
     230.8     80.724   1569.584          0     62.292          4 
       231     66.329   1568.111          0     62.292          4 
     231.2     13.699   1602.288          0     62.292          4 
     231.4     13.699   1607.557          0     62.292          4 
     231.6     13.699   1561.115          0     62.292          4 
     231.8       86.3   1478.338          0     62.292          4 
       232     188.43   1451.327          0     62.292          4 
     232.2    263.803   1462.594          0     62.292          4 
     232.4    345.851   1475.523          0     62.292          4 
     232.6    442.509   1485.888          0     62.292          4 
     232.8    469.626   1495.641      3.292     54.063          4 
       233    344.158   1488.864     12.092     41.711          4 
     233.2    128.603    1444.04     22.425     35.286          4 
     233.4     68.488    1141.78     28.944     33.442          4 
     233.6    109.589    762.099     31.658     33.556          4 
     233.8    175.983    673.966     69.957     26.136          4 
