~Version information
  VERS.                            1.20: CWLS LAS  -  VERSION 1.20
  WRAP.                              NO: One line per depth step
~Well information
# MNEM.UNIT
# ====.================================:===================
  STRT.M                        3148.00: First depth in file
  STOP.M                        3438.00: Last depth in file
  STEP.M                           0.20: Depth increment
  NULL.                            9999: Null values
  COMP.                         COMPANY: 
  WELL.                            WELL: 115 
  FLD .                           FIELD: íÌ§®≠·™†Ô
  CNTY.                          COUNTY: 
  STAT.                           STATE: 
  DATE.                        LOG DATE: 28-04-04
  SRVC.                 SERVICE COMPANY: 
  UWI.           Unique Well Identifier: 
~Parametr information block
# MNEM.UNIT
# ====.================================:===================
~Other information
# ------------------------- REMARKS  AREA ------------------
~Curve information
# MNEM.UNIT
# ====.================================:===================
  DEPT.M                               : Depth curve
IZ2.DEG                                : îÄáÄ1(ÉêÄÑ)
IZ3.DEG                                : îÄáÄ2(ÉêÄÑ)
IZ4.DEG                                : îÄáÄ3(ÉêÄÑ)
IZ5.DEG                                : îÄáÄ4(ÉêÄÑ)
IZ1.DEG                                : îÄáÄ5(ÉêÄÑ)
VIK1.OHMM                              : É0.4à0.1à(éåå)
VIK5.OHMM                              : É0.57à0.14à(éåå)
VIK4.OHMM                              : É0.8à0.2à(éåå)
VIK3.OHMM                              : É1.13à0.28à(éåå)
VIK2.OHMM                              : É1.6à0.4à(éåå)
~ASCII Log Data
# ...
  3375.80     9.1050    11.7600    10.8800    11.1700    11.8550    13.4400     9.0750    10.4050    10.0400     9.0850
  3376.00     9.5000    12.0150    10.4400    10.2650    11.1700    13.1700     8.6650    11.0650    11.4100    10.1000
  3376.20     9.2950    11.6950     9.9200     9.3450    10.2850    13.6150     9.3250    12.1200    13.3350    11.5200
  3376.40     8.3500    10.6800     9.0500     8.4550     9.3050    15.2300    10.9050    14.0100    15.6700    13.4800
  3376.60     9.0550    10.5500     8.5100     7.8050     8.4600    13.8900    10.7600    14.9800    17.4450    15.5350
  3376.80     9.3950    10.3550     8.0800     7.2900     7.7950    13.6800    11.3750    16.6600    19.6150    17.4800
  3377.00     8.0300     9.0000     7.0100     6.4100     7.0300    17.4250    14.6450    20.8350    23.8450    20.3550
  3377.20     6.8650     7.8650     6.0750     5.5750     6.3450    20.7600    17.3750    24.9700    28.1250    23.4400
  3377.40     6.6300     7.6600     5.8150     5.3600     6.1000    20.8850    17.0350    25.7700    29.2600    24.4900
  3377.60     7.3750     8.3100     6.3400     5.6800     6.2600    17.8350    14.7800    22.2250    26.5550    22.9150
  3377.80     8.2150     9.0750     7.1700     6.2350     6.6450    15.7650    13.3950    18.8650    23.1050    20.9900
  3378.00     8.6950     9.5050     7.5750     6.6350     6.9250    14.6050    12.3450    17.6450    21.3500    20.0200
  3378.20     9.5100    10.4150     7.8850     6.8800     7.0200    11.8600    10.4150    16.0950    20.2000    19.3000
  3378.40    10.1100    11.6000     8.5800     7.0600     7.1000    11.4150     9.1100    14.4350    19.2450    19.0550
  3378.60     9.3550    11.5500     8.7550     7.1000     7.1250    13.8650     9.6000    14.3500    19.2000    19.2700
  3378.80     8.5850    10.7900     8.5450     7.1300     7.1250    14.8500    10.4450    14.6750    19.0750    19.2600
  3379.00     9.0850    10.7150     8.9050     7.4750     7.3900    13.5650    10.3000    13.6450    17.3750    17.8350
  3379.20     8.6650    10.4450     9.1300     8.1350     7.9650    14.2600    10.9700    13.2250    15.3250    15.7000
  3379.40     8.5750    10.5250     9.4350     8.9550     8.7600    14.0400    10.7350    12.5400    13.3250    13.7550
  3379.60     9.9950    11.6900    10.4350    10.0550     9.7550    11.6600     9.1000    10.5250    11.1700    11.7400
  3379.80    10.1850    12.6750    11.2750    10.9850    10.6900    11.2700     8.0200     9.4600     9.8450    10.2300
  3380.00     9.7700    13.2700    11.9100    11.4150    11.2650    11.7350     7.3000     8.7950     9.3050     9.5050
  3380.20     9.9050    13.7500    12.4900    11.6750    11.5050    11.7000     7.0000     8.0750     8.9850     9.2600
  3380.40    10.1700    13.8600    12.5850    11.7950    11.5300    11.4950     6.8950     8.0150     8.8900     9.2700
  3380.60    10.2900    13.5650    12.3200    11.6750    11.3900    11.1700     7.1000     8.3250     9.0650     9.5100
  3380.80    10.1050    13.1900    11.9350    11.3950    11.1100    11.4300     7.6450     8.9450     9.5000     9.9000
  3381.00     9.8650    12.6800    11.3950    10.9800    10.8150    12.0950     8.2200     9.6550    10.1200    10.3050
  3381.20     9.7800    11.9900    10.8750    10.5850    10.6050    12.2650     8.7950    10.2350    10.6450    10.6050
  3381.40     9.8000    11.6850    10.6000    10.3650    10.5000    12.1150     9.0750    10.6400    11.0150    10.7800
  3381.60     9.9800    11.8350    10.4800    10.1350    10.4550    11.5600     8.8300    10.8400    11.5300    10.9450
  3381.80    10.2000    11.9700    10.3500     9.8000    10.2000    10.8100     8.5350    10.9900    12.2400    11.5000
  3382.00    10.8750    12.4450    10.2750     9.3400     9.6850    10.1100     8.1600    11.2900    13.2750    12.6100
  3382.20    10.8800    12.2050     9.6900     8.5500     9.0000    10.5750     8.8000    12.8350    15.4600    14.2000
  3382.40     9.9300    11.0150     8.6450     7.6400     8.1850    12.1000    10.4050    15.2250    18.2750    16.1850
  3382.60     8.7050     9.7550     7.6900     6.8450     7.4950    15.3650    12.7950    18.2050    21.0800    18.1950
  3382.80     7.7450     8.6600     7.0100     6.3400     7.1400    17.3800    14.7000    20.2650    22.5850    19.5250
  3383.00     7.6750     8.5850     6.9900     6.4200     7.0800    17.3700    14.5550    19.8400    22.0050    19.6500
  3383.20     8.1000     9.0400     7.2950     6.7700     7.2250    16.2100    13.3600    18.3550    20.5700    18.7550
  3383.40     8.6000     9.7050     7.7350     7.0500     7.4650    14.4000    11.7700    16.8300    19.2900    17.7200
  3383.60     8.8500    10.6250     8.2750     7.2550     7.5300    13.9800    10.4000    15.4150    18.5700    17.3800
  3383.80     9.1600    11.2700     8.6650     7.3700     7.5300    12.9200     9.4650    14.3000    18.1200    17.5050
  3384.00     9.6550    11.7700     9.0150     7.5600     7.6150    12.5500     9.0800    13.6600    17.7600    17.4400
  3384.20     9.7300    11.6050     9.0700     7.6800     7.7800    13.4250     9.5750    13.6300    17.3850    16.9200
  3384.40     8.2900    10.1550     8.6200     7.7500     8.0500    16.2350    11.8150    14.5500    16.7250    15.8700
  3384.60     8.3600    10.0400     9.0550     8.4550     8.7450    14.8400    11.4900    13.2200    14.4000    13.7800
  3384.80    10.3900    11.8000    10.6550     9.9900    10.1500    10.2500     8.6050    10.0950    11.0800    10.9600
  3385.00    11.5650    13.3200    12.0050    11.5200    11.6100     9.2050     7.1900     8.4100     8.9450     8.8900
  3385.20    11.7600    14.2400    12.8300    12.5300    12.7800     8.8650     6.4050     7.6200     7.8950     7.7100
  3385.40    11.6050    14.9900    13.8100    13.4150    13.8550     8.9150     5.9650     6.8050     7.0550     6.7450
  3385.60    12.2450    15.8700    15.0900    14.5300    14.9250     8.4000     5.4500     5.8400     6.1500     5.9350
  3385.80    12.4700    16.3150    16.1750    15.8900    15.9400     8.1900     5.2250     5.2250     5.3450     5.3650
  3386.00    11.6100    16.0700    16.5300    16.8150    16.5800     9.2050     5.4350     5.1150     4.9650     5.0900
  3386.20    10.9150    15.5750    16.3450    16.8750    16.6450     9.9700     5.6800     5.2550     5.0000     5.0850
  3386.40    10.4000    15.2400    15.9450    16.5100    16.3450    10.7950     5.9000     5.5200     5.1900     5.2850
  3386.60     9.8500    14.8550    15.4200    16.0250    15.9050    11.9950     6.2300     5.8300     5.4800     5.5200
  3386.80     9.8300    14.4450    14.8500    15.4050    15.4200    11.9350     6.5200     6.1700     5.8400     5.7650
  3387.00     9.7850    14.0750    14.0900    14.6900    14.9750    11.7600     6.7850     6.8250     6.3200     6.0700
  3387.20     9.8900    14.1550    13.4600    13.9000    14.6000    11.9200     6.7750     7.4250     7.0200     6.4050
  3387.40     9.8200    13.7100    12.7250    13.0550    14.2200    12.3750     7.2250     8.1650     7.7950     6.7050
  3387.60     9.1500    12.5400    11.9400    12.5300    14.0450    13.2700     8.1750     8.8550     8.1650     6.7100
  3387.80    10.2900    12.8000    12.2300    12.8950    14.4750    11.2200     7.6650     8.2100     7.5750     6.2700
  3388.00    11.6850    13.7850    13.5100    14.0400    15.3650     9.0100     6.6800     6.9500     6.5600     5.6700
  3388.20    11.8050    14.3100    14.4750    14.9550    15.9800     8.9950     6.3050     6.3300     6.0300     5.3650
  3388.40    11.1450    14.4750    14.5250    14.9250    15.8950    10.2050     6.3850     6.3900     6.1350     5.5300
  3388.60    10.3800    14.2250    14.2300    14.2800    15.2700    11.5200     6.7500     6.6300     6.5950     5.9650
  3388.80    10.2400    13.6750    13.9950    13.8750    14.4750    11.2750     7.0250     6.7900     6.8350     6.4450
  3389.00    10.3700    13.5950    13.8950    13.9550    14.0250    10.8500     7.0750     6.8800     6.7800     6.7050
