~Version Information
#-------------------
Vers.        2.0: CWLS log ASCII Standart - VERSION 2.0
WRAP.         NO: One line per depth step
~Well Information Block
#----------------------
#MNEM.UNIT  VALUE: DESCRIPTION
#----.---- -------: -------------
STRT.M     90.00: 
STOP.M    460.00: 
STEP.M      0.20:  
NULL.  -9999.990:  
COMP.           : 
WELL.           : 115
FLD .           : Тэдинская
LOC .           : 
CNTY.           : 
SRVC.           : 
DATE.           : 21-03-04
UWI .           : 
~Parameter Information
#---------------------
#MNEM.UNIT  VALUE: DESCRIPTION
#----.---- -------: ---------------
~Curve Information Block
#-----------------------
#MNEM.UNIT       : CURVE DESCRIPTION
#----.----       : -----------------
DEPT.M          : 
Aя  .           : Амплитуда - волна по колонне 
Tя  .мкс        : Время пробега - волна по породе
Aъ  .           : Амплитуда - волна по породе
DK  .дБ         : Затухание
akz .           : контакт цемент-колонна
~Other Information
#-----------------
~Ascii Log Data
# ...
       258    131.675    628.319        105     21.873          3 
     258.2    212.318    623.535    210.232     14.921          2 
     258.4    298.654     620.58     326.64     12.017          2 
     258.6    329.384    620.449    347.466     12.109          2 
     258.8    336.945    619.814    360.369     11.792          2 
       259    331.247    619.997    335.755     11.789          2 
     259.2    306.636    619.852    306.663     12.561          2 
     259.4    271.152    618.978     287.65     13.872          2 
     259.6    239.488    618.456     248.07     15.161          2 
     259.8    227.348    618.627    226.472     15.201          2 
       260    217.571    618.476     216.72     14.999          2 
     260.2    199.968     618.32    172.817     16.976          2 
     260.4    196.537    617.668    180.656     16.484          2 
     260.6    197.199    617.263    197.275     16.392          2 
     260.8    184.329    617.373    187.622     16.834          2 
       261    163.771    617.428    163.187     18.054          2 
     261.2    147.834    617.201    142.756     19.219          2 
     261.4    145.337    617.241    142.156      19.27          2 
     261.6    168.954     617.26    152.248     18.802          2 
     261.8    235.764    617.382        225     15.289          2 
       262    330.977    617.884    335.901     11.992          2 
     262.2    403.222    618.367    421.782      9.791          1 
     262.4    431.568    618.497    429.298      9.637          1 
     262.6    451.241    618.797    447.947      9.271          1 
     262.8      484.6    619.131    481.341      8.659          1 
       263    524.743    619.068    535.856      7.716          1 
     263.2    527.756     619.25    538.435        7.3          1 
     263.4     473.68    619.923    446.151      8.939          1 
     263.6    458.151     620.42    398.838     10.284          1 
     263.8    523.168    620.587    520.895      8.124          1 
       264    614.259    620.769    622.866      6.253          1 
     264.2    647.649    621.635    655.215      5.813          1 
     264.4    621.526    622.319    639.714      6.175          1 
     264.6    569.394    622.318    588.167      7.346          1 
     264.8    520.496    621.814    547.356      7.527          1 
       265    425.569    621.632    453.291      9.249          1 
     265.2    241.998    622.134    385.138     11.031          3 
     265.4     65.963    652.652    251.307     18.513          3 
     265.6      95.89    687.428     43.333     30.535          3 
     265.8     99.315    648.734     85.262     23.717          3 
       266     99.315     624.91     90.307     23.183          3 
     266.2     92.522    624.583     93.264     22.898          3 
     266.4    106.164    624.667    102.697     22.083          3 
     266.6    106.164    640.283     91.663     23.121          3 
     266.8     78.359    665.098     79.634     24.271          3 
       267     82.192    665.329     79.824     24.251          3 
     267.2     89.041    640.539     82.511      23.97          3 
     267.4     92.466    626.109     97.807      22.62          3 
     267.6     172.16    627.542    161.694     21.494          3 
     267.8     238.02    626.948    316.257      15.36          3 
       268    242.352    624.118    247.661     14.786          2 
     268.2    234.578    621.864    231.588     15.062          2 
     268.4    228.908    621.511    249.051     14.835          2 
     268.6    206.227    621.567    208.162     16.398          2 
     268.8    194.789    621.831    188.666     16.784          2 
       269    207.312    622.149    204.081     16.128          2 
     269.2     234.35    622.104    236.761     14.822          2 
     269.4    256.945    622.725    263.849     13.867          2 
     269.6     265.49    622.949    266.951     13.765          2 
     269.8    262.815    622.979    265.415     13.821          2 
       270    253.159    622.682    254.017     14.196          2 
     270.2    236.182    622.383    243.629     14.568          2 
     270.4    213.022    622.789     223.07     15.807          2 
     270.6    187.791    623.303    201.922     16.755          3 
     270.8    161.502    622.736    165.611     18.484          3 
       271    149.938    621.582    140.738      19.35          3 
     271.2     164.31    621.374    162.331      18.17          3 
     271.4     188.32    621.605    193.115     16.584          3 
     271.6    186.559    621.123    210.612     15.824          3 
     271.8    151.555    621.455    139.206     19.975          3 
       272    131.036    622.172    128.386     20.224          3 
     272.2    127.052    622.714    127.542     20.226          3 
     272.4    116.951    623.047    116.779     20.954          3 
     272.6    119.863     622.14    103.897     22.015          3 
     272.8     97.045    621.942      94.34       22.8          3 
       273     94.421    622.602     98.042     22.464          3 
     273.2     76.036    623.612     92.193     23.008          3 
     273.4     68.493    640.012     87.983     23.553          3 
     273.6     61.644    672.658     64.001     26.203          3 
     273.8     47.945    718.737      40.72     30.382          3 
       274     102.74    848.525     27.411     35.315          3 
     274.2    130.137    868.134     25.417     38.246          3 
     274.4    123.288    703.744      106.6     22.262          3 
     274.6    123.288    619.045    105.349     21.968          3 
     274.8    119.863    619.391     99.474     22.338          3 
       275     102.74    618.646    102.014     22.122          4 
     275.2     80.856    636.462     80.858     24.496          4 
     275.4     99.315    668.967     45.482     29.317          4 
     275.6     102.74    680.689     39.111     30.638          4 
     275.8    109.589    691.481     38.445     30.815          4 
       276     58.219    687.889      33.32     31.844          4 
     276.2     34.247    704.396     33.797     29.774          4 
     276.4     34.247    727.771      30.76     30.593          4 
     276.6     41.096    847.851     18.583     39.241          4 
     276.8     34.247    909.609      8.125     45.671          4 
       277     34.247    886.331     15.808     38.316          4 
     277.2     34.247   1018.657      7.703     48.592          4 
     277.4     44.521   1079.496      0.742     59.977          4 
     277.6     44.521    894.865      5.408     48.709          4 
     277.8     36.001    729.673     22.758     38.139          4 
       278     65.068    690.529     49.033     28.482          2 
     278.2    157.534    703.162      79.53     26.236          2 
     278.4    188.356    654.781    161.304     17.933          2 
     278.6    188.356     621.21    174.144     18.242          2 
     278.8    215.753    624.822    142.654     19.981          2 
       279    181.507    632.837    157.793     18.424          2 
     279.2    219.178    625.676    183.614     17.016          2 
     279.4    226.027    623.179    196.551     16.435          2 
     279.6    236.301    623.839    222.448     15.353          2 
     279.8    239.726    624.488    221.001     15.407          2 
       280        250    625.252    209.388     15.879          2 
     280.2    253.425    625.521    183.347     17.095          2 
     280.4    222.603    631.187    118.417     20.987          3 
     280.6    160.959    665.692     77.252     24.787          3 
     280.8     92.466    687.371     57.931     27.041          3 
       281     92.466    665.316      72.59     25.275          3 
     281.2     90.876    627.072     86.018     23.626          3 
     281.4     99.315    619.909     84.867     23.721          3 
     281.6     102.74    621.315     86.243     23.582          3 
     281.8     102.74    630.556     84.614     23.747          3 
