~Version information
  VERS.                            1.20: CWLS LAS  -  VERSION 1.20
  WRAP.                              NO: One line per depth step
~Well information
# MNEM.UNIT
# ====.================================:===================
  STRT.M                        3140.00: First depth in file
  STOP.M                        3450.00: Last depth in file
  STEP.M                           0.20: Depth increment
  NULL.                            9999: Null values
  COMP.                         COMPANY: 
  WELL.                            WELL: 115 
  FLD .                           FIELD: íùÑàçëäÄü
  CNTY.                          COUNTY: 
  STAT.                           STATE: 
  DATE.                        LOG DATE: 30-04-04
  SRVC.                 SERVICE COMPANY: 
  UWI.           Unique Well Identifier: 
~Parametr information block
# MNEM.UNIT
# ====.================================:===================
~Other information
# ------------------------- REMARKS  AREA ------------------
~Curve information
# MNEM.UNIT
# ====.================================:===================
  DEPT.M                               : Depth curve
GZ5.OHMM                               : äÄÜ. ëéèêéíàÇãÖçàÖ áéçÑÄ A8.0M1.0N
GZ4.OHMM                               : äÄÜ. ëéèêéíàÇãÖçàÖ áéçÑÄ A4.0M0.5N
GZ3.OHMM                               : äÄÜ. ëéèêéíàÇãÖçàÖ áéçÑÄ A2.0M0.5N
GZ2.OHMM                               : äÄÜ. ëéèêéíàÇãÖçàÖ áéçÑÄ A1.0M0.1N
GZ1.OHMM                               : äÄÜ.ëéèêéíàÇãÖçàÖ áéçÑÄ A0.4M0.1N
PZ.OHMM                                : äÄÜ.ëéèê.èé èéíÖçñàÄãáéçÑì Ä0.5å6.5N
RRB.OHMM                               : ëéèêéíàÇã.èêéåõÇéóç.ÜàÑäéëíà èÖêÇàó.
CALI.MM                                : ëìååÄêçõâ ÑàÄåÖíê äÄÇÖêçéåÖêÄ
CILA.MMHO                              : áéçÑ àä 7à1.6,Ääí.ëàÉçÄã/àä-è/Äàä-5
SP.MV                                  : ÖëíÖëíÇÖççÄü ëÄåéèéãüêàáÄñàü èé èë
BS.                                    : Ñ≠-216¨¨
GR.UR/H                                : ÖëíÖëíÇÖççÄü ÉÄååÄ-ÄäíàÇçéëíú èé Éä
GZB.OHMM                               : GZB
~ASCII Log Data
# ...
  3405.00    44.0460    66.1143    61.7690    30.4853     8.7212    36.5648     0.7151   212.3145    17.6583   328.4879   215.9000     0.8374    93.9420
  3405.20    45.1735    65.3491    59.8519    29.1068     8.3836    37.1965     0.7180   212.3513    20.7890   327.6051   215.9000     0.9241   101.1147
  3405.40    46.4749    65.2106    58.4309    28.0908     8.0314    38.1350     0.7180   211.7791    21.6291   327.0803   215.9000     0.9876   106.9436
  3405.60    48.3708    66.2863    58.2692    28.4133     8.0202    39.2243     0.7180   211.5988    20.9488   326.5774   215.9000     1.0729   111.3000
  3405.80    49.8984    68.9067    59.9722    29.9001     8.4173    40.1182     0.7180   211.4130    20.5241   328.9264   215.9000     1.0323   111.2581
  3406.00    52.0358    70.5259    60.7398    29.8160     8.6731    41.1800     0.7180   211.9060    18.4542   330.4301   215.9000     1.0227   112.5774
  3406.20    54.3637    69.9002    58.8325    28.4487     8.3294    42.5824     0.7179   211.8571    14.9174   330.0233   215.9000     1.0794   119.0406
  3406.40    57.3209    68.0884    55.7547    26.9222     7.8595    44.0736     0.7159   211.6426    16.8516   330.6710   215.9000     1.1807   130.7038
  3406.60    60.3265    67.2097    53.4220    25.0452     7.0901    46.3869     0.7142   211.5056    14.9158   332.3837   215.9000     1.1532   141.5627
  3406.80    63.0904    68.6326    53.4113    24.4147     6.7703    49.1433     0.7181   211.5694    16.6145   331.6714   215.9000     1.1083   147.6041
  3407.00    65.7117    72.9979    56.3371    26.2217     7.2036    52.2297     0.7203   211.8230    17.5427   330.4110   215.9000     1.2471   147.1254
  3407.20    68.1964    79.5625    60.8913    29.0469     8.1616    54.8809     0.7258   211.1263    17.1288   328.4728   215.9000     1.2221   142.3680
  3407.40    70.4902    87.3788    67.2143    32.5192     9.2294    56.7023     0.7232   211.9660    13.9473   330.7301   215.9000     1.0708   135.9700
  3407.60    72.4966    94.8914    74.1939    36.6040    10.1971    57.7925     0.7278   211.5519    11.6259   332.4843   215.9000     1.0415   129.3634
  3407.80    74.5587   101.7803    80.1833    39.8536    10.7625    58.1922     0.7236   211.5888    10.1859   331.4138   215.9000     0.9242   125.5347
  3408.00    76.4339   105.4461    83.9411    41.6339    10.9875    58.3972     0.7366   210.5127    13.8279   329.9872   215.9000     1.0294   126.4589
  3408.20    77.9249   105.6164    84.4685    41.2410    10.7250    58.6115     0.7480   210.3919    12.6745   327.8466   215.9000     1.1530   129.8135
  3408.40    79.3120   104.7707    83.9846    40.2867    10.2437    59.0445     0.7483   211.1228    12.9721   327.1147   215.9000     1.1807   131.9019
  3408.60    80.8725   103.6326    83.5648    39.7215    10.0865    59.9335     0.7534   212.1342    15.5121   325.5887   215.9000     1.0013   132.4700
  3408.80    82.8777   101.8627    82.1347    37.2611     9.3428    61.1779     0.7599   213.6564    14.5760   325.2720   215.9000     0.9532   133.6276
  3409.00    85.5767   100.2098    80.6650    34.6289     8.7250    62.7397     0.7580   212.5263    13.0755   326.1761   215.9000     1.0086   134.5872
  3409.20    88.3915   101.2599    80.8097    32.6702     8.2551    64.7819     0.7582   212.1566    14.7428   325.2465   215.9000     0.9019   131.9454
  3409.40    91.6096   105.4678    83.8721    33.8849     8.3801    66.9704     0.7621   211.5336    11.8908   324.1021   215.9000     0.8262   122.9066
  3409.60    94.9959   114.1308    90.1781    36.4950     8.9473    68.5831     0.7448   211.7655    11.1046   323.4492   215.9000     0.8740   109.8673
  3409.80    98.7071   124.8913    96.9506    39.7038     9.6388    69.9000     0.7230   211.7337     9.5464   322.9718   215.9000     1.0129    95.8244
  3410.00   103.4118   136.9251   104.3613    43.0794    10.4452    70.6790     0.7230   214.1785     8.1938   323.5743   215.9000     1.1362    81.7289
  3410.20   107.8275   149.5229   112.5838    46.8119    11.0589    70.6303     0.7230   213.6770     7.4167   323.9503   215.9000     1.0082    69.8757
  3410.40   113.0399   163.1622   122.3529    49.9023    11.8491    69.6073     0.7230   218.0064    10.6985   324.4994   215.9000     1.0519    58.6809
  3410.60   119.1611   176.7410   133.9565    53.9971    12.5276    67.6003     0.7231   216.5941     9.2694   325.1551   215.9000     1.0989    49.2930
  3410.80   127.2770   196.7330   147.0404    58.3429    13.5202    64.5253     0.7250   211.2500     9.9251   326.2360   215.9000     1.3041    41.0514
  3411.00   136.3538   225.5484   164.3142    64.0423    14.5554    60.2373     0.7250   210.7176    13.6842   325.5108   215.9000     1.2655    34.7316
  3411.20   143.7187   257.7071   183.0435    72.1752    16.1304    54.9400     0.7242   209.9891    15.5480   326.8691   215.9000     1.2170    29.4790
  3411.40   148.3389   274.7721   190.6926    75.4476    16.6376    49.6122     0.7280   209.9918    18.8846   326.4560   215.9000     1.1932    26.1448
  3411.60   147.8824   274.3660   187.5448    69.9394    15.5815    44.9183     0.7278   209.6609    21.9155   327.7249   215.9000     1.1295    24.8501
  3411.80   142.0683   258.2421   174.8845    61.1108    13.6298    40.7135     0.7232   209.6244    27.8050   330.1261   215.9000     1.3024    24.0786
  3412.00   133.4801   235.7492   162.4908    54.4118    12.0920    37.8597     0.7276   210.4034    31.1922   329.0892   215.9000     1.1443    22.5772
  3412.20   123.6645   223.8450   154.2458    50.9168    11.4650    35.3386     0.7396   210.2692    37.5621   326.7957   215.9000     1.2588    19.6620
  3412.40   116.9868   215.9651   146.7693    48.6260    11.4683    33.2947     0.7513   210.4661    47.1756   328.5961   215.9000     1.1616    16.4121
  3412.60   111.8185   208.1488   140.0714    44.8337    11.1728    31.3436     0.7573   210.8176    51.9159   327.9272   215.9000     1.2035    13.4359
  3412.80   108.6910   201.6664   131.5295    43.4508    11.2437    29.2917     0.7628   209.8773    60.8954   328.7450   215.9000     1.0549    11.6542
  3413.00   102.9777   198.3828   125.6632    42.2649    11.2452    27.1362     0.7581   209.4823    67.7337   325.7755   215.9000     0.9336    10.6976
  3413.20    97.4273   190.0403   116.2985    43.4252    11.6875    24.4412     0.7601   209.4024    77.0135   325.3170   215.9000     0.8397    10.5432
  3413.40    92.5617   176.4917   104.0527    39.3603    10.9481    22.1588     0.7621   208.5213    85.4511   325.4016   215.9000     1.0117    11.0037
  3413.60    87.3809   164.8649    91.0112    36.0909    10.1049    20.0932     0.7630   209.3432    97.0607   324.9868   215.9000     1.1400    11.3661
  3413.80    80.4570   158.4707    83.4700    36.3517    10.3021    17.6083     0.7630   209.7197   108.1625   327.8152   215.9000     1.1481    11.1341
  3414.00    74.6403   150.3223    77.6068    36.4585    10.7828    15.3423     0.7630   209.8805   113.9606   329.5914   215.9000     1.2776    11.0722
  3414.20    68.7588   134.1438    69.3484    32.2750    10.0736    12.8782     0.7628   208.6857   117.6758   328.9196   215.9000     1.2112    11.7186
  3414.40    60.3205   111.0414    60.0136    28.9277     9.2936    10.9793     0.7577   208.5612   123.1320   327.4420   215.9000     1.5042    12.3893
  3414.60    49.0434    87.8701    50.1619    24.5886     8.6267     9.0970     0.7522   208.7624   138.5320   325.6501   215.9000     1.2364    12.6046
  3414.80    39.5177    62.6825    38.7104    18.8237     6.8556     8.6143     0.7568   207.8278   148.4599   328.0718   215.9000     1.1173    12.1728
  3415.00    29.8804    42.6072    27.5737    12.5400     5.0395     8.8667     0.7516   207.5878   163.1206   327.8586   215.9000     0.8593    10.8888
  3415.20    23.1956    30.0452    18.8879    10.1451     4.2347    10.0744     0.7442   207.1587   177.7648   328.5487   215.9000     0.9031     9.2426
  3415.40    19.4552    24.7730    15.3068     8.3662     3.9804    12.2882     0.7461   208.4395   183.2878   328.4087   215.9000     0.8918     7.5771
