~Version information
  VERS.                            1.20: CWLS LAS  -  VERSION 1.20
  WRAP.                              NO: One line per depth step
~Well information
# MNEM.UNIT
# ====.================================:===================
  STRT.M                        3148.00: First depth in file
  STOP.M                        3438.00: Last depth in file
  STEP.M                           0.20: Depth increment
  NULL.                            9999: Null values
  COMP.                         COMPANY: 
  WELL.                            WELL: 115 
  FLD .                           FIELD: íÌ§®≠·™†Ô
  CNTY.                          COUNTY: 
  STAT.                           STATE: 
  DATE.                        LOG DATE: 28-04-04
  SRVC.                 SERVICE COMPANY: 
  UWI.           Unique Well Identifier: 
~Parametr information block
# MNEM.UNIT
# ====.================================:===================
~Other information
# ------------------------- REMARKS  AREA ------------------
~Curve information
# MNEM.UNIT
# ====.================================:===================
  DEPT.M                               : Depth curve
IZ2.DEG                                : îÄáÄ1(ÉêÄÑ)
IZ3.DEG                                : îÄáÄ2(ÉêÄÑ)
IZ4.DEG                                : îÄáÄ3(ÉêÄÑ)
IZ5.DEG                                : îÄáÄ4(ÉêÄÑ)
IZ1.DEG                                : îÄáÄ5(ÉêÄÑ)
VIK1.OHMM                              : É0.4à0.1à(éåå)
VIK5.OHMM                              : É0.57à0.14à(éåå)
VIK4.OHMM                              : É0.8à0.2à(éåå)
VIK3.OHMM                              : É1.13à0.28à(éåå)
VIK2.OHMM                              : É1.6à0.4à(éåå)
~ASCII Log Data
# ...
  3322.20    12.3600    14.7050    12.8600    11.2700    10.2050     8.4300     6.3550     8.0000     9.7750    11.3750
  3322.40    11.9500    14.0400    12.1800    10.8400     9.9600     8.5350     6.7450     8.6400    10.3700    11.9150
  3322.60    12.5300    14.4050    12.1000    10.7150     9.8100     7.9950     6.4100     8.5750    10.4450    12.0500
  3322.80    12.7500    14.5750    11.9950    10.5700     9.7400     7.8500     6.3700     8.8150    10.8300    12.1700
  3323.00    12.4000    13.9400    11.3250     9.8850     9.3900     8.4900     7.1100     9.9150    12.2150    13.1250
  3323.20    11.6400    12.8400    10.3500     9.0450     8.8250     9.4750     8.0450    11.4000    13.9150    14.3800
  3323.40    11.0150    12.2650     9.6200     8.5550     8.4100    10.1750     8.4550    12.5150    14.8850    15.2450
  3323.60    10.4750    11.8550     9.3050     8.3300     8.2850    11.0950     9.0500    13.1200    15.3950    15.5800
  3323.80    10.1750    11.4350     9.2150     8.2550     8.3550    11.2800     9.4050    13.1750    15.4400    15.3200
  3324.00    10.5350    11.7050     9.4650     8.5050     8.6100    10.3550     8.8800    12.5050    14.6200    14.4600
  3324.20    10.8050    12.1900     9.9600     8.9200     8.9750    10.2400     8.4800    11.6800    13.6650    13.5750
  3324.40    10.6200    12.3150    10.1900     9.1300     9.2050    10.6300     8.3550    11.2350    13.2800    13.1200
  3324.60    10.6350    12.5950    10.4900     9.3200     9.3000    10.2800     7.8950    10.6950    12.8850    12.8800
  3324.80    11.0200    13.3750    11.1400     9.7100     9.4750     9.7400     7.1850     9.7150    12.0150    12.5650
  3325.00    11.4500    14.0850    11.6950    10.0800     9.6800     9.2550     6.6450     8.9150    11.3300    12.2350
  3325.20    11.7600    14.3850    11.9250    10.2400     9.6850     8.8300     6.4400     8.6550    11.1750    12.2250
  3325.40    11.8200    14.3600    11.8600    10.1900     9.5050     8.8800     6.5450     8.8250    11.3350    12.6100
  3325.60    11.6850    14.0550    11.6500    10.0550     9.3500     9.1350     6.8050     9.1400    11.5450    13.0400
  3325.80    11.5500    13.6600    11.4000     9.9300     9.2600     9.3850     7.1550     9.5550    11.8000    13.2250
  3326.00    11.5100    13.1300    10.9600     9.6950     9.1700     9.4000     7.6000    10.2400    12.1800    13.2950
  3326.20    11.3850    12.7800    10.6050     9.5600     9.1900     9.5200     7.8200    10.5700    12.3100    13.1900
  3326.40    11.0800    12.6900    10.6200     9.7100     9.3550     9.8400     7.8450    10.3950    12.0050    12.6900
  3326.60    11.2100    12.8400    10.8900     9.9750     9.6400     9.5850     7.6650     9.9850    11.5500    12.0850
  3326.80    11.7150    13.3350    11.3050    10.2700     9.9150     9.0200     7.2250     9.4750    11.0650    11.7450
  3327.00    11.9050    13.6900    11.5200    10.3950    10.0050     8.7650     6.9400     9.2750    10.8700    11.6200
  3327.20    11.3800    13.7350    11.4550    10.2600     9.8750     9.5200     6.9900     9.3700    11.2050    11.9150
  3327.40    11.0800    13.7750    11.4300    10.0550     9.5700     9.8600     6.9300     9.3650    11.7050    12.5500
  3327.60    10.9950    13.7000    11.2750     9.6800     9.1500     9.9950     7.0100     9.6800    12.5450    13.5250
  3327.80    10.1600    12.8550    10.4500     8.8900     8.5200    11.9100     8.0700    11.0950    14.4650    15.2750
  3328.00     9.4650    11.6950     9.4600     8.1100     7.8700    13.5700     9.3250    12.8300    16.3100    17.0600
  3328.20     8.4650    10.5750     8.7950     7.7750     7.5600    15.9700    11.0300    14.4250    17.2350    17.8250
  3328.40     7.5050     9.6400     8.2400     7.6550     7.5100    18.1450    12.6300    15.7250    17.6150    17.9100
  3328.60     8.0650     9.5450     8.0300     7.6200     7.6700    16.6450    12.4300    15.7700    17.3450    17.4350
  3328.80     8.0300     9.4000     7.9850     7.6850     7.9100    16.4300    12.7350    16.0750    17.1100    16.5450
  3329.00     7.7200     9.4750     8.0950     7.8600     8.1250    16.7350    12.5400    15.8200    16.4950    15.7050
  3329.20     8.4050    10.1350     8.7400     8.2750     8.4600    14.8600    11.0950    13.8950    15.2650    14.7600
  3329.40     9.1750    11.0950     9.4100     8.7100     8.7550    13.0250     9.6500    12.4700    14.2900    14.1400
  3329.60     9.7950    12.2600     9.9900     8.9250     8.7350    11.8800     8.1800    11.4750    13.8550    14.4300
  3329.80    10.0250    12.8450    10.3850     8.7750     8.3350    11.9450     7.7250    10.9400    14.3600    15.7200
  3330.00     9.7400    12.6800    10.1600     8.2750     7.8350    12.3350     8.0450    11.5750    15.8850    17.4650
  3330.20     9.0900    11.8500     9.3250     7.5150     7.0650    13.7500     9.2350    13.3650    18.8900    20.6800
  3330.40     8.0350    10.3050     8.0050     6.4950     6.0600    16.4200    11.8150    17.1700    23.7800    25.9100
  3330.60     6.1850     8.5350     6.6450     5.5700     5.2350    24.1750    16.0150    23.1550    29.1450    31.6200
  3330.80     5.3300     7.3450     5.6100     4.9100     4.6250    28.6300    19.2950    28.7500    34.7600    36.3550
  3331.00     5.5450     6.7750     4.9850     4.3850     4.3400    26.9250    21.2350    33.2050    40.0600    38.8000
  3331.20     5.1950     6.2850     4.3900     3.9000     4.1700    30.5950    24.7550    40.5450    46.6800    40.8900
  3331.40     5.2650     5.7650     3.7600     3.3850     3.9650    31.6400    27.1200    47.9650    55.8200    44.0400
  3331.60     5.1950     5.1200     3.3050     2.9200     3.7700    30.2750    30.3050    55.6850    68.2950    47.5550
  3331.80     5.2600     5.0750     3.1800     2.6550     3.5250    27.8200    30.1100    56.2800    75.7550    50.8250
  3332.00     5.9950     5.9400     3.5900     2.6450     3.4050    23.7900    24.1800    46.8900    73.4050    52.3100
  3332.20     6.3200     6.7550     4.0250     2.7700     3.4450    23.0650    20.5600    40.9100    68.2550    52.8150
  3332.40     6.5500     6.9200     4.1900     2.9250     3.5100    21.7400    20.2750    39.2450    64.0200    51.7900
  3332.60     6.9450     6.7900     4.3150     3.0700     3.5950    19.9100    20.7000    38.4050    59.7950    48.9150
  3332.80     7.1750     6.9600     4.4650     3.3550     3.7750    19.1600    19.8500    37.2900    52.6750    45.6250
  3333.00     7.3550     7.2200     4.7950     3.8450     4.1150    17.9450    18.3800    33.5500    44.7250    40.7950
  3333.20     7.2900     7.7700     5.4650     4.4550     4.5950    20.0350    16.9850    28.1400    37.2900    34.8150
  3333.40     7.2450     8.2450     6.0900     5.0900     5.1400    20.1000    15.3100    23.6150    30.5800    29.8450
  3333.60     7.9450     9.3250     7.0800     5.9150     5.7250    16.2200    12.6450    18.8550    24.4750    25.9300
  3333.80     8.6800    10.5550     8.1900     6.7150     6.3350    14.2800    10.5450    15.3450    20.4950    22.7150
  3334.00     9.0000    11.1550     8.7800     7.2250     6.7200    13.6650     9.6650    13.8650    18.6550    20.9450
  3334.20     8.6400    11.0550     8.9600     7.5300     6.8750    14.6500     9.8950    13.5800    17.6050    20.1050
  3334.40     8.4800    10.8100     9.1450     7.8400     7.1200    14.2250    10.0950    13.0450    16.3500    18.7400
  3334.60     8.6750    10.9500     9.6950     8.5150     7.6800    13.7500    10.1600    11.9450    14.3400    16.5900
  3334.80     9.5400    11.5700    10.4000     9.4050     8.4550    12.0500     9.1550    10.5800    12.2650    14.5300
  3335.00    11.4600    13.2550    11.4500    10.3350     9.2600     8.8250     7.0950     9.0550    10.6850    12.9600
  3335.20    12.8750    14.7950    12.0550    10.6150     9.5900     7.6100     6.1150     8.7000    10.7000    12.5550
  3335.40    13.2550    14.9400    11.2800     9.7650     9.0500     7.6700     6.1500     9.8750    12.6650    14.0100
