~Version information
  VERS.                            1.20: CWLS LAS  -  VERSION 1.20
  WRAP.                              NO: One line per depth step
~Well information
# MNEM.UNIT
# ====.================================:===================
  STRT.M                        3140.00: First depth in file
  STOP.M                        3450.00: Last depth in file
  STEP.M                           0.20: Depth increment
  NULL.                            9999: Null values
  COMP.                         COMPANY: 
  WELL.                            WELL: 115 
  FLD .                           FIELD: íùÑàçëäÄü
  CNTY.                          COUNTY: 
  STAT.                           STATE: 
  DATE.                        LOG DATE: 30-04-04
  SRVC.                 SERVICE COMPANY: 
  UWI.           Unique Well Identifier: 
~Parametr information block
# MNEM.UNIT
# ====.================================:===================
~Other information
# ------------------------- REMARKS  AREA ------------------
~Curve information
# MNEM.UNIT
# ====.================================:===================
  DEPT.M                               : Depth curve
MINV.OHMM                              : äÄÜ.ëéèê.èé åàäêéÉêÄÑàÖçí áéçÑì
MNOR.OHMM                              : äÄÜ.ëéèêéíàÇãÖçàÖ å/èéíÖçñàÄã áéçÑÄ
MLL.OHMM                               : äÄÜ.ëéèê/åàäêéÅéäéÇéâ äÄêéíÄÜ/åä-ìñ
MCAL.MM                                : ÑàÄåÖíê äÄÇÖêçéåÖêÄ åä-ìñ
LL3.OHMM                               : äÄÜ.ëéèêéíàÇãÖçàÖ áéçÑÄ Åä-3 /ÄÅäí
CILA.MMHO                              : áéçÑ àä 7à1.6,Ääí.ëàÉçÄã/àä-è/Äàä-5
BS.                                    : Ñ≠Æ¨=215,9¨¨
GR.UR/H                                : ÖëíÖëíÇÖççÄü ÉÄååÄ-ÄäíàÇçéëíú èé Éä
~ASCII Log Data
# ...
  3369.60     3.0550     2.9120    35.6390   214.7500    41.1343    53.5760   215.9000     0.9953
  3369.80     3.1380     3.0120    26.1440   214.7500    40.7206    53.5215   215.9000     1.0860
  3370.00     2.9750     2.9830    28.7230   214.7500    41.1276    51.3334   215.9000     1.2646
  3370.20     3.1010     2.9030    32.1260   214.7500    42.6703    49.8633   215.9000     1.3820
  3370.40     2.9610     2.9720    30.6430   215.0000    45.8357    47.2869   215.9000     0.8523
  3370.60     3.0910     3.0290    34.8340   215.0000    47.5149    44.7113   215.9000     0.8727
  3370.80     3.1960     3.0140    36.0300   215.0000    56.9412    42.6436   215.9000     0.7957
  3371.00     3.2970     3.0730    43.7140   215.0000    59.9609    40.6535   215.9000     0.8675
  3371.20     3.2710     3.0000    43.0370   215.1500    60.5295    38.3436   215.9000     0.9040
  3371.40     3.2650     3.0640    40.9810   215.2500    59.2841    37.9677   215.9000     1.0543
  3371.60     3.3900     3.1990    39.4500   215.8640    62.7298    38.2622   215.9000     1.0360
  3371.80     5.6590     3.4550    42.1750   219.1150    60.1751    39.6614   215.9000     0.9405
  3372.00     3.1110     4.0410    38.4600   221.0740    57.4724    40.2901   215.9000     0.9480
  3372.20     5.5380     2.6610    18.8940   219.4750    49.0569    42.5627   215.9000     0.9317
  3372.40     2.0770     2.6590    31.7340   217.7500    56.3888    47.3579   215.9000     0.9840
  3372.60     3.2620     2.9470    40.8660   217.5000    53.6870    52.9234   215.9000     1.0328
  3372.80     2.9400     3.0800    44.2370   217.9250    57.0552    57.9502   215.9000     1.2485
  3373.00     3.0330     2.8010    42.9770   217.2490    51.8368    64.7990   215.9000     1.0926
  3373.20     3.0460     2.9270    35.0930   216.5000    46.3781    70.2793   215.9000     1.1888
  3373.40     3.1230     2.9150    27.4220   216.5000    37.0211    70.4704   215.9000     0.9974
  3373.60     3.1930     2.9200    23.6220   216.7080    30.6245    77.8926   215.9000     1.0401
  3373.80     3.5800     3.0380    18.0840   217.3330    22.1980    83.5407   215.9000     0.9830
  3374.00     3.1990     2.8180    15.0990   216.7500    18.4673    86.4462   215.9000     1.3189
  3374.20     3.0260     2.6760    14.1690   216.7500    16.6672    89.4752   215.9000     1.2006
  3374.40     2.9280     2.6620    14.2520   218.2270    18.8883    90.5402   215.9000     1.1698
  3374.60     2.8380     2.7440    16.7060   218.5000    19.9007    88.0014   215.9000     1.0761
  3374.80     3.0070     2.6900    16.1810   218.8870    21.2965    81.5122   215.9000     0.8159
  3375.00     3.0900     2.8610    18.4890   219.4890    28.1149    73.5526   215.9000     0.8823
  3375.20     3.4600     2.7700    28.7990   219.2610    35.8102    65.0654   215.9000     0.7388
  3375.40     3.3530     2.9150    20.8970   216.8120    35.7394    55.6765   215.9000     0.8106
  3375.60     3.4100     2.9660    28.9440   216.5000    40.5513    50.5616   215.9000     0.8222
  3375.80     3.5560     3.0000    26.8970   216.5000    42.5805    46.0876   215.9000     0.8401
  3376.00     3.8490     3.3020    31.2390   216.5000    48.0466    41.5645   215.9000     1.1137
  3376.20     5.7200     3.7570    29.6180   216.8250    52.6288    37.9154   215.9000     1.2155
  3376.40     6.0420     3.7280    28.1270   217.2960    55.7246    34.3525   215.9000     1.0940
  3376.60     4.2000     3.5970    37.5490   216.8860    54.9032    32.1411   215.9000     1.1321
  3376.80     4.5430     7.4650    17.2090   221.5000    45.3590    30.3295   215.9000     1.1346
  3377.00     3.8310     5.9520    16.3900   221.7250    50.2467    29.3716   215.9000     1.1479
  3377.20     2.8940     5.9810    32.2860   228.5230   100.3702    27.9488   215.9000     1.1811
  3377.40     7.5650     5.4660    29.5290   223.5000   128.8873    27.8970   215.9000     1.1329
  3377.60    12.5920     5.0350    67.7140   223.5000    75.8642    30.5721   215.9000     0.8883
  3377.80    13.0770     5.5310    24.2010   223.5000    37.6091    30.3769   215.9000     0.9977
  3378.00     9.1850     4.6010    26.5330   223.5000    37.4867    35.2524   215.9000     1.1570
  3378.20     6.7930     4.7070    24.9040   223.5000    39.1382    41.9332   215.9000     1.0670
  3378.40     6.6690     4.3460    23.1520   223.5000    39.4805    47.5293   215.9000     1.1426
  3378.60     9.8150     4.4990    23.6510   226.3140    37.7249    49.5143   215.9000     1.1212
  3378.80    10.2530     4.6330    23.7670   225.0000    47.2295    50.6626   215.9000     1.2110
  3379.00     9.5220     4.7740    31.7680   223.0900    49.1847    50.7360   215.9000     1.0583
  3379.20     8.0780     4.8230    30.4740   221.7500    49.6136    51.7016   215.9000     1.0676
  3379.40     8.0750     6.2010    30.3330   220.2900    40.4372    54.6842   215.9000     1.1193
  3379.60     9.6380     5.8840    22.5060   220.0000    31.0037    58.2385   215.9000     1.1549
  3379.80     8.0840     4.9340    18.7660   218.8750    27.2491    61.5905   215.9000     0.9808
  3380.00     6.2050     5.0140    21.1230   217.2950    29.3428    64.1520   215.9000     0.9643
  3380.20     4.9890     4.2680    19.8930   216.1480    29.6971    65.6366   215.9000     1.0642
  3380.40     3.7290     3.0000    20.6020   214.7500    29.3238    64.1256   215.9000     1.0529
  3380.60     3.1930     2.9010    19.1840   214.7500    30.7964    61.7503   215.9000     1.0967
  3380.80     3.3410     2.8670    24.0610   214.9550    36.9785    58.4476   215.9000     0.8616
  3381.00     3.6850     3.2090    25.8210   215.0000    46.8716    54.8335   215.9000     0.8513
  3381.20     3.6480     3.3410    38.0220   215.0000    50.4554    48.1347   215.9000     0.7959
  3381.40     3.8750     3.2740    32.1380   215.0000    54.6484    43.4377   215.9000     0.7294
  3381.60     3.2730     3.0430    38.5860   215.0000    44.7146    43.3365   215.9000     0.9654
  3381.80     3.4980     2.9150    22.5190   215.0000    39.4599    40.8348   215.9000     0.9553
  3382.00     4.2010     3.7940    25.6340   216.2510    44.4095    41.1149   215.9000     0.9918
  3382.20     6.8060     3.9500    24.7930   218.0000    42.9454    40.2721   215.9000     0.8774
  3382.40     7.3980     4.0470    18.6470   218.0000    38.6301    38.2542   215.9000     0.9464
  3382.60     5.6700     3.8410    18.4490   218.0000    43.9171    35.8566   215.9000     1.0294
  3382.80     5.5570     3.7220    20.6470   218.0000    72.1102    33.5741   215.9000     0.9916
  3383.00     5.5400     3.1370    28.7700   217.7720    57.3143    34.2220   215.9000     0.8709
  3383.20     3.5830     3.1420    35.3200   216.2500    51.7486    37.7043   215.9000     0.8892
  3383.40     3.7830     3.2430    32.4310   215.2500    47.8231    42.3916   215.9000     0.9108
  3383.60     3.7560     3.3950    31.3040   215.2500    42.9230    47.8741   215.9000     0.9160
  3383.80     3.7130     3.4720    26.8780   215.4500    41.0441    53.0822   215.9000     1.0792
  3384.00     3.7650     3.5700    29.0580   216.6750    46.5573    56.5313   215.9000     0.9462
  3384.20     3.8550     3.3990    37.6810   216.6830    54.8858    59.9993   215.9000     0.8755
  3384.40     6.1180     3.2820    27.1360   217.3170    54.1290    62.5178   215.9000     0.9003
  3384.60     2.9050     2.9480    43.3780   214.7500    45.4705    68.0727   215.9000     0.8516
  3384.80     3.3580     2.9490    26.9420   214.7500    29.0552    75.9055   215.9000     0.8831
  3385.00     3.4250     3.0970    17.4020   214.7500    23.3740    84.1008   215.9000     0.9238
  3385.20     3.3900     3.0290    18.6670   214.7500    21.3965    92.5551   215.9000     0.9262
  3385.40     3.2240     2.9720    15.4990   214.7500    19.1133    97.0679   215.9000     1.0521
  3385.60     3.2130     2.8680    15.0630   214.7500    17.2670    99.8827   215.9000     0.8594
  3385.80     3.1180     2.8580    12.3470   214.7500    13.8022   103.0658   215.9000     0.7725
