~Version information
  VERS.                            1.20: CWLS LAS  -  VERSION 1.20
  WRAP.                              NO: One line per depth step
~Well information
# MNEM.UNIT
# ====.================================:===================
  STRT.M                        3140.00: First depth in file
  STOP.M                        3450.00: Last depth in file
  STEP.M                           0.20: Depth increment
  NULL.                            9999: Null values
  COMP.                         COMPANY: 
  WELL.                            WELL: 115 
  FLD .                           FIELD: íùÑàçëäÄü
  CNTY.                          COUNTY: 
  STAT.                           STATE: 
  DATE.                        LOG DATE: 30-04-04
  SRVC.                 SERVICE COMPANY: 
  UWI.           Unique Well Identifier: 
~Parametr information block
# MNEM.UNIT
# ====.================================:===================
~Other information
# ------------------------- REMARKS  AREA ------------------
~Curve information
# MNEM.UNIT
# ====.================================:===================
  DEPT.M                               : Depth curve
GZ5.OHMM                               : äÄÜ. ëéèêéíàÇãÖçàÖ áéçÑÄ A8.0M1.0N
GZ4.OHMM                               : äÄÜ. ëéèêéíàÇãÖçàÖ áéçÑÄ A4.0M0.5N
GZ3.OHMM                               : äÄÜ. ëéèêéíàÇãÖçàÖ áéçÑÄ A2.0M0.5N
GZ2.OHMM                               : äÄÜ. ëéèêéíàÇãÖçàÖ áéçÑÄ A1.0M0.1N
GZ1.OHMM                               : äÄÜ.ëéèêéíàÇãÖçàÖ áéçÑÄ A0.4M0.1N
PZ.OHMM                                : äÄÜ.ëéèê.èé èéíÖçñàÄãáéçÑì Ä0.5å6.5N
RRB.OHMM                               : ëéèêéíàÇã.èêéåõÇéóç.ÜàÑäéëíà èÖêÇàó.
CALI.MM                                : ëìååÄêçõâ ÑàÄåÖíê äÄÇÖêçéåÖêÄ
CILA.MMHO                              : áéçÑ àä 7à1.6,Ääí.ëàÉçÄã/àä-è/Äàä-5
SP.MV                                  : ÖëíÖëíÇÖççÄü ëÄåéèéãüêàáÄñàü èé èë
BS.                                    : Ñ≠-216¨¨
GR.UR/H                                : ÖëíÖëíÇÖççÄü ÉÄååÄ-ÄäíàÇçéëíú èé Éä
GZB.OHMM                               : GZB
~ASCII Log Data
# ...
  3161.20     9.0744    15.9644    22.6110    16.7442     6.5217    13.0991     0.7777   222.3853    58.8659   379.5467   215.9000     8.7685    28.1637
  3161.40     8.4395    14.6355    21.5271    15.0709     6.6687    12.8983     0.7519   220.9065    59.1969   378.6159   215.9000     8.3357    27.5093
  3161.60     8.1514    12.6358    17.7904    13.0479     5.5707    13.3870     0.7312   237.1051    59.0906   378.6787   215.9000     7.8471    28.6067
  3161.80     7.9393    11.6460    15.6425    11.1951     4.6849    13.5466     0.7358   237.1681    60.3265   377.9191   215.9000     7.6785    37.2579
  3162.00     8.1600    11.3872    14.3880    12.3902     4.8757    14.0850     0.7684   230.3234    59.8465   381.7126   215.9000     7.6990    47.9870
  3162.20     9.0353    12.7164    14.6180    10.2784     3.8638    15.1395     0.7411   215.2130    61.8739   382.9766   215.9000     7.9334    62.9002
  3162.40    10.1685    14.5225    15.8685    12.4556     4.6593    16.4697     0.7975   218.5876    71.3381   382.8107   215.9000     8.4548    73.8709
  3162.60    11.0366    16.6201    18.4388    14.7864     5.8509    17.7890     0.7678   211.8770    63.6715   380.3981   215.9000     9.2301    77.4710
  3162.80    11.8844    17.6177    20.5780    16.5836     7.4357    18.8253     0.7624   210.5361    46.4992   377.6476   215.9000     9.5917    76.3632
  3163.00    12.6658    16.9599    21.1629    15.9303     7.6236    19.3911     0.7542   211.8719    39.2748   378.1154   215.9000     9.1327    79.7189
  3163.20    13.3289    15.7537    20.3081    16.3257     7.3040    19.5739     0.7973   220.2373    34.4688   379.2100   215.9000     7.6616    91.3987
  3163.40    14.1706    15.1767    19.1756    16.8343     6.7567    19.8093     0.8026   213.1650    35.3801   379.6851   215.9000     5.7466   112.7626
  3163.60    15.8948    14.0479    17.3540    15.9495     6.0027    21.1686     0.7941   213.4830    37.3403   380.3725   215.9000     4.5117   138.0407
  3163.80    18.5772    13.6834    14.9366    11.9679     4.3773    23.5511     0.7596   216.4760    39.1571   379.7334   215.9000     4.7197   183.0649
  3164.00    21.0166    14.4219    13.8324    10.9282     3.9281    26.1746     0.7895   219.8575    39.0747   380.2952   215.9000     5.9729   223.8316
  3164.20    23.3859    15.7120    15.1187    12.1732     4.3382    30.0441     0.7990   211.6815    35.0621   378.3843   215.9000     7.1792   237.0630
  3164.40    25.6748    16.8420    17.1560    13.0376     4.8778    35.4103     0.7990   207.5419    29.7240   382.0888   215.9000     7.7432   236.5727
  3164.60    27.3967    17.7927    19.6289    13.9056     5.3149    40.8157     0.7995   209.8848    23.6021   382.4045   215.9000     7.8990   236.1273
  3164.80    28.8545    19.3109    21.9503    14.7303     5.7500    45.8405     0.8095   208.9151    17.1530   383.7609   215.9000     7.4784   239.8069
  3165.00    30.3645    20.9497    23.9617    16.1987     5.7521    50.7350     0.8187   208.6057    12.5838   383.3140   215.9000     6.2680   241.9911
  3165.20    31.5029    23.3605    26.1490    18.1762     5.8295    56.0932     0.8123   208.4395    11.3450   382.4749   215.9000     4.7449   239.7163
  3165.40    32.7761    25.7244    29.3778    21.7138     6.5774    61.0565     0.8190   207.5088    11.2260   382.7703   215.9000     3.5522   229.7928
  3165.60    33.9175    28.3246    33.1945    24.7418     7.2813    66.3534     0.8188   206.5768     9.2576   382.1435   215.9000     2.9316   217.2506
  3165.80    34.6683    30.7804    38.2068    27.6727     7.9187    70.9489     0.8138   205.9441     7.9201   379.1769   215.9000     2.6226   201.5339
  3166.00    35.4280    33.4006    44.2243    31.3035     8.7896    74.5173     0.8088   206.6537     6.7856   379.6768   215.9000     2.2697   182.3928
  3166.20    36.1192    37.4495    53.8538    35.2862     9.5816    77.4874     0.8040   207.1048     6.1170   380.0065   215.9000     1.8448   166.6633
  3166.40    37.4318    43.0810    66.6180    39.9039    10.3843    79.7326     0.8040   207.1091     5.8524   383.9244   215.9000     1.4291   150.5497
  3166.60    38.9388    51.1175    80.2612    44.3853    11.3434    80.7698     0.8038   206.5750     6.2607   385.6390   215.9000     1.1860   136.3590
  3166.80    40.6288    60.5934    93.2018    48.1875    11.7786    81.1270     0.7990   207.2582     6.2986   385.9187   215.9000     1.2293   123.0934
  3167.00    42.2220    69.7954   105.7309    51.9399    12.3476    81.0996     0.7990   208.0025     6.4306   385.6657   215.9000     1.3338   114.6876
  3167.20    43.7496    78.5371   119.2481    55.6507    12.8673    80.5195     0.7990   208.2796     6.9662   383.2147   215.9000     1.3851   106.8448
  3167.40    45.0742    87.9634   132.3794    58.0796    13.5125    79.2888     0.7990   206.8461     7.5608   385.1332   215.9000     1.3441   100.3552
  3167.60    46.6244    98.3532   145.9270    60.6185    13.7708    77.6548     0.7993   206.8583     7.9815   385.2408   215.9000     1.2493    95.7941
  3167.80    47.9296   111.1360   156.7876    60.3874    14.1494    75.7778     0.8041   207.4664     8.8756   385.0728   215.9000     1.2032    93.3530
  3168.00    49.1617   125.8043   166.8761    62.7577    13.8731    73.2724     0.8050   208.0361     9.4574   385.2145   215.9000     1.2861    90.0689
  3168.20    50.3865   148.0874   176.4295    64.3307    14.6115    70.6994     0.8055   207.2119    10.2276   385.3240   215.9000     1.3451    85.9343
  3168.40    51.0220   174.8631   184.1193    64.8124    14.5264    67.7101     0.8135   207.7872    11.0126   382.9117   215.9000     1.3526    81.6291
  3168.60    50.9700   200.6308   188.4597    66.4113    14.8855    64.3941     0.8043   208.6283    11.3226   383.7292   215.9000     1.4475    78.6980
  3168.80    49.9435   218.7706   186.5880    64.3477    14.6809    61.1455     0.8102   208.3241    11.9887   385.2463   215.9000     1.6149    77.6124
  3169.00    49.1901   226.5254   176.7995    60.8981    13.8166    58.4885     0.8140   208.9716    12.9218   384.8328   215.9000     1.7230    79.9503
  3169.20    48.7246   223.7342   163.5028    55.7463    12.5415    56.4669     0.8133   209.9772    14.1969   385.8910   215.9000     1.6199    83.9724
  3169.40    47.6968   221.8483   151.7345    49.0685    11.2091    55.0008     0.8185   209.0360    15.0873   385.8680   215.9000     1.4685    87.0651
  3169.60    45.9616   222.5159   142.3133    47.2283    10.9936    54.2465     0.8091   209.0994    16.1460   385.7477   215.9000     1.5476    88.7522
  3169.80    45.5474   224.1208   135.6544    45.0975    10.7926    54.0850     0.8088   208.5150    16.2821   384.8223   215.9000     1.8277    90.6651
  3170.00    45.7654   221.8588   127.9222    41.0019    10.0209    54.0850     0.7875   208.8208    15.9690   383.2550   215.9000     2.2629    94.9149
  3170.20    45.8325   223.1561   123.4824    42.1466    10.3261    54.0850     0.8155   209.1399    16.0620   383.6393   215.9000     2.7128    96.3678
  3170.40    46.7531   233.1192   124.1496    43.3321    10.7467    54.0952     0.8243   207.7431    14.9867   382.2896   215.9000     2.9971    92.3777
  3170.60    49.8556   233.7832   122.0742    42.8967    11.1004    54.2679     0.8300   208.6778    15.4592   382.9175   215.9000     3.0284    87.5808
  3170.80    54.1864   230.8779   118.7977    43.3304    11.0860    53.8216     0.8314   208.6948    15.1273   383.7851   215.9000     2.8268    83.7031
  3171.00    59.5904   232.1019   117.2280    44.9619    11.4354    52.8811     0.8400   208.7026    14.5777   383.1606   215.9000     2.4452    79.4690
  3171.20    64.5223   235.5974   118.9519    47.7715    11.9733    51.3329     0.8410   208.1891    15.2321   384.3375   215.9000     2.0947    73.9096
  3171.40    69.0311   236.0206   119.4092    50.2310    12.6558    49.6027     0.8393   208.0113    15.4920   385.6571   215.9000     1.8891    70.4845
  3171.60    71.3126   228.5869   115.4362    49.2207    12.4516    48.1105     0.8273   208.6320    15.7685   387.5218   215.9000     2.0752    71.7508
