~Version information
  VERS.                            1.20: CWLS LAS  -  VERSION 1.20
  WRAP.                              NO: One line per depth step
~Well information
# MNEM.UNIT
# ====.================================:===================
  STRT.M                        3140.00: First depth in file
  STOP.M                        3450.00: Last depth in file
  STEP.M                           0.20: Depth increment
  NULL.                            9999: Null values
  COMP.                         COMPANY: 
  WELL.                            WELL: 115 
  FLD .                           FIELD: íùÑàçëäÄü
  CNTY.                          COUNTY: 
  STAT.                           STATE: 
  DATE.                        LOG DATE: 30-04-04
  SRVC.                 SERVICE COMPANY: 
  UWI.           Unique Well Identifier: 
~Parametr information block
# MNEM.UNIT
# ====.================================:===================
~Other information
# ------------------------- REMARKS  AREA ------------------
~Curve information
# MNEM.UNIT
# ====.================================:===================
  DEPT.M                               : Depth curve
GZ5.OHMM                               : äÄÜ. ëéèêéíàÇãÖçàÖ áéçÑÄ A8.0M1.0N
GZ4.OHMM                               : äÄÜ. ëéèêéíàÇãÖçàÖ áéçÑÄ A4.0M0.5N
GZ3.OHMM                               : äÄÜ. ëéèêéíàÇãÖçàÖ áéçÑÄ A2.0M0.5N
GZ2.OHMM                               : äÄÜ. ëéèêéíàÇãÖçàÖ áéçÑÄ A1.0M0.1N
GZ1.OHMM                               : äÄÜ.ëéèêéíàÇãÖçàÖ áéçÑÄ A0.4M0.1N
PZ.OHMM                                : äÄÜ.ëéèê.èé èéíÖçñàÄãáéçÑì Ä0.5å6.5N
RRB.OHMM                               : ëéèêéíàÇã.èêéåõÇéóç.ÜàÑäéëíà èÖêÇàó.
CALI.MM                                : ëìååÄêçõâ ÑàÄåÖíê äÄÇÖêçéåÖêÄ
CILA.MMHO                              : áéçÑ àä 7à1.6,Ääí.ëàÉçÄã/àä-è/Äàä-5
SP.MV                                  : ÖëíÖëíÇÖççÄü ëÄåéèéãüêàáÄñàü èé èë
BS.                                    : Ñ≠-216¨¨
GR.UR/H                                : ÖëíÖëíÇÖççÄü ÉÄååÄ-ÄäíàÇçéëíú èé Éä
GZB.OHMM                               : GZB
~ASCII Log Data
  3140.00    36.2915    38.7927    46.6323    24.5725     7.9611    21.9210     0.7480   218.5879    42.3053   395.0222   215.9000     5.3117    31.1716
  3140.20    35.5401    38.9964    44.5014    23.6917     7.7078    21.9287     0.7480   217.5477    42.9417   395.2574   215.9000     5.6676    28.2051
  3140.40    35.1551    39.7986    42.4815    23.7052     7.8914    22.0775     0.7473   216.5603    43.7049   395.4952   215.9000     6.0680    26.0319
  3140.60    35.0048    41.2293    41.4921    23.3777     7.8437    22.1250     0.7533   216.0099    43.5207   398.9402   215.9000     6.2227    24.3633
  3140.80    34.5946    42.6182    41.2652    24.3195     8.2293    22.1186     0.7580   216.5351    43.3393   401.4535   215.9000     6.2584    22.9705
  3141.00    34.0733    43.6576    40.8485    24.6401     8.4451    21.9814     0.7585   214.7198    43.9745   400.4457   215.9000     6.3490    22.0155
  3141.20    33.6681    43.8326    40.0542    24.8085     8.4698    21.6517     0.7679   216.2744    44.0678   401.0247   215.9000     6.5029    21.7545
  3141.40    33.0590    43.6674    39.5607    25.4554     8.5606    20.9632     0.7671   215.8877    44.9707   401.9454   215.9000     6.5406    22.0275
  3141.60    32.6151    43.5641    39.5241    25.6730     8.5581    20.2333     0.7683   215.3182    46.0316   400.3947   215.9000     6.5592    21.9664
  3141.80    32.1274    43.6280    40.0636    26.4690     8.6710    19.2406     0.7731   216.7995    47.6310   400.1282   215.9000     6.2935    21.6857
  3142.00    31.8089    43.7220    41.3383    27.5858     9.0227    17.8470     0.7556   215.2688    50.1040   402.1326   215.9000     5.8565    21.2324
  3142.20    30.5445    43.5544    42.4959    28.5986     9.5706    16.0059     0.7481   215.6468    52.0701   404.0717   215.9000     5.6817    20.6185
  3142.40    28.4470    40.0141    40.6595    28.0695     9.5419    14.5365     0.7484   216.9346    53.8465   404.6132   215.9000     5.8021    19.5499
  3142.60    25.7936    32.9055    35.4204    21.5331     7.6156    13.6943     0.7176   221.2981    56.6931   404.5204   215.9000     6.0294    18.2048
  3142.80    22.4802    26.0837    28.9434    17.2694     6.0503    12.9995     0.7102   235.8082    59.8977   404.4203   215.9000     5.9549    18.0044
  3143.00    19.1031    21.7542    23.9725    14.7656     5.2802    12.3243     0.7136   243.9510    63.9093   403.1093   215.9000     5.8529    19.0667
  3143.20    16.5931    18.5611    20.5718    12.0953     4.2543    12.3022     0.7076   250.5168    68.2088   403.0580   215.9000     6.1332    21.2673
  3143.40    16.5527    17.0875    18.2770    10.9656     3.8478    12.4987     0.7189   249.4026    71.7593   404.5262   215.9000     6.8607    25.3273
  3143.60    16.8987    18.3982    19.2128    11.4549     4.0045    12.5639     0.7203   250.7648    77.1417   404.9051   215.9000     8.0503    33.6544
  3143.80    17.8717    20.0434    20.3833    12.1878     4.5264    13.2610     0.7637   231.2058    75.4978   403.8224   215.9000     9.1452    38.8548
  3144.00    19.2079    20.5543    20.2830    11.3638     4.5307    14.7080     0.7779   222.0935    71.4783   405.5336   215.9000    10.0056    42.0303
  3144.20    20.5594    20.7295    20.0520    11.6629     5.1900    15.9273     0.7955   221.6530    64.8257   403.9823   215.9000    10.3896    45.1417
  3144.40    21.7902    21.0709    19.6198    11.5673     5.5381    17.4989     0.7843   216.1897    56.9593   403.8824   215.9000    10.1915    47.3438
  3144.60    23.4608    21.6913    19.0164    10.6629     4.9641    19.1617     0.7724   219.7050    47.9172   403.7841   215.9000     9.3996    51.5028
  3144.80    24.8735    23.1499    19.2285    13.3664     5.6495    20.5462     0.7997   214.6723    45.7361   405.8506   215.9000     8.1993    53.6785
  3145.00    26.6046    25.5451    20.2572    16.4550     6.7488    21.7474     0.8109   212.8217    46.2225   408.1812   215.9000     7.1363    52.8004
  3145.20    28.6898    26.7588    20.8939    17.4082     6.9064    23.2157     0.7726   211.5633    41.5060   406.3224   215.9000     6.3229    51.4179
  3145.40    29.8620    27.8273    21.8288    20.5014     7.4802    23.8865     0.8026   212.9715    37.5225   405.2212   215.9000     5.9116    50.5159
  3145.60    30.5844    29.4030    23.4701    23.6670     8.5462    23.7662     0.8138   211.8255    35.0024   405.5308   215.9000     5.6774    48.3996
  3145.80    31.3514    28.8533    24.8143    25.0373     9.1954    23.8161     0.8067   211.9393    32.4520   406.9785   215.9000     5.3466    44.9785
  3146.00    32.0967    27.7535    25.7775    22.2488     8.4473    23.9792     0.7630   212.8091    32.9594   406.3760   215.9000     5.0377    44.0458
  3146.20    33.1950    26.6796    26.0447    23.2039     7.7403    24.1868     0.7645   218.9872    33.2079   405.4141   215.9000     5.1001    44.4086
  3146.40    34.4022    27.8771    28.6177    20.9801     6.5423    24.4338     0.8138   217.0053    33.7687   402.1762   215.9000     5.2793    48.4652
  3146.60    36.1174    29.8702    32.6672    24.0063     7.5278    24.5415     0.8483   225.9856    39.6754   400.1226   215.9000     5.0240    48.3225
  3146.80    37.2120    30.8514    36.1741    26.1971     8.1019    25.2271     0.8532   215.0276    37.4616   398.5911   215.9000     4.7715    46.1139
  3147.00    37.2790    30.1964    38.1428    25.4592     8.2478    25.8081     0.8389   217.1590    34.9616   399.0105   215.9000     5.0745    43.4920
  3147.20    36.7191    28.3541    39.0590    24.6636     8.1377    26.3852     0.8367   218.6169    34.7341   394.6047   215.9000     5.9881    40.2362
  3147.40    36.1395    26.7889    39.2357    23.2732     7.5991    26.8720     0.8305   215.6609    31.8434   392.9315   215.9000     6.5644    39.3417
  3147.60    35.1800    26.6826    39.8267    25.3010     7.9752    27.0420     0.8214   222.8879    35.6660   390.7134   215.9000     6.2226    38.0060
  3147.80    34.4228    28.0651    42.6483    28.0940     8.5982    27.0317     0.8295   219.0103    34.7374   387.7686   215.9000     5.3211    35.2980
  3148.00    34.0826    30.7813    45.5685    29.6509     9.2065    26.8011     0.8188   217.9271    32.6963   388.3007   215.9000     4.5770    32.1354
  3148.20    33.4111    32.9519    47.5450    31.8102     9.8817    26.0627     0.8146   217.8063    34.1819   387.3474   215.9000     4.5138    30.0713
  3148.40    32.3038    34.4339    48.1133    32.0431    10.2105    24.9277     0.8065   217.5138    33.6958   386.6265   215.9000     4.7348    28.6027
  3148.60    30.9846    35.2494    48.4513    31.1060     9.3693    23.6201     0.7975   221.6473    38.8675   385.4485   215.9000     4.6501    28.3743
  3148.80    28.9623    35.9942    48.9546    33.2359     9.7260    22.2668     0.8059   222.3512    38.1705   386.3246   215.9000     4.1725    27.7204
  3149.00    26.6782    36.2243    48.5019    28.9855     8.4797    21.0140     0.7870   217.5171    43.0424   385.5894   215.9000     3.7234    26.6075
  3149.20    24.5989    35.3575    45.2615    29.6023     8.9389    19.9980     0.8233   223.3316    47.9790   388.0573   215.9000     3.7139    24.0412
  3149.40    22.8554    33.1319    41.3362    24.3476     7.6128    19.7712     0.7921   221.5797    46.5346   388.9752   215.9000     4.1378    22.7927
  3149.60    21.4440    31.1678    38.4594    21.1959     6.6592    19.0237     0.8140   229.2325    50.9164   389.2075   215.9000     4.6634    23.1817
  3149.80    20.1039    32.2076    39.3806    22.1559     7.0595    18.4553     0.8328   222.5551    52.1044   386.6375   215.9000     4.9810    23.0639
  3150.00    19.5121    33.2122    40.0499    23.0754     7.3616    18.2432     0.8479   224.7861    53.9865   385.6837   215.9000     5.0987    21.9409
  3150.20    18.7555    32.1186    38.7351    22.0483     7.4997    18.4226     0.8464   218.7688    54.5039   386.1716   215.9000     5.1825    20.4183
  3150.40    18.4123    30.3686    36.3697    19.6747     7.0240    18.1361     0.8355   219.1053    53.0342   386.4837   215.9000     5.4447    18.8903
