~Version information
  VERS.                            1.20: CWLS LAS  -  VERSION 1.20
  WRAP.                              NO: One line per depth step
~Well information
# MNEM.UNIT
# ====.================================:===================
  STRT.M                        3148.00: First depth in file
  STOP.M                        3438.00: Last depth in file
  STEP.M                           0.20: Depth increment
  NULL.                            9999: Null values
  COMP.                         COMPANY: 
  WELL.                            WELL: 115 
  FLD .                           FIELD: íÌ§®≠·™†Ô
  CNTY.                          COUNTY: 
  STAT.                           STATE: 
  DATE.                        LOG DATE: 28-04-04
  SRVC.                 SERVICE COMPANY: 
  UWI.           Unique Well Identifier: 
~Parametr information block
# MNEM.UNIT
# ====.================================:===================
~Other information
# ------------------------- REMARKS  AREA ------------------
~Curve information
# MNEM.UNIT
# ====.================================:===================
  DEPT.M                               : Depth curve
IZ2.DEG                                : îÄáÄ1(ÉêÄÑ)
IZ3.DEG                                : îÄáÄ2(ÉêÄÑ)
IZ4.DEG                                : îÄáÄ3(ÉêÄÑ)
IZ5.DEG                                : îÄáÄ4(ÉêÄÑ)
IZ1.DEG                                : îÄáÄ5(ÉêÄÑ)
VIK1.OHMM                              : É0.4à0.1à(éåå)
VIK5.OHMM                              : É0.57à0.14à(éåå)
VIK4.OHMM                              : É0.8à0.2à(éåå)
VIK3.OHMM                              : É1.13à0.28à(éåå)
VIK2.OHMM                              : É1.6à0.4à(éåå)
~ASCII Log Data
# ...
  3241.80     6.4450     6.0350     3.7650     2.7950     2.8700    21.2850    23.9850    45.7900    65.9050    64.4850
  3242.00     7.3600     7.0150     4.3600     3.1250     3.1350    18.1900    19.4750    38.3850    56.5700    58.3800
  3242.20     6.7050     6.8800     4.4650     3.2650     3.3100    21.9700    20.7750    38.3250    55.5150    55.1050
  3242.40     6.7550     6.8900     4.5150     3.4700     3.3950    19.7550    19.4500    35.1550    49.7550    51.7500
  3242.60    10.1600     9.0350     5.9950     4.4250     3.9100    13.1600    13.8350    24.6000    36.9100    43.2050
  3242.80     9.2500     8.4450     5.8250     4.5050     4.1200    18.8850    18.4400    32.1450    42.8650    43.2700
  3243.00     5.2800     5.8000     4.0900     3.2800     3.3700    27.9400    26.8350    46.6850    60.6150    58.3700
  3243.20     6.5150     6.5950     4.3500     3.1650     3.1050    21.7400    21.1750    37.7900    54.5050    59.6950
  3243.40    10.6450     9.9100     6.6950     4.7450     3.9600    10.7600    11.3550    21.0850    33.8100    42.8800
  3243.60     9.5900     9.8950     7.2500     5.3000     4.4200    16.3050    15.2000    23.6750    34.7050    38.6850
  3243.80     6.2650     7.1150     5.1700     3.8100     3.5850    23.9950    22.2700    35.8850    55.7550    56.6450
  3244.00     6.3900     6.6550     4.3050     2.9800     2.7650    23.7150    21.3700    39.0100    62.8000    70.8600
  3244.20     5.9200     6.8800     4.5150     3.1800     2.8000    25.2300    19.9650    37.0550    55.9950    66.0550
  3244.40     7.0850     7.6700     5.0250     3.6000     3.1650    21.2750    17.0900    31.4850    48.3800    57.3900
  3244.60     6.7400     7.0250     4.7250     3.6100     3.2700    23.9850    22.0900    38.1200    54.0300    56.8400
  3244.80     5.2750     5.9850     3.7050     2.8750     2.8850    28.4750    27.2150    51.1650    72.0300    69.7850
  3245.00     5.9550     6.4650     3.7150     2.5050     2.5950    24.2800    22.9900    49.5350    75.7750    76.4800
  3245.20     6.3400     6.9300     4.1150     2.7050     2.6500    22.3900    19.8650    42.3700    68.7950    72.3750
  3245.40     6.5550     7.2650     4.2550     2.9200     2.7300    21.7200    18.8000    39.2200    64.3500    70.3350
  3245.60     6.6900     7.2050     4.3400     2.9450     2.8000    20.8700    19.4750    38.7050    63.3000    68.3550
  3245.80     7.6200     7.2200     4.4600     2.9850     2.8950    18.3350    19.1300    36.5550    62.1600    65.2900
  3246.00     7.4400     6.7550     4.2350     2.9450     2.8400    19.1150    21.1100    40.6900    66.2650    67.1600
  3246.20     6.2650     6.0950     3.7550     2.6950     2.6200    22.6350    24.6000    47.3250    74.2650    74.5850
  3246.40     7.2200     6.3600     3.8650     2.6750     2.5500    19.4050    22.4000    42.7900    71.2700    75.1000
  3246.60     6.5350     6.2100     3.8950     2.6950     2.5850    29.7100    26.8900    48.6800    74.9250    77.2050
  3246.80     3.8800     4.4500     2.7550     2.0250     2.2550    51.2250    45.9700    86.5450   124.0750    99.8550
  3247.00     3.9550     3.9450     2.1800     1.4800     1.8250    44.7300    44.5750    91.5700   141.0650   116.2650
  3247.20     5.9100     5.3600     2.9700     1.8700     1.9200    24.2050    26.7850    58.7800   101.3650   102.2800
  3247.40     6.5550     6.5950     3.6450     2.3650     2.2600    21.2900    21.5400    47.2350    82.2550    86.4550
  3247.60     6.2800     6.9200     3.7550     2.3950     2.3500    24.5800    21.3600    46.9150    83.7950    85.4900
  3247.80     5.7050     6.4250     3.6800     2.3350     2.3350    27.9900    23.2850    47.8050    84.2150    84.8850
  3248.00     5.2750     6.1800     3.6500     2.4250     2.4050    30.2100    23.7250    48.0550    78.8850    80.3550
  3248.20     5.7100     6.4850     3.8950     2.6650     2.6450    27.1550    21.2450    43.0300    70.3500    72.0850
  3248.40     5.7450     6.9150     4.4750     3.1700     3.0050    25.8550    19.6500    35.9650    56.3700    61.8700
  3248.60     7.3750     8.2100     5.5850     4.0050     3.5150    18.0450    15.3250    26.6700    40.4800    51.1700
  3248.80    11.6600    12.2750     7.9650     5.5150     4.4250    11.8300     8.9000    16.8650    27.4600    38.2400
  3249.00    10.2450    10.9000     6.9300     5.1850     4.6400    17.9850    13.5750    28.1850    42.0150    39.0350
  3249.20     6.3850     6.9500     4.2500     3.2400     3.4650    22.7050    19.7750    41.0000    67.3000    60.7650
  3249.40     5.5350     6.9250     4.1200     2.6550     2.7200    29.5300    20.8750    40.4550    71.0900    71.6300
  3249.60     5.3450     6.8900     4.2950     2.8550     2.9000    29.6250    20.2650    38.1650    63.6600    63.7200
  3249.80     6.1850     7.5000     4.8950     3.3200     3.2800    22.9750    17.4050    32.0850    52.5850    53.4200
  3250.00     7.3700     8.4600     5.8200     4.0550     3.9000    17.7000    14.4450    25.4850    40.0950    42.2300
  3250.20     8.5650     9.5150     6.7000     4.9750     4.7100    14.1450    12.6900    21.3400    31.2600    34.0150
  3250.40     8.7000     9.4600     6.6000     5.3300     5.3550    14.8550    13.2950    22.4050    29.6550    29.7850
  3250.60     7.8000     8.6050     5.9700     5.2400     5.6050    16.9500    15.3400    24.6850    30.0400    27.1650
  3250.80     8.2400     9.0300     6.5050     5.8500     6.2050    15.3000    13.8250    21.1550    24.7900    22.5800
  3251.00    12.0350    12.0800     9.2850     7.9450     7.6700     8.3200     8.0400    12.6400    15.7100    16.4400
  3251.20    17.1600    17.0600    13.6500    11.2450     9.7750     4.5750     4.5900     6.7550     9.1700    11.4450
  3251.40    20.7850    20.0200    16.0300    13.1900    11.3150     3.5400     3.6600     5.3300     7.4450     9.5550
  3251.60    17.1950    17.4450    14.2600    11.7650    10.4600     7.4050     6.0850     8.0800    10.7950    12.1050
  3251.80    10.0750    11.6950     9.7500     8.1050     7.5650    15.9100    11.4700    15.9250    20.9650    21.8350
  3252.00     6.3350     8.0650     6.6600     5.4700     5.1450    26.0700    17.0450    22.6250    30.2700    33.8150
  3252.20     5.0600     6.9400     6.1650     4.9850     4.4350    31.7350    21.1050    24.5000    31.4450    38.1350
  3252.40     5.2500     6.3250     5.7700     5.1300     4.5750    29.5800    23.2350    27.2000    30.3650    35.8000
  3252.60     5.7700     6.3700     5.1600     5.0950     4.7700    32.3850    23.5850    31.8900    31.8100    34.1500
  3252.80     5.4850     5.2250     4.3300     4.5500     4.7300    34.8250    37.2500    41.1400    38.7750    35.6350
  3253.00     5.4000     4.9500     3.3950     4.0000     4.4950    27.5750    39.1250    58.3550    44.2200    37.4200
  3253.20     6.5500     6.1800     3.5700     3.8450     4.5250    21.3000    24.2150    57.3950    48.7300    37.1950
  3253.40     6.9950     6.5650     4.0250     3.4650     4.6000    20.2550    20.6450    45.7050    54.2200    36.4550
  3253.60     6.5700     6.6850     3.9350     3.1150     4.4600    22.7700    21.2200    44.6650    57.7000    38.5800
  3253.80     6.0250     6.2650     3.9400     3.1100     4.2800    24.2350    24.6600    43.5700    58.9200    40.5600
  3254.00     6.4650     6.0850     4.0550     3.2650     4.1750    23.6000    23.1400    43.5950    54.5000    40.0300
  3254.20     6.6150     6.5350     4.1100     3.4700     4.2750    23.4750    19.5050    41.7500    50.4900    39.1300
  3254.40     6.8400     7.7150     4.9400     3.7950     4.5500    19.1100    16.4950    31.2750    43.9200    35.3250
  3254.60    10.3200    10.5900     7.3550     5.2800     5.3650    11.1900    10.4850    17.9500    29.0250    27.6500
  3254.80    12.5500    12.7500     9.0700     6.9800     6.3550     8.5050     7.8250    13.3600    19.3600    21.9900
  3255.00    10.9000    11.7500     8.6200     6.9750     6.6350    10.6500     9.3700    15.1650    20.5350    21.3700
