~Version information
  VERS.                            1.20: CWLS LAS  -  VERSION 1.20
  WRAP.                              NO: One line per depth step
~Well information
# MNEM.UNIT
# ====.================================:===================
  STRT.M                        3148.00: First depth in file
  STOP.M                        3438.00: Last depth in file
  STEP.M                           0.20: Depth increment
  NULL.                            9999: Null values
  COMP.                         COMPANY: 
  WELL.                            WELL: 115 
  FLD .                           FIELD: íÌ§®≠·™†Ô
  CNTY.                          COUNTY: 
  STAT.                           STATE: 
  DATE.                        LOG DATE: 28-04-04
  SRVC.                 SERVICE COMPANY: 
  UWI.           Unique Well Identifier: 
~Parametr information block
# MNEM.UNIT
# ====.================================:===================
~Other information
# ------------------------- REMARKS  AREA ------------------
~Curve information
# MNEM.UNIT
# ====.================================:===================
  DEPT.M                               : Depth curve
IZ2.DEG                                : îÄáÄ1(ÉêÄÑ)
IZ3.DEG                                : îÄáÄ2(ÉêÄÑ)
IZ4.DEG                                : îÄáÄ3(ÉêÄÑ)
IZ5.DEG                                : îÄáÄ4(ÉêÄÑ)
IZ1.DEG                                : îÄáÄ5(ÉêÄÑ)
VIK1.OHMM                              : É0.4à0.1à(éåå)
VIK5.OHMM                              : É0.57à0.14à(éåå)
VIK4.OHMM                              : É0.8à0.2à(éåå)
VIK3.OHMM                              : É1.13à0.28à(éåå)
VIK2.OHMM                              : É1.6à0.4à(éåå)
~ASCII Log Data
# ...
  3389.20    10.6900    13.7450    13.6050    13.9500    14.0100    10.5400     6.9950     7.1550     6.8650     6.7500
  3389.40    10.7750    13.5350    13.1150    13.5900    14.0050    10.3150     7.1750     7.6400     7.1600     6.7950
  3389.60    10.1150    13.0450    12.6100    13.1250    13.9400    11.4250     7.7600     8.2000     7.5250     6.7600
  3389.80     9.9800    12.9050    12.5900    13.0150    14.1050    11.4200     7.6600     8.0250     7.5800     6.5700
  3390.00    10.6800    13.6400    13.3100    13.4850    14.5450    10.3000     6.8450     7.1850     7.1400     6.3000
  3390.20    10.8350    14.3050    13.9100    14.0100    14.9250    10.4550     6.4850     6.8050     6.7250     6.1000
  3390.40    11.3150    14.5050    14.2200    14.3250    15.1000     9.8250     6.4150     6.5150     6.5150     5.9950
  3390.60    11.2200    14.8350    14.3750    14.5050    15.0750     9.8200     6.2050     6.4500     6.4050     5.9900
  3390.80    10.5350    15.0550    14.4750    14.4250    14.8900    10.6850     6.0350     6.5000     6.5000     6.1300
  3391.00    10.2200    14.7600    14.3300    14.2350    14.7050    11.2600     6.3000     6.5950     6.6450     6.2800
  3391.20     9.8150    14.2050    13.8850    14.1000    14.6400    11.9000     6.6700     6.9000     6.6750     6.2350
  3391.40    10.0000    14.2000    13.9800    14.3900    15.0700    11.2750     6.4900     6.6700     6.3650     5.8900
  3391.60    11.0850    15.0550    14.8400    15.2550    15.8850     9.6150     5.8250     6.0100     5.7650     5.3750
  3391.80    11.7850    15.8950    15.5550    16.0350    16.7050     8.8000     5.4000     5.6000     5.3600     4.9500
  3392.00    11.7650    16.2750    15.8350    16.3450    17.3050     8.8850     5.2400     5.4600     5.2000     4.6600
  3392.20    11.8050    16.6500    16.2250    16.5850    17.6600     8.8600     5.0450     5.2450     5.0400     4.5100
  3392.40    11.7700    16.9950    16.7500    17.0100    17.9450     8.8600     4.8850     4.9950     4.8450     4.4450
  3392.60    12.0650    17.2400    17.1750    17.3550    18.0700     8.5850     4.7700     4.8150     4.7250     4.4150
  3392.80    12.0700    17.0300    17.0050    17.1950    17.7800     8.9250     4.9950     4.9500     4.8400     4.5900
  3393.00    10.8150    15.5950    15.9450    16.4100    16.9950    10.4450     5.8200     5.6000     5.2750     5.0000
  3393.20    10.1700    14.7600    15.0150    15.6250    16.1100    11.1500     6.2650     6.1200     5.7150     5.4550
  3393.40    10.0000    14.4400    14.4150    14.9100    15.3400    11.8750     6.6250     6.6200     6.2350     5.8800
  3393.60     9.2050    13.4250    13.4100    13.8100    14.3700    13.5600     7.4750     7.5800     7.1650     6.5850
  3393.80     8.5350    12.5100    12.2100    12.4900    13.2350    14.9900     8.2850     8.8150     8.4950     7.6250
  3394.00     8.2950    11.8850    11.2200    11.2700    12.1100    15.6400     8.9650    10.1200    10.0550     8.8650
  3394.20     8.1500    11.2700    10.1850    10.1300    10.9600    16.0350     9.8000    11.6700    11.9700    10.5300
  3394.40     8.4050    10.7250     9.2300     8.9950     9.8500    15.1800    10.3850    13.4000    14.4250    12.4950
  3394.60     8.5500    10.1950     8.3600     7.9250     8.8000    15.0250    11.5850    16.0800    17.5100    14.7850
  3394.80     8.3250     9.3600     7.2450     6.8950     7.8100    15.5850    13.4500    19.9100    21.2550    17.6450
  3395.00     8.3050     8.6200     6.4200     6.0150     7.0200    15.2350    14.8750    22.9950    25.4050    20.6500
  3395.20     8.5700     8.5750     6.1600     5.4600     6.5100    14.2950    14.7100    23.9150    28.3950    22.6850
  3395.40     9.1400     9.0200     6.3250     5.3050     6.2450    12.9800    13.5700    22.9250    29.4200    23.6300
  3395.60     9.2750     9.0000     6.2650     5.2100     5.9950    12.9500    13.8300    23.4200    31.2050    25.0700
  3395.80     9.1250     8.5850     5.9300     4.9350     5.6300    13.2900    14.5300    25.3250    33.6300    27.1350
  3396.00     8.9000     8.5750     5.8750     4.7800     5.4400    13.7250    14.5050    25.7650    34.0650    28.2850
  3396.20     9.0150     8.9600     6.1100     4.9400     5.5150    13.5150    13.6850    23.9200    31.9650    28.0950
  3396.40     9.2600     9.2300     6.4600     5.2800     5.6800    12.9950    13.0500    21.6850    28.9550    26.6900
  3396.60     9.1550     9.3200     6.8300     5.6250     5.9300    13.3500    12.8950    20.5000    26.2800    24.5950
  3396.80     9.2300     9.5750     7.1750     6.1500     6.3650    13.0600    12.0650    18.9800    23.1250    22.2750
  3397.00     9.7250    10.4850     7.9600     6.9700     7.0200    11.9600    10.4250    16.1000    19.5550    19.6550
  3397.20    10.1550    11.5150     9.0750     7.8300     7.7700    11.4050     9.0450    13.1450    16.4650    17.1050
  3397.40     9.5850    11.8150     9.7000     8.4900     8.3400    12.4650     8.8400    11.9900    14.6500    15.3100
  3397.60     8.7850    11.5750    10.0250     8.8300     8.7000    13.6550     9.2100    11.5050    13.7050    14.1950
  3397.80     9.0900    11.7200    10.5500     9.3150     9.1000    13.1750     8.9250    10.4950    12.4900    13.2800
  3398.00     9.4100    12.1050    11.1150    10.0750     9.5850    12.9200     8.4200     9.5700    11.1550    12.4000
  3398.20     9.3200    12.3350    11.4900    10.6150     9.9450    13.0650     8.1950     9.2300    10.4750    11.6450
  3398.40     9.1150    12.4750    11.5200    10.7700    10.0650    13.4600     8.1300     9.3550    10.4250    11.4550
  3398.60     8.8050    12.2900    11.1650    10.4850     9.9350    14.0150     8.2900     9.8900    10.8750    11.7950
  3398.80     8.9750    12.1500    10.7600    10.0500     9.6800    13.6700     8.5050    10.5000    11.6500    12.3250
  3399.00     9.3350    11.9850    10.3350     9.5900     9.3550    12.9300     8.8550    11.2450    12.5800    13.0000
  3399.20     9.6250    11.6450     9.7500     9.1200     9.0000    12.0600     9.1750    12.2250    13.6950    13.7250
  3399.40     9.7800    11.4350     9.2900     8.6500     8.7200    11.5700     9.3550    13.0050    14.8100    14.4300
  3399.60    10.3200    11.7950     9.3250     8.2550     8.4950    11.1200     8.9200    12.9850    15.5200    15.0400
  3399.80    10.4150    12.0550     9.3450     8.0550     8.2600    11.1500     8.7050    13.0650    16.2850    15.5900
  3400.00     9.8700    11.6950     9.0200     7.7400     7.9400    11.8350     9.2100    13.8700    17.5450    16.6400
  3400.20     9.7950    11.3150     8.6200     7.2750     7.5500    11.9050     9.5650    14.7450    18.9550    18.0450
  3400.40    10.0650    11.2300     8.3550     6.8850     7.2050    11.3200     9.6150    15.4050    20.3450    19.2600
  3400.60    10.2400    11.0900     8.1050     6.6400     6.9000    11.1350     9.9500    16.4000    21.8100    20.5150
  3400.80    10.1350    10.6250     7.6600     6.3100     6.5050    11.4600    10.7650    17.9750    23.2550    22.1600
  3401.00    10.0500    10.3000     7.2450     5.9850     6.2200    11.4950    11.0750    19.2400    24.4400    23.7700
  3401.20    10.3300    10.4200     7.2650     5.9650     6.1500    11.2550    10.7200    18.6650    24.7250    23.9850
  3401.40    10.1700    10.5300     7.5900     6.0950     6.2300    11.7450    10.7150    17.4250    23.8700    23.2150
  3401.60     9.4400    10.3900     7.8200     6.3350     6.4150    13.2200    10.9050    16.8650    22.6900    22.6200
  3401.80     9.0050    10.3500     7.9900     6.6150     6.5650    13.7600    10.8200    16.3200    21.4050    22.2700
  3402.00     8.7700    10.6550     8.2750     6.8250     6.6600    14.1100    10.5450    15.5150    20.2950    21.5450
  3402.20     8.9550    11.0950     8.6400     7.0600     6.7150    13.9150     9.8350    14.3250    19.5750    20.8450
  3402.40     9.0150    11.3500     8.9150     7.2750     6.7650    13.6800     9.4200    13.7650    19.0600    20.9500
