~Version information
  VERS.                            1.20: CWLS LAS  -  VERSION 1.20
  WRAP.                              NO: One line per depth step
~Well information
# MNEM.UNIT
# ====.================================:===================
  STRT.M                        3148.00: First depth in file
  STOP.M                        3449.00: Last depth in file
  STEP.M                           0.20: Depth increment
  NULL.                            9999: Null values
  COMP.                         COMPANY: 
  WELL.                            WELL: 115 
  FLD .                           FIELD: íÌ§®≠·™†Ô
  CNTY.                          COUNTY: 
  STAT.                           STATE: 
  DATE.                        LOG DATE: 29-04-04
  SRVC.                 SERVICE COMPANY: 
  UWI.           Unique Well Identifier: 
~Parametr information block
# MNEM.UNIT
# ====.================================:===================
~Other information
# ------------------------- REMARKS  AREA ------------------
~Curve information
# MNEM.UNIT
# ====.================================:===================
  DEPT.M                               : Depth curve
SFND.1/CM                              : SFND
SFFD.1/CM                              : SFFD
TCND.                                  : àçíÖÉêÄãúçõâ ëóÖí, åÄãõâ áéçÑ / àçä
TCFD.                                  : àçíÖÉêÄãúçõâ ëóÖí, Å. áéçÑ / àçä
TCNC.                                  : äéåè.àçíÖÉê. ëóÖí, åÄãõâ áéçÑ / àçä
TCFC.                                  : äéåè.àçíÖÉêÄãúçõâ ëóÖí,Å.áéçÑ / àçä
~ASCII Log Data
# ...
  3402.40    10.3170     8.7870  4173.0000  1054.0000  4265.0000  2512.0000
  3402.60    11.9330     9.5680  5593.0000  1230.0000  5885.0000  2914.0000
  3402.80    11.7980     9.3240  6040.0000  1521.0000  5894.0000  3261.0000
  3403.00    11.6780     8.5880  6487.0000  1445.0000  6438.0000  3196.0000
  3403.20    11.5400     8.5030  6743.0000  1551.0000  6988.0000  3323.0000
  3403.40    11.6390     8.4400  5837.0000  1379.0000  6249.0000  2954.0000
  3403.60    12.2180     9.6530  6428.0000  1571.0000  6879.0000  3378.0000
  3403.80    12.2140    10.2860  5111.0000  1437.0000  5272.0000  3088.0000
  3404.00    12.0310    10.1000  5480.0000  1532.0000  5759.0000  3551.0000
  3404.20    12.6460     9.1500  4839.0000  1436.0000  5115.0000  3422.0000
  3404.40    12.1970     9.1310  5081.0000  1405.0000  5255.0000  3256.0000
  3404.60    12.3830     9.5490  4818.0000  1368.0000  5062.0000  3222.0000
  3404.80    10.8830     9.2830  3785.0000  1137.0000  3764.0000  2617.0000
  3405.00    12.4670     9.9130  4569.0000  1390.0000  4789.0000  3214.0000
  3405.20    12.5440     9.7170  4569.0000  1390.0000  4789.0000  3214.0000
  3405.40    11.7200     9.1460  3972.0000  1277.0000  3927.0000  2897.0000
  3405.60    12.3850     9.7170  4172.0000  1386.0000  4227.0000  3112.0000
  3405.80    12.4650    10.0710  6447.0000  1572.0000  7063.0000  3902.0000
  3406.00    12.5900    10.1770  5194.0000  1388.0000  5545.0000  3483.0000
  3406.20    12.7210    10.1820  4050.0000  1184.0000  4073.0000  2685.0000
  3406.40    12.9590    10.1640  5097.0000  1334.0000  5752.0000  3344.0000
  3406.60    12.0760     9.4840  3060.0000   942.0000  3012.0000  2204.0000
  3406.80    12.8670    10.0730  3113.0000   976.0000  3235.0000  2258.0000
  3407.00    13.4380     9.5310  4678.0000  1292.0000  4763.0000  3173.0000
  3407.20    12.9460     9.4570  4547.0000  1338.0000  4801.0000  3131.0000
  3407.40    12.1170     9.2910  4342.0000  1362.0000  4472.0000  3189.0000
  3407.60    12.1810     9.5350  5498.0000  1533.0000  6326.0000  3653.0000
  3407.80    13.1840     9.5350  4368.0000  1221.0000  4476.0000  2833.0000
  3408.00    12.3260    10.2400  5049.0000  1375.0000  5399.0000  3665.0000
  3408.20    11.8140     9.6140  6486.0000  1710.0000  6991.0000  4444.0000
  3408.40    11.9600     9.0230  5171.0000  1713.0000  5483.0000  4122.0000
  3408.60    11.1500     9.0080  4506.0000  1708.0000  4547.0000  3665.0000
  3408.80    10.4910     8.8480  5009.0000  1616.0000  4975.0000  3624.0000
  3409.00    11.6740     8.0830  5676.0000  1551.0000  5548.0000  3359.0000
  3409.20    11.9830     7.6790  5618.0000  1225.0000  5794.0000  2615.0000
  3409.40    11.0560     8.0290  6014.0000  1227.0000  6212.0000  2684.0000
  3409.60    11.5790     8.4720  6014.0000  1227.0000  6212.0000  2684.0000
  3409.80    12.0580     9.7350  4963.0000  1212.0000  5128.0000  2641.0000
  3410.00    11.6960     9.5730  5706.0000  1460.0000  5871.0000  3343.0000
  3410.20    11.1730     8.8820  4238.0000  1245.0000  4402.0000  2877.0000
  3410.40    12.8700     9.4650  3437.0000  1067.0000  3491.0000  2295.0000
  3410.60    12.5950     9.6690  5280.0000  1497.0000  5428.0000  3616.0000
  3410.80    11.0760     8.7440  4359.0000  1446.0000  4439.0000  3315.0000
  3411.00    11.6120     8.5090  4560.0000  1717.0000  4641.0000  3788.0000
  3411.20    10.7130     8.1410  4254.0000  1631.0000  4246.0000  3522.0000
  3411.40    11.1830     8.7390  3570.0000  1494.0000  3519.0000  3132.0000
  3411.60    11.8220     9.2280  4770.0000  1784.0000  4824.0000  3961.0000
  3411.80    11.0400     9.0320  3068.0000  1286.0000  2993.0000  2573.0000
  3412.00     9.8180     8.2540  3926.0000  1415.0000  3816.0000  3048.0000
  3412.20    10.4000     8.1420  4350.0000  1665.0000  4229.0000  3549.0000
  3412.40    11.6070     7.7650  4501.0000  1541.0000  4617.0000  3379.0000
  3412.60    11.7430     8.4810  4989.0000  1696.0000  5008.0000  3712.0000
  3412.80    10.9740     7.9390  4125.0000  1383.0000  4138.0000  2904.0000
  3413.00    11.4560     8.3490  4316.0000  1262.0000  4517.0000  2702.0000
  3413.20    13.1900     8.9600  7086.0000  1415.0000  7457.0000  3462.0000
  3413.40    11.2500     9.0990  4376.0000  1103.0000  4466.0000  2330.0000
  3413.60    11.4760    10.4030  5228.0000  1149.0000  5299.0000  2495.0000
  3413.80    11.7720     9.9410  5708.0000  1356.0000  5762.0000  2891.0000
  3414.00    12.5840     9.6460  6459.0000  1347.0000  6873.0000  2952.0000
  3414.20    11.5720     9.1600  5127.0000  1179.0000  4925.0000  2511.0000
  3414.40    11.2660     8.6820  5127.0000  1179.0000  4925.0000  2511.0000
  3414.60    12.1920     9.3890  6450.0000  1254.0000  6692.0000  2628.0000
  3414.80    11.3230    10.4260  4609.0000   975.0000  4657.0000  2097.0000
  3415.00    10.7380    10.6180  5613.0000  1016.0000  5951.0000  2451.0000
  3415.20    12.7070     9.4090  4657.0000   967.0000  4805.0000  2157.0000
  3415.40    13.0720     9.3360  7786.0000  1326.0000  8617.0000  2924.0000
  3415.60    13.2040    11.0470  4612.0000   852.0000  4701.0000  1900.0000
  3415.80    13.9940    11.6760  5009.0000   931.0000  5675.0000  2192.0000
  3416.00    13.8480    10.9890  4645.0000   775.0000  5475.0000  2110.0000
  3416.20    12.1700    11.4730  4504.0000   744.0000  5255.0000  2161.0000
  3416.40    11.5950    12.3580  4669.0000   734.0000  4720.0000  2051.0000
  3416.60    11.8240    11.4280  4845.0000   743.0000  4950.0000  1882.0000
  3416.80    11.9660    10.2150  6580.0000  1076.0000  7203.0000  2831.0000
  3417.00    12.7850    10.8540  6307.0000  1150.0000  6574.0000  2852.0000
  3417.20    11.5870     9.6570  5649.0000  1133.0000  5737.0000  2618.0000
  3417.40    11.9680     9.1280  4531.0000  1126.0000  4635.0000  2483.0000
  3417.60    12.5920     9.2260  5916.0000  1292.0000  6225.0000  3001.0000
  3417.80    12.5750    10.5520  5037.0000  1158.0000  5344.0000  2634.0000
  3418.00    12.7520    10.6540  6984.0000  1355.0000  7284.0000  3125.0000
  3418.20    14.0400     9.4770  4975.0000   997.0000  5430.0000  2344.0000
  3418.40    14.7390    10.4560  5405.0000   863.0000  5888.0000  2122.0000
  3418.60    13.7020    10.4840  4492.0000   628.0000  4826.0000  1789.0000
  3418.80    15.2710    10.8500  4133.0000   598.0000  4326.0000  1718.0000
  3419.00    15.6000    13.3670  5185.0000   612.0000  6277.0000  1811.0000
  3419.20    13.9590    13.6140  5185.0000   612.0000  6277.0000  1811.0000
  3419.40    12.3060    12.0070  6274.0000   764.0000  7096.0000  2238.0000
  3419.60    13.8540    11.9180  5392.0000   657.0000  5902.0000  1923.0000
  3419.80    14.9770    11.9420  3311.0000   585.0000  3660.0000  1666.0000
  3420.00    16.1210    12.9070  3703.0000   621.0000  4387.0000  1984.0000
  3420.20    15.3790    13.2030  3230.0000   526.0000  3628.0000  1574.0000
  3420.40    14.4740    11.7680  4498.0000   550.0000  4941.0000  1696.0000
  3420.60    14.7390    11.7390  3844.0000   557.0000  4326.0000  1882.0000
  3420.80    14.7870    12.9420  6026.0000   714.0000  7021.0000  2063.0000
  3421.00    14.1540    12.9460  4217.0000   557.0000  4530.0000  1630.0000
  3421.20    13.4830    11.8270  5200.0000   829.0000  5328.0000  2315.0000
  3421.40    12.8740    11.4330  5113.0000   911.0000  5234.0000  2409.0000
  3421.60    12.3380    10.2080  5896.0000  1020.0000  5981.0000  2643.0000
  3421.80    12.7780     9.1090  6954.0000  1104.0000  7347.0000  2721.0000
  3422.00    12.7900    10.0670  5377.0000   868.0000  5920.0000  2194.0000
  3422.20    13.5370    11.2270  5886.0000   873.0000  6299.0000  2256.0000
  3422.40    13.1240    11.3720  4285.0000   658.0000  4375.0000  1710.0000
  3422.60    12.7160    10.4050  4496.0000   726.0000  4855.0000  1899.0000
  3422.80    12.0240    10.4710  4356.0000   877.0000  4521.0000  2224.0000
  3423.00    12.7400     9.2760  4182.0000   967.0000  4220.0000  2341.0000
  3423.20    13.5160     9.0520  3781.0000   982.0000  4014.0000  2329.0000
  3423.40    12.7970    10.3700  3769.0000  1008.0000  4030.0000  2555.0000
