~Version information
  VERS.                            1.20: CWLS LAS  -  VERSION 1.20
  WRAP.                              NO: One line per depth step
~Well information
# MNEM.UNIT
# ====.================================:===================
  STRT.M                        3140.00: First depth in file
  STOP.M                        3450.00: Last depth in file
  STEP.M                           0.20: Depth increment
  NULL.                            9999: Null values
  COMP.                         COMPANY: 
  WELL.                            WELL: 115 
  FLD .                           FIELD: íùÑàçëäÄü
  CNTY.                          COUNTY: 
  STAT.                           STATE: 
  DATE.                        LOG DATE: 30-04-04
  SRVC.                 SERVICE COMPANY: 
  UWI.           Unique Well Identifier: 
~Parametr information block
# MNEM.UNIT
# ====.================================:===================
~Other information
# ------------------------- REMARKS  AREA ------------------
~Curve information
# MNEM.UNIT
# ====.================================:===================
  DEPT.M                               : Depth curve
MINV.OHMM                              : äÄÜ.ëéèê.èé åàäêéÉêÄÑàÖçí áéçÑì
MNOR.OHMM                              : äÄÜ.ëéèêéíàÇãÖçàÖ å/èéíÖçñàÄã áéçÑÄ
MLL.OHMM                               : äÄÜ.ëéèê/åàäêéÅéäéÇéâ äÄêéíÄÜ/åä-ìñ
MCAL.MM                                : ÑàÄåÖíê äÄÇÖêçéåÖêÄ åä-ìñ
LL3.OHMM                               : äÄÜ.ëéèêéíàÇãÖçàÖ áéçÑÄ Åä-3 /ÄÅäí
CILA.MMHO                              : áéçÑ àä 7à1.6,Ääí.ëàÉçÄã/àä-è/Äàä-5
BS.                                    : Ñ≠Æ¨=215,9¨¨
GR.UR/H                                : ÖëíÖëíÇÖççÄü ÉÄååÄ-ÄäíàÇçéëíú èé Éä
~ASCII Log Data
# ...
  3304.00     3.2540     3.2420    12.3050   215.0000    36.8176    35.5710   215.9000     0.8936
  3304.20     3.3090     3.1420    15.7380   215.0000    47.0116    33.5047   215.9000     0.9068
  3304.40     3.5480     3.2460    18.0060   215.2500    58.0707    32.4340   215.9000     0.9243
  3304.60     3.5950     3.3930    19.6410   215.0000    49.0923    31.3467   215.9000     0.9676
  3304.80     3.1590     3.0570    18.6920   214.8640    39.7786    31.1369   215.9000     0.9828
  3305.00     2.9230     3.0340    13.6390   214.8500    35.7057    28.6238   215.9000     1.0378
  3305.20     2.9770     2.9720    16.7220   214.8410    36.7200    33.6235   215.9000     1.0735
  3305.40     3.2420     3.2050    12.6010   215.0000    35.4504    33.7737   215.9000     1.1008
  3305.60     3.3990     3.1070    12.4520   215.0000    33.6759    33.8721   215.9000     1.0576
  3305.80     3.2390     3.2750    13.5560   215.0000    32.7905    32.9134   215.9000     1.0533
  3306.00     3.1730     3.1930    11.9700   215.2500    28.5985    31.9808   215.9000     1.0946
  3306.20     3.3120     3.1250    12.1830   215.4000    35.3340    32.0391   215.9000     1.0425
  3306.40     3.5280     3.2720    16.5380   215.5000    48.8285    29.4912   215.9000     0.9148
  3306.60     3.1640     3.1090    26.9070   215.2500    75.1457    27.1700   215.9000     0.8196
  3306.80     3.8540     3.5980    48.4590   215.9380   139.8296    25.1960   215.9000     0.8930
  3307.00     7.6770     4.5100    99.4270   218.7750   243.3698    24.5430   215.9000     0.9699
  3307.20     7.8230     4.5650    78.3770   219.0000   178.1019    25.2357   215.9000     0.9811
  3307.40     4.5680     3.3980    71.1490   217.3730   105.5796    27.3299   215.9000     0.8854
  3307.60     3.8410     3.6440    50.8280   216.8640   127.0873    29.7739   215.9000     0.8520
  3307.80     4.3860     3.4100    71.9350   216.8250   135.2014    31.5510   215.9000     0.7922
  3308.00     4.3920     3.2670    58.0570   216.2000   107.7744    32.9333   215.9000     0.7378
  3308.20     4.2550     3.4780    46.0480   216.5000    94.4702    34.4059   215.9000     0.7401
  3308.40     3.2280     3.3900    54.0000   214.7500    66.9277    36.4457   215.9000     0.8411
  3308.60     3.5050     3.2800    35.7940   214.7500    54.7759    39.2650   215.9000     0.9357
  3308.80     3.1200     3.2560    33.9730   214.7500    48.4954    42.1152   215.9000     0.8847
  3309.00     3.2770     3.1480    26.8770   214.7500    48.1464    43.1381   215.9000     0.7430
  3309.20     3.2020     3.0490    26.6670   214.7500    52.1689    41.7910   215.9000     0.6905
  3309.40     3.0720     3.1040    33.4190   214.7500    67.0820    38.7499   215.9000     0.7642
  3309.60     3.6670     3.4110    44.9900   215.8190   100.4261    35.3885   215.9000     0.9043
  3309.80     4.0200     3.0780    54.1010   216.0000    88.6282    33.2953   215.9000     0.9869
  3310.00     3.1260     3.2160    52.0370   215.1000    69.3919    33.4810   215.9000     0.9843
  3310.20     3.1430     3.0560    32.6400   215.0000    46.7910    35.1468   215.9000     0.9703
  3310.40     3.2790     3.2480    24.8060   215.0460    39.8286    36.5195   215.9000     0.9765
  3310.60     3.3820     3.3130    23.4920   215.5000    40.5888    37.4223   215.9000     1.0058
  3310.80     3.6400     3.3500    25.6910   214.8000    37.6388    37.8868   215.9000     1.0204
  3311.00     3.1030     3.3360    28.5260   214.7500    33.6669    39.7373   215.9000     1.0109
  3311.20     3.1760     3.3100    25.9620   214.7500    34.5356    39.5126   215.9000     1.0278
  3311.40     3.3960     3.1210    19.6690   214.7500    43.8288    37.9023   215.9000     1.0029
  3311.60     3.4420     3.3080    24.5710   214.7500    57.7432    35.4559   215.9000     0.9613
  3311.80     2.9750     3.3440    34.1090   214.8250    79.0869    32.7152   215.9000     0.9301
  3312.00     3.1760     3.1140    49.0990   214.7500    90.6950    29.2560   215.9000     0.9515
  3312.20     3.7140     3.2750    47.1320   215.1260    97.0517    26.5536   215.9000     0.9575
  3312.40     4.7460     3.3980    46.3710   216.5000    94.1479    25.3040   215.9000     0.8875
  3312.60     4.2810     3.5660    55.7270   216.6590    98.1706    23.7502   215.9000     0.8189
  3312.80     6.0580     3.8990    44.7820   218.5000   114.5108    24.1813   215.9000     0.7794
  3313.00     3.6110     3.2980    55.8620   216.6590    83.2093    24.0420   215.9000     0.7745
  3313.20     3.5360     3.4130    44.9920   215.1750    82.1214    25.2895   215.9000     0.8846
  3313.40     3.6420     3.3920    49.6120   214.9500    77.4193    26.2568   215.9000     1.0127
  3313.60     3.3430     3.4560    43.7790   215.0000    87.9180    26.4220   215.9000     1.0384
  3313.80     3.4430     3.2940    41.3590   215.0000    87.7828    26.7955   215.9000     0.9244
  3314.00     3.8780     3.4240    43.6920   215.2250    90.9715    27.3373   215.9000     0.7801
  3314.20     5.6250     3.5540    41.4500   216.4510   103.8253    26.2477   215.9000     0.7634
  3314.40     5.5440     3.6720    43.0000   217.7500    93.2353    26.0860   215.9000     0.7929
  3314.60     5.7300     3.7680    38.8470   217.7500    83.7649    27.8653   215.9000     0.8720
  3314.80     7.0040     3.7960    36.7750   218.0000    80.1920    28.5415   215.9000     0.9513
  3315.00     6.2670     3.8930    37.0210   217.9250    86.2802    30.1666   215.9000     0.9933
  3315.20     5.6100     3.9720    40.1510   217.3490    91.1403    32.0666   215.9000     0.9577
  3315.40     4.3810     3.2130    40.3960   216.3990    76.3889    33.6301   215.9000     0.8916
  3315.60     3.1680     3.0750    41.7800   214.7500    51.7837    33.8053   215.9000     0.8493
  3315.80     3.3820     3.2560    26.3830   214.5000    41.5085    39.3695   215.9000     0.9136
  3316.00     3.2410     3.3320    23.4060   214.5000    45.8200    41.0500   215.9000     0.9405
  3316.20     3.4370     3.2560    27.3040   214.5000    62.8593    41.7226   215.9000     0.8860
  3316.40     2.9750     3.1430    35.5360   214.5000    68.2418    41.0346   215.9000     0.7696
  3316.60     3.4400     3.2870    39.7160   214.9380    61.7489    38.8524   215.9000     0.7472
  3316.80     3.4320     3.3410    31.1230   215.3750    61.1490    37.2043   215.9000     0.8300
  3317.00     5.0320     3.3190    27.6950   215.7500    45.3237    36.5046   215.9000     0.8864
  3317.20     3.7060     3.2970    22.9130   214.9250    29.4912    37.9813   215.9000     0.8949
  3317.40     3.1940     3.1680    14.7700   214.7500    30.0095    39.5524   215.9000     0.8957
  3317.60     3.2650     3.0860    16.3750   214.7500    33.3938    40.7324   215.9000     0.9530
  3317.80     3.1670     3.1680    16.5110   214.7500    42.5160    39.6744   215.9000     1.0489
  3318.00     3.5150     3.1370    17.7140   215.1500    46.8166    35.0222   215.9000     1.0822
  3318.20     3.2530     3.1190    17.5100   215.1000    44.2687    29.7301   215.9000     1.0278
  3318.40     3.0620     3.0000    14.1790   215.1250    41.1788    33.3766   215.9000     1.0063
  3318.60     2.9750     3.0030    15.4620   215.2500    35.1377    32.0443   215.9000     1.0349
  3318.80     3.0230     2.9230    14.4220   215.0000    31.9824    35.5305   215.9000     1.1069
  3319.00     3.1490     2.8810    12.5770   214.7500    32.0201    38.2454   215.9000     1.0798
  3319.20     3.1490     3.1420    13.7350   214.7500    31.3064    40.2170   215.9000     0.9563
  3319.40     3.4300     3.0640    12.0380   215.5000    34.0938    40.5682   215.9000     0.8443
  3319.60     3.4860     3.1880    13.0380   215.3000    37.3238    38.0072   215.9000     0.7943
  3319.80     3.4600     3.1940    13.3360   215.4250    42.0797    40.8752   215.9000     0.8415
  3320.00     3.4250     3.1850    16.2090   215.2500    41.8061    40.8258   215.9000     0.9328
  3320.20     3.1780     2.9830    14.4760   215.1500    40.0231    42.1292   215.9000     1.0643
